~Version Information
 VERS.                2.0:  CWLS LOG ASCII STANDARD -VERSION 2.0
 WRAP.                 NO:  ONE LINE PER DEPTH STEP
~WELL INFORMATION BLOCK
#MNEM.UNIT       DATA		            DESCRIPTION OF MNEMONIC
#---------    -------------            ------------------------
 STRT.M      .000                        :START DEPTH
 STOP.M    82.700                        :STOP DEPTH
 STEP.M      .050                        :STEP
 NULL.    -999999.0                      :NULL VALUE
 COMP.       WML                         :COMPANY
 WELL.                          B62B0902 :WELL
 FLD .    Voerendaal                     :FIELD
 CNTY.                                   :COUNTY
 STAT.                                   :STATE
 SRVC.                                   :SERVICE COMPANY
 DATE.     04-FEB-92                     :LOG DATE
 UWI .                                   :UNIQUE WELL ID
 LIC .                                   :LICENSE NUMBER
~Curve Information Block
#MNEM.UNIT      API CODE     Curve Description
#---------    -------------  ------------------------
DEPTH    .M         00 000 00 00          :  1  DEPTH
SN40     .OHM.M     00 000 00 00          :  2  SN40
SP       .V         00 000 00 00          :  3  SP
CAL      .MM        00 000 00 00          :  4  CAL
LN160    .OHM.M     00 000 00 00          :  5  LN160
GAMMA    .CPS       00 000 00 00          :  6  GAMMA
~Parameter Information Block
#MNEM.UNIT   Information     Description
#---------- ---------------  ------------------------
 FILE.                         :File Type
 FIID.                         :File Type Identifier
 VERS.                         :System Version
 SER .                         :System Serial Number
 TRUK.                         :Truck Calibration Number
 TOOL.                         :Tool Serial Number
 TIME.                         :Time    HrHrMinMin
 LAT .                         :Latitude
 LON .                         :Longitude
 LMF .            MV           :LOG Measured FROM
 DMF .                         :Driller Measured From
 PD  .                         :Permanent Data
 PDEV.                         :Elevation Permanent Data
 EKB .M                        :Elevation Kelly Bushing
 ELEV.DF                       :Elevation DF
 EGL .M                        :Elevation Ground Level
 DRDP.                         :Drillers Depth
 CASD.                         :Casing Diameter
 CASB.                         :Casing Bottom
 CASX.                         :Casing Type
 CAST.                         :Casing Thickness
 TNOC.                         :Time Circulation Stopped
 LOGU.                         :Logging Unit
 RECB.            Bergsma      :Recorded By
 OSR1.                         :Other Services
 OSR2.                         :Other Services
 OSR3.                         :Other Services
 BS  .MM                       :Bit Size
 MST .                         :Mean Surface Temperature
 TGRD.                         :Temperature Gradiant
 MAGN.                         :Magnetic Declination
 MDEN.                         :Density Matrix
 MATR.                         :Neutron Matrix
 DTMT.                         :Delta T Matrix
 DTFL.                         :Delta T Fluid
 MUDS.                         :Mud Sample Source
 MRS .                         :Mud Resistivity
 MTP .                         :Mud Temperature
 MFRS.                         :Resistivity Mud Filtrate
 MFTP.                         :Temperature Mud Filtrate
 MCRS.                         :Resistivity Mud Cake
 MCTP.                         :Temperature Mud Cake
 FTYP.                         :Fluid Type
 FD  .K/M3                     :Fluid Density
 DFV .S                        :Fluid Viscosity
 FPH .                         :Fuild PH
 ELCO.                         :Electron Cutoff
~Other Information
#MNEM.UNIT  Information      Description
#---------- ---------------  ------------------------
# --------------------------
## COMMENTS    Top_Depth   Bot_Depth  LithCode  Lat    Long   Elev_Gl
##    Type of LithCode   Lithologie - 1970
##                    .00       10.80       13.00     
##                  10.85       11.80       23.00     
##                  11.85       15.70        6.00     
##                  15.75       16.00       23.00     
##                  16.05       28.00        7.00     
##                  28.05       46.00        9.00     
##                  46.05       46.05         .00     
##    last_layer   46.05
# --------------------------
~A DEPTH    SN40     SP       CAL      LN160    GAMMA    
# ...
    78.050    46.590      .041   207.600    46.920     9.970
    78.100    46.410      .041   209.200    47.040     9.910
    78.150    46.030      .041   210.800    47.150     9.850
    78.200    45.870      .041   211.500    47.270     9.720
    78.250    45.880      .041   211.800    47.400     9.560
    78.300    46.140      .041   208.700    47.550     9.470
    78.350    46.550      .040   207.800    47.730     9.260
    78.400    46.980      .040   208.000    47.930     9.180
    78.450    46.790      .040   208.700    48.170     9.230
    78.500    46.540      .040   208.800    48.480     9.500
    78.550    46.340      .040   208.100    48.830     9.750
    78.600    46.340      .040   207.800    49.270     9.950
    78.650    46.700      .040   208.700    49.730    10.050
    78.700    47.350      .039   210.100    50.180    10.250
    78.750    48.410      .039   211.000    50.690    10.370
    78.800    49.450      .039   211.100    51.080    10.350
    78.850    50.650      .039   210.500    51.410    10.300
    78.900    51.450      .039   209.800    51.670    10.070
    78.950    51.940      .039   209.300    51.890     9.780
    79.000    52.900      .040   208.900    52.110     9.650
    79.050    53.500      .039   209.300    52.320     9.660
    79.100    54.130      .039   209.700    52.540     9.670
    79.150    54.680      .039   210.100    52.770     9.710
    79.200    55.050      .039   210.100    52.980     9.800
    79.250    55.060      .039   210.400    53.200     9.950
    79.300    54.830      .039   211.000    53.460    10.250
    79.350    54.500      .039   211.300    53.750    10.400
    79.400    54.090      .039   211.500    54.270    10.430
    79.450    53.780      .039   211.600    54.610    10.420
    79.500    53.290      .038   212.000    54.750    10.410
    79.550    53.390      .038   212.200    54.790    10.460
    79.600    53.630      .037   212.800    54.740    10.630
    79.650    53.820      .037   213.400    54.710    10.740
    79.700    54.030      .036   213.300    54.520    10.740
    79.750    54.190      .036   212.700    54.350    10.710
    79.800    54.270      .035   212.200    54.260    10.660
    79.850    54.350      .034   212.000    54.260    10.520
    79.900    54.710      .034   212.100    54.260    10.250
    79.950    55.200      .033   211.700    54.220     9.830
    80.000    55.650      .033   211.700    54.100     9.460
    80.050    55.780      .033   211.300    53.540     9.420
    80.100    55.540      .033   210.900    53.020     9.420
    80.150    55.260      .034   211.700    52.150     9.280
    80.200    55.150      .036   212.000    51.420     9.060
    80.250    55.360      .036   211.500    50.680     8.650
    80.300    55.990      .037   210.300    50.100     8.590
    80.350    56.940      .037   209.500    49.680     8.700
    80.400    58.000      .037   209.200    49.550     8.850
    80.450    58.700      .038   209.000    49.430     9.080
    80.500    59.500      .040   209.300    49.410     9.240
    80.550    59.860      .040   209.400    49.390     9.500
    80.600    59.730      .040   209.500    49.360     9.680
    80.650    59.240      .039   209.600    49.330     9.880
    80.700    58.600      .039   209.800    49.220     9.980
    80.750    57.310      .039   210.000    49.120     9.930
    80.800    56.000      .038   210.200    48.950     9.750
    80.850    54.660      .038   210.100    48.710     9.600
    80.900    53.920      .038   210.000    48.470     9.450
    80.950    53.530      .037   209.900    48.220     9.300
    81.000    53.250      .037   210.000    47.900     9.180
    81.050    52.980      .036   210.200    47.880     9.180
    81.100    52.700      .036   210.300    47.850     9.200
    81.150    52.290      .036   210.400    47.840     9.200
    81.200    51.890      .036   210.500    47.850     9.200
    81.250    51.200      .035   210.600    47.770     9.200
    81.300    50.660      .035   210.600    47.470     9.190
    81.350    50.030      .035   210.600    47.100     9.190
    81.400    49.250      .034   210.600    46.720     9.180
    81.450    48.510      .034   209.900    46.230     9.170
    81.500    47.760      .033   209.300    46.000     9.170
    81.550    46.860 -999999.0    208.900    45.920     9.190
    81.600    46.320 -999999.0    208.900    45.930     9.270
    81.650    46.190 -999999.0    209.100    45.960     9.470
    81.700    46.160 -999999.0    209.300    45.990     9.660
    81.750    46.090 -999999.0    209.400    45.940     9.790
    81.800    45.970 -999999.0    209.400    45.890     9.880
    81.850    45.730 -999999.0    209.600    45.740 -999999.0 
    81.900    45.030 -999999.0    209.700    45.560 -999999.0 
    81.950    42.940 -999999.0    209.900    45.340 -999999.0 
    82.000    42.100 -999999.0    210.400    45.040 -999999.0 
    82.050    41.820 -999999.0    211.500    44.790 -999999.0 
    82.100    41.560 -999999.0    212.400 -999999.0  -999999.0 
    82.150    41.360 -999999.0    212.000 -999999.0  -999999.0 
    82.200    41.000 -999999.0    210.800 -999999.0  -999999.0 
    82.250    40.740 -999999.0    210.600 -999999.0  -999999.0 
    82.300    40.440 -999999.0    210.600 -999999.0  -999999.0 
    82.350    40.110 -999999.0    210.800 -999999.0  -999999.0 
    82.400    39.770 -999999.0    210.900 -999999.0  -999999.0 
    82.450    39.270 -999999.0    210.500 -999999.0  -999999.0 
    82.500    38.950 -999999.0    208.200 -999999.0  -999999.0 
    82.550    38.390 -999999.0    205.200 -999999.0  -999999.0 
    82.600 -999999.0  -999999.0    201.900 -999999.0  -999999.0 
    82.650 -999999.0  -999999.0    203.800 -999999.0  -999999.0 
    82.700 -999999.0  -999999.0    206.100 -999999.0  -999999.0 
 -999999.0  -999999.0  -999999.0  -999999.0  -999999.0  -999999.0 
 -999999.0  -999999.0  -999999.0  -999999.0  -999999.0  -999999.0 
 -999999.0  -999999.0  -999999.0  -999999.0  -999999.0  -999999.0 
 -999999.0  -999999.0  -999999.0  -999999.0  -999999.0  -999999.0 
 -999999.0  -999999.0  -999999.0  -999999.0  -999999.0  -999999.0 
 -999999.0  -999999.0  -999999.0  -999999.0  -999999.0  -999999.0 
 -999999.0  -999999.0  -999999.0  -999999.0  -999999.0  -999999.0 
 -999999.0  -999999.0  -999999.0  -999999.0  -999999.0  -999999.0 
 -999999.0  -999999.0  -999999.0  -999999.0  -999999.0  -999999.0 
 -999999.0  -999999.0  -999999.0  -999999.0  -999999.0  -999999.0 
 -999999.0  -999999.0  -999999.0  -999999.0  -999999.0  -999999.0 
 -999999.0  -999999.0  -999999.0  -999999.0  -999999.0  -999999.0 
 -999999.0  -999999.0  -999999.0  -999999.0  -999999.0  -999999.0 
 -999999.0  -999999.0  -999999.0  -999999.0  -999999.0  -999999.0 
 -999999.0  -999999.0  -999999.0  -999999.0  -999999.0  -999999.0 
 -999999.0  -999999.0  -999999.0  -999999.0  -999999.0  -999999.0 
 -999999.0  -999999.0  -999999.0  -999999.0  -999999.0  -999999.0 
 -999999.0  -999999.0  -999999.0  -999999.0  -999999.0  -999999.0 
 -999999.0  -999999.0  -999999.0  -999999.0  -999999.0  -999999.0 
 -999999.0  -999999.0  -999999.0  -999999.0  -999999.0  -999999.0 
 -999999.0  -999999.0  -999999.0  -999999.0  -999999.0  -999999.0 
 -999999.0  -999999.0  -999999.0  -999999.0  -999999.0  -999999.0 
 -999999.0  -999999.0  -999999.0  -999999.0  -999999.0  -999999.0 
 -999999.0  -999999.0  -999999.0  -999999.0  -999999.0  -999999.0 
 -999999.0  -999999.0  -999999.0  -999999.0  -999999.0  -999999.0 
 -999999.0  -999999.0  -999999.0  -999999.0  -999999.0  -999999.0 
 -999999.0  -999999.0  -999999.0  -999999.0  -999999.0  -999999.0 
 -999999.0  -999999.0  -999999.0  -999999.0  -999999.0  -999999.0 
 -999999.0  -999999.0  -999999.0  -999999.0  -999999.0  -999999.0 
 -999999.0  -999999.0  -999999.0  -999999.0  -999999.0  -999999.0 
 -999999.0  -999999.0  -999999.0  -999999.0  -999999.0  -999999.0 
 -999999.0  -999999.0  -999999.0  -999999.0  -999999.0  -999999.0 
 -999999.0  -999999.0  -999999.0  -999999.0  -999999.0  -999999.0 
