~Version Information
 VERS.                2.0:  CWLS LOG ASCII STANDARD -VERSION 2.0
 WRAP.                 NO:  ONE LINE PER DEPTH STEP
~WELL INFORMATION BLOCK
#MNEM.UNIT       DATA		            DESCRIPTION OF MNEMONIC
#---------    -------------            ------------------------
 STRT.M      .150                        :START DEPTH
 STOP.M   #######                        :STOP DEPTH
 STEP.M      .050                        :STEP
 NULL.    -999999.0                      :NULL VALUE
 COMP.       SOFTDR                      :COMPANY
 WELL.                          B62B0927 :WELL
 FLD .    Heerlen                        :FIELD
 CNTY.                                   :COUNTY
 STAT.                                   :STATE
 SRVC.                                   :SERVICE COMPANY
 DATE.     29-MAY-97                     :LOG DATE
 UWI .                                   :UNIQUE WELL ID
 LIC .                                   :LICENSE NUMBER
~Curve Information Block
#MNEM.UNIT      API CODE     Curve Description
#---------    -------------  ------------------------
DEPTH    .M         00 000 00 00          :  1  DEPTH
GAM(NAT) .CPS       00 000 00 00          :  2  GAM(NAT)
SP       .V         00 000 00 00          :  3  SP
RES(16N) .OHM.M     00 000 00 00          :  4  RES(16N)
RES(64N) .OHM.M     00 000 00 00          :  5  RES(64N)
RES      .OHM       00 000 00 00          :  6  RES
~Parameter Information Block
#MNEM.UNIT   Information     Description
#---------- ---------------  ------------------------
 FILE.                         :File Type
 FIID.                         :File Type Identifier
 VERS.                         :System Version
 SER .                         :System Serial Number
 TRUK.                         :Truck Calibration Number
 TOOL.                         :Tool Serial Number
 TIME.                         :Time    HrHrMinMin
 LAT .                         :Latitude
 LON .                         :Longitude
 LMF .            MV           :LOG Measured FROM
 DMF .                         :Driller Measured From
 PD  .                         :Permanent Data
 PDEV.                         :Elevation Permanent Data
 EKB .M                        :Elevation Kelly Bushing
 ELEV.DF                       :Elevation DF
 EGL .M                        :Elevation Ground Level
 DRDP.                         :Drillers Depth
 CASD.                         :Casing Diameter
 CASB.                         :Casing Bottom
 CASX.                         :Casing Type
 CAST.                         :Casing Thickness
 TNOC.                         :Time Circulation Stopped
 LOGU.                         :Logging Unit
 RECB.            Bergsma      :Recorded By
 OSR1.                         :Other Services
 OSR2.                         :Other Services
 OSR3.                         :Other Services
 BS  .MM                       :Bit Size
 MST .                         :Mean Surface Temperature
 TGRD.                         :Temperature Gradiant
 MAGN.                         :Magnetic Declination
 MDEN.                         :Density Matrix
 MATR.                         :Neutron Matrix
 DTMT.                         :Delta T Matrix
 DTFL.                         :Delta T Fluid
 MUDS.                         :Mud Sample Source
 MRS .                         :Mud Resistivity
 MTP .                         :Mud Temperature
 MFRS.                         :Resistivity Mud Filtrate
 MFTP.                         :Temperature Mud Filtrate
 MCRS.                         :Resistivity Mud Cake
 MCTP.                         :Temperature Mud Cake
 FTYP.                         :Fluid Type
 FD  .K/M3                     :Fluid Density
 DFV .S                        :Fluid Viscosity
 FPH .                         :Fuild PH
 ELCO.                         :Electron Cutoff
~Other Information
#MNEM.UNIT  Information      Description
#---------- ---------------  ------------------------
# --------------------------
## COMMENTS    Top_Depth   Bot_Depth  LithCode  Lat    Long   Elev_Gl
##    Type of LithCode   Lithologie - 1970
##                    .15        3.55       62.00     
##                   3.55        5.50        2.00     
##                   5.50        8.70       26.00     
##                   8.70       15.10       63.00     
##                  15.10       19.15       26.00     
##                  19.15       20.70       43.00     
##                  20.70       22.60       26.00     
##                  22.60       30.05       63.00     
##                  30.05       30.85       26.00     
##                  30.85       52.70       63.00     
##                  52.70       54.00       26.00     
##                  54.00       58.15       63.00     
##                  58.15       59.85       26.00     
##                  59.85       66.75       63.00     
##                  66.75       70.35       26.00     
##                  70.35       72.25       63.00     
##                  72.25       73.10       26.00     
##                  73.10       74.40       63.00     
##                  74.40       75.15       26.00     
##                  75.15       75.95       63.00     
##                  75.95       76.75       26.00     
##                  76.75       77.40       63.00     
##                  77.40       78.20       26.00     
##                  78.20       79.70       63.00     
##                  79.70       80.75       26.00     
##                  80.75       81.70       58.00     
##                  81.70       83.15       26.00     
##                  83.15       84.95       58.00     
##                  84.95       87.35       22.00     
##                  87.35       88.60       23.00     
##                  88.60       89.30       58.00     
##                  89.30       91.10       23.00     
##                  91.10       92.35       58.00     
##                  92.35       94.30       23.00     
##                  94.30       99.05       26.00     
##                  99.05      100.50       23.00     
##                 100.50      103.10       26.00     
##                 103.10      105.80       40.00     
##                 105.80      107.05       43.00     
##                 107.05      110.35       57.00     
##                 110.35      112.35       15.00     
##                 112.35      116.10       63.00     
##                 116.10      120.45       32.00     
##                 120.45      121.95       63.00     
##                 121.95      122.70       12.00     
##                 122.70      124.70       15.00     
##                 124.70      127.95       19.00     
##                 127.95      129.55       58.00     
##                 129.55      130.60       38.00     
##                 130.60      132.70       57.00     
##                 132.70      133.60       59.00     
##                 133.60      135.20       57.00     
##                 135.20      135.85       59.00     
##                 135.85      136.50       57.00     
##                 136.50      137.30       58.00     
##    last_layer   137.3
##    Type of LithCode   Lithologie - 1970
##                   1.90        2.15       87.00     
##                   2.15        3.90       84.00     
##                   3.90        4.25       85.00     
##                   4.25       21.95         .00     
##                  21.95       22.35       87.00     
##                  22.35       24.95       84.00     
##                  24.95       25.30       85.00     
##                  25.30       37.95         .00     
##                  37.95       38.25       87.00     
##                  38.25       40.95       84.00     
##                  40.95       41.20       85.00     
##                  41.20       42.00         .00     
##                  42.00       44.95       74.00     
##                  44.95       46.95         .00     
##                  46.95       47.25       87.00     
##                  47.25       50.90       84.00     
##                  50.90       51.20       85.00     
##                  51.20       59.95         .00     
##                  59.95       60.35       87.00     
##                  60.35       62.95       84.00     
##                  62.95       63.25       85.00     
##                  63.25       76.90         .00     
##                  76.90       77.15       87.00     
##                  77.15       80.00       84.00     
##                  80.00       80.35       85.00     
##                  80.35      106.95         .00     
##                 106.95      107.25       87.00     
##                 107.25      115.45       84.00     
##                 115.45      115.80       85.00     
##                 115.80      116.40         .00     
##                 116.40      117.40       77.00     
##                 117.40      119.40       80.00     
##                 119.40      120.45       77.00     
##                 120.45      121.90         .00     
##                 121.90      122.35       87.00     
##                 122.35      127.90       84.00     
##                 127.90      128.30       85.00     
##                 128.30      130.95         .00     
##                 130.95      131.25       87.00     
##                 131.25      133.95       84.00     
##                 133.95      134.15       85.00     
##    last_layer   134.15
# --------------------------
~A DEPTH    GAM(NAT) SP       RES(16N) RES(64N) RES      
# ...
   105.650    18.200      .044    55.000    40.800   242.400
   105.700    21.600      .044    51.000    40.700   242.300
   105.750    22.100      .045    47.000    40.500   241.400
   105.800    15.400      .045    44.600    40.300   239.700
   105.850    22.800      .046    43.400    40.000   237.000
   105.900    32.400      .046    42.700    39.500   232.500
   105.950    31.000      .047    42.300    38.900   226.400
   106.000    24.200      .048    41.900    38.300   217.600
   106.050    33.300      .048    41.700    37.600   205.600
   106.100    32.800      .048    41.500    36.800   198.700
   106.150    45.100      .048    41.300    36.100   197.100
   106.200    63.000      .048    40.600    35.500   196.300
   106.250    41.900      .048    39.400    35.100   196.000
   106.300    22.900      .048    38.300    35.000   196.000
   106.350    28.800      .048    37.500    35.000   196.700
   106.400    51.100      .047    36.800    34.900   197.700
   106.450    42.800      .047    36.200    34.900   199.600
   106.500    33.200      .046    35.700    34.700   202.600
   106.550    46.700      .047    35.100    34.500   206.800
   106.600    38.400      .047    34.600    34.200   209.900
   106.650    42.100      .047    34.100    34.100   211.600
   106.700    23.700      .046    33.500    34.000   214.000
   106.750    14.600      .046    32.400    33.900   216.000
   106.800    25.400      .046    31.100    33.700   217.000
   106.850    35.100      .046    30.200    33.400   216.500
   106.900    41.500      .047    30.200    33.000   215.400
   106.950    56.100      .047    30.700    32.700   214.300
   107.000    60.400      .049    30.900    32.500   211.800
   107.050    53.400      .050    31.000    32.200   206.400
   107.100    66.600      .050    30.900    32.000   197.800
   107.150    55.200      .050    30.600    31.800   189.900
   107.200    62.000      .050    30.000    31.700   187.500
   107.250    57.500      .049    29.200    31.700   188.600
   107.300    61.100      .049    27.900    31.700   190.800
   107.350    57.100      .049    26.900    31.800   193.200
   107.400    62.600      .049    26.500    31.800   195.000
   107.450    57.800      .050    26.200    31.900   195.300
   107.500    78.200      .050    26.200    32.100   193.300
   107.550    59.700      .050    26.200    32.200   191.000
   107.600    58.300      .051    26.200    32.300   189.800
   107.650    69.900      .051    26.000    32.500   189.400
   107.700    73.700      .051    25.600    32.600   189.200
   107.750    65.900      .050    25.200    32.700   188.800
   107.800    92.200      .051    24.900    33.000   188.100
   107.850    75.000      .051    24.700    33.200   187.400
   107.900    58.100      .051    24.500    33.200   186.600
   107.950    76.000      .051    24.400    33.100   185.900
   108.000    65.900      .052    24.200    33.100   185.500
   108.050    62.600      .052    24.000    33.100   185.000
   108.100    70.700      .053    23.800    33.100   184.700
   108.150    66.700      .053    23.600    33.100   184.900
   108.200    77.100      .053    23.300    33.200   185.100
   108.250    89.900      .053    23.000    33.200   185.300
   108.300    95.700      .053    22.600    33.000   185.200
   108.350    82.900      .053    22.400    32.500   185.400
   108.400    48.200      .052    22.300    32.200   186.200
   108.450    88.200      .053    22.300    32.500   186.400
   108.500    68.400      .053    22.400    32.800   186.100
   108.550    89.100      .053    22.600    32.800   185.200
   108.600    87.300      .053    22.900    32.900   183.700
   108.650    76.400      .055    23.100    33.100   182.400
   108.700    95.000      .055    23.300    33.200   181.500
   108.750    99.400      .056    23.400    33.300   181.000
   108.800    68.600      .057    23.400    33.500   181.600
   108.850    67.300      .057    23.200    33.600   182.800
   108.900    88.300      .056    22.900    33.700   183.800
   108.950    73.300      .056    22.400    33.700   184.000
   109.000    70.300      .055    22.000    33.600   184.000
   109.050    81.700      .055    21.800    33.500   185.000
   109.100    82.700      .055    21.900    33.100   186.700
   109.150    75.800      .055    22.200    32.700   188.200
   109.200   103.800      .055    22.600    32.300   189.500
   109.250   128.400      .055    23.200    31.700   189.400
   109.300    83.800      .055    24.000    31.200   186.000
   109.350    64.800      .054    25.200    30.600   182.400
   109.400    76.000      .053    26.500    30.000   180.700
   109.450    80.000      .053    27.200    29.300   180.100
   109.500    81.200      .053    27.600    28.700   180.400
   109.550    63.500      .053    28.000    28.200   180.500
   109.600    78.400      .052    28.200    27.900   181.000
   109.650    81.100      .051    28.500    27.800   182.100
   109.700    94.400      .050    28.700    27.800   183.600
   109.750    76.900      .049    29.000    27.700   186.900
   109.800    72.800      .048    29.400    27.600   193.200
   109.850    53.300      .047    29.700    27.500   201.100
   109.900    74.300      .047    30.300    27.400   209.700
   109.950    74.300      .047    31.600    27.400   216.200
   110.000    75.900      .046    33.100    27.300   221.600
   110.050    79.500      .046    34.300    27.100   226.900
   110.100    79.100      .046    34.900    26.800   229.300
   110.150    94.900      .046    35.000    26.600   231.800
   110.200    66.100      .046    35.000    26.400   231.100
   110.250    71.400      .046    35.800    26.300   229.600
   110.300    92.800      .046    36.800    26.100   227.100
   110.350    46.000      .047    37.500    25.900   221.600
   110.400    48.200      .047    38.000    25.800   214.400
   110.450    37.500      .048    38.200    25.600   206.000
   110.500    55.800      .048    37.800    25.600   198.000
   110.550    46.200      .048    36.900    25.700   194.700
   110.600    39.600      .048    35.300    26.000   195.300
   110.650    48.900      .048    32.800    26.500   197.200
   110.700    44.800      .048    30.600    27.000   199.100
   110.750    37.800      .048    29.200    27.700   200.900
   110.800    55.300      .048    28.600    28.500   201.800
   110.850    36.800      .048    28.200    29.400   203.100
   110.900    46.300      .049    28.200    30.200   204.300
   110.950    41.400      .049    28.100    30.700   203.100
   111.000    41.100      .050    28.000    31.000   198.800
   111.050    44.600      .052    27.800    31.100   194.300
   111.100    44.200      .051    27.300    31.000   190.900
   111.150    43.600      .050    26.400    30.700   187.500
   111.200    41.100      .049    25.500    30.300   188.100
   111.250    30.500      .049    25.100    29.500   194.200
   111.300    41.400      .050    25.000    28.600   197.100
   111.350    62.400      .051    25.600    27.700   197.100
   111.400    42.300      .051    26.400    26.900   195.600
   111.450    39.000      .051    27.200    26.200   192.300
   111.500    44.200      .051    28.100    26.000   188.500
   111.550    45.400      .050    28.600    25.900   186.900
   111.600    52.500      .050    28.500    25.900   186.800
   111.650    62.300      .051    27.900    26.000   186.000
   111.700    44.000      .051    27.300    26.100   184.200
   111.750    54.000      .050    26.900    26.200   183.600
   111.800    36.500      .049    26.300    26.200   186.700
   111.850    45.900      .048    25.400    26.300   197.500
   111.900    48.000      .048    24.400    26.400   208.300
   111.950    34.300      .048    24.100    26.500   212.600
   112.000    47.600      .048    24.300    26.600   214.800
   112.050    45.000      .048    23.600    26.700   216.000
   112.100    47.100      .048    22.900    26.900   217.000
   112.150    33.700      .049    22.800    27.000   218.000
   112.200    34.600      .049    22.700    27.100   216.600
