~Version Information
 VERS.                2.0:  CWLS LOG ASCII STANDARD -VERSION 2.0
 WRAP.                 NO:  ONE LINE PER DEPTH STEP
~WELL INFORMATION BLOCK
#MNEM.UNIT       DATA		            DESCRIPTION OF MNEMONIC
#---------    -------------            ------------------------
 STRT.M      .000                        :START DEPTH
 STOP.M    68.050                        :STOP DEPTH
 STEP.M      .050                        :STEP
 NULL.    -999999.0                      :NULL VALUE
 COMP.       WML                         :COMPANY
 WELL.                          B62B0903 :WELL
 FLD .    Nuth                           :FIELD
 CNTY.                                   :COUNTY
 STAT.                                   :STATE
 SRVC.                                   :SERVICE COMPANY
 DATE.     13-APR-92                     :LOG DATE
 UWI .                                   :UNIQUE WELL ID
 LIC .                                   :LICENSE NUMBER
~Curve Information Block
#MNEM.UNIT      API CODE     Curve Description
#---------    -------------  ------------------------
DEPTH    .M         00 000 00 00          :  1  DEPTH
GAMMA    .CPS       00 000 00 00          :  2  GAMMA
SN40     .OHM.M     00 000 00 00          :  3  SN40
CAL      .MM        00 000 00 00          :  4  CAL
SP       .V         00 000 00 00          :  5  SP
LN160    .OHM.M     00 000 00 00          :  6  LN160
~Parameter Information Block
#MNEM.UNIT   Information     Description
#---------- ---------------  ------------------------
 FILE.                         :File Type
 FIID.                         :File Type Identifier
 VERS.                         :System Version
 SER .                         :System Serial Number
 TRUK.                         :Truck Calibration Number
 TOOL.                         :Tool Serial Number
 TIME.                         :Time    HrHrMinMin
 LAT .                         :Latitude
 LON .                         :Longitude
 LMF .            MV           :LOG Measured FROM
 DMF .                         :Driller Measured From
 PD  .                         :Permanent Data
 PDEV.                         :Elevation Permanent Data
 EKB .M                        :Elevation Kelly Bushing
 ELEV.DF                       :Elevation DF
 EGL .M                        :Elevation Ground Level
 DRDP.                         :Drillers Depth
 CASD.                         :Casing Diameter
 CASB.                         :Casing Bottom
 CASX.                         :Casing Type
 CAST.                         :Casing Thickness
 TNOC.                         :Time Circulation Stopped
 LOGU.                         :Logging Unit
 RECB.            Bergsma      :Recorded By
 OSR1.                         :Other Services
 OSR2.                         :Other Services
 OSR3.                         :Other Services
 BS  .MM                       :Bit Size
 MST .                         :Mean Surface Temperature
 TGRD.                         :Temperature Gradiant
 MAGN.                         :Magnetic Declination
 MDEN.                         :Density Matrix
 MATR.                         :Neutron Matrix
 DTMT.                         :Delta T Matrix
 DTFL.                         :Delta T Fluid
 MUDS.                         :Mud Sample Source
 MRS .                         :Mud Resistivity
 MTP .                         :Mud Temperature
 MFRS.                         :Resistivity Mud Filtrate
 MFTP.                         :Temperature Mud Filtrate
 MCRS.                         :Resistivity Mud Cake
 MCTP.                         :Temperature Mud Cake
 FTYP.                         :Fluid Type
 FD  .K/M3                     :Fluid Density
 DFV .S                        :Fluid Viscosity
 FPH .                         :Fuild PH
 ELCO.                         :Electron Cutoff
~Other Information
#MNEM.UNIT  Information      Description
#---------- ---------------  ------------------------
# --------------------------
## COMMENTS    Top_Depth   Bot_Depth  LithCode  Lat    Long   Elev_Gl
##    Type of LithCode   Lithologie - 1970
##                    .00        5.00         .00     
##                   5.05        6.80       10.00     
##                   6.85        8.00       11.00     
##                   8.05       11.00       10.00     
##                  11.05       15.00       12.00     
##                  15.05       17.00       10.00     
##                  17.05       18.40       12.00     
##                  18.45       23.00       10.00     
##                  23.05       25.40       12.00     
##                  25.45       28.00        6.00     
##                  28.05       28.35       19.00     
##                  28.40       30.00       11.00     
##                  30.05       31.00       12.00     
##                  31.05       34.00       11.00     
##                  34.05       38.90        6.00     
##                  38.95       40.80       23.00     
##                  40.85       47.45        6.00     
##                  47.50       52.00       21.00     
##                  52.05       60.00       22.00     
##                  60.05       68.00       23.00     
##                  68.05       68.05         .00     
##    last_layer   68.05
# --------------------------
~A DEPTH    GAMMA    SN40     CAL      SP       LN160    
# ...
    13.150    23.300    15.690   497.000      .023    15.920
    13.200    23.500    15.640   494.900      .023    15.980
    13.250    23.650    15.580   493.600      .023    16.040
    13.300    23.030    15.500   491.200      .023    16.100
    13.350    23.210    15.460   487.900      .023    16.170
    13.400    23.460    15.420   488.800      .023    16.240
    13.450    23.580    15.380   493.100      .023    16.300
    13.500    23.680    15.360   494.600      .023    16.350
    13.550    23.920    15.340   494.000      .023    16.410
    13.600    24.140    15.400   492.500      .023    16.470
    13.650    24.390    15.470   488.500      .023    16.520
    13.700    24.690    15.570   485.200      .023    16.560
    13.750    24.990    15.670   484.400      .023    16.600
    13.800    24.070    15.790   493.700      .023    16.640
    13.850    23.680    15.940   498.700      .023    16.700
    13.900    23.640    16.070   501.300      .023    16.750
    13.950    23.580    16.210   501.200      .023    16.810
    14.000    23.430    16.310   499.100      .023    16.860
    14.050    23.210    16.430   498.900      .023    16.910
    14.100    22.990    16.550   498.000      .023    16.960
    14.150    22.820    16.630   496.000      .022    17.010
    14.200    22.910    16.690   496.500      .022    17.070
    14.250    22.900    16.740   496.900      .022    17.130
    14.300    22.620    16.770   495.100      .022    17.190
    14.350    22.320    16.790   493.200      .022    17.270
    14.400    22.130    16.800   499.800      .022    17.350
    14.450    22.380    16.800   502.200      .022    17.450
    14.500    22.740    16.810   500.200      .022    17.570
    14.550    22.900    16.820   498.700      .022    17.690
    14.600    22.880    16.830   497.200      .022    17.970
    14.650    22.670    16.850   500.700      .021    18.200
    14.700    22.680    16.890   505.200      .021    18.520
    14.750    22.650    16.930   505.400      .021    18.930
    14.800    22.510    17.030   502.200      .021    19.220
    14.850    22.570    17.180   501.200      .021    19.690
    14.900    22.680    17.360   502.400      .021    20.190
    14.950    22.750    17.520   504.100      .021    21.120
    15.000    22.860    17.720   507.300      .021    21.440
    15.050    22.890    17.860   509.200      .021    22.010
    15.100    22.610    18.000   513.100      .021    22.350
    15.150    21.600    18.140   521.700      .021    22.640
    15.200    21.210    18.280   523.600      .021    23.020
    15.250    20.940    18.420   523.800      .021    23.370
    15.300    20.620    18.520   523.900      .021    23.670
    15.350    20.300    18.630   525.800      .021    23.930
    15.400    20.060    18.710   529.900      .021    24.200
    15.450    19.280    18.820   529.800      .021    24.460
    15.500    19.310    18.930   529.300      .021    24.680
    15.550    19.570    19.030   529.500      .021    24.900
    15.600    19.820    19.120   530.700      .021    25.110
    15.650    20.380    19.200   530.600      .021    25.350
    15.700    20.940    19.280   530.100      .021    25.510
    15.750    21.550    19.350   528.200      .021    25.680
    15.800    21.730    19.420   527.700      .021    25.820
    15.850    21.760    19.500   527.400      .021    25.970
    15.900    21.510    19.620   525.700      .021    26.100
    15.950    21.200    19.720   523.600      .021    26.220
    16.000    21.260    19.890   520.800      .021    26.340
    16.050    21.490    20.070   514.700      .021    26.400
    16.100    21.720    20.240   517.500      .021    26.450
    16.150    21.880    20.410   516.000      .021    26.510
    16.200    21.660    20.590   519.600      .020    26.550
    16.250    20.910    20.770   522.100      .020    26.590
    16.300    20.630    20.940   523.000      .020    26.620
    16.350    20.460    21.120   523.400      .020    26.640
    16.400    19.980    21.300   523.600      .020    26.650
    16.450    18.990    21.460   525.300      .020    26.670
    16.500    18.750    21.540   526.600      .020    26.680
    16.550    18.020    21.540   528.500      .020    26.700
    16.600    17.500    21.470   529.000      .020    26.740
    16.650    17.440    21.450   530.700      .020    26.780
    16.700    17.510    21.420   532.600      .020    26.860
    16.750    17.680    21.400   532.200      .020    26.950
    16.800    17.930    21.380   531.600      .020    27.080
    16.850    18.310    21.340   529.900      .020    27.250
    16.900    18.560    21.260   526.900      .020    27.390
    16.950    18.670    21.130   525.600      .020    27.500
    17.000    18.870    20.950   524.900      .020    27.720
    17.050    19.120    20.680   523.600      .020    27.930
    17.100    19.630    20.360   521.800      .020    28.140
    17.150    20.300    20.060   521.400      .021    28.350
    17.200    21.210    19.780   522.400      .021    28.550
    17.250    20.790    19.500   523.200      .021    28.760
    17.300    20.490    19.260   523.500      .021    28.960
    17.350    20.280    19.060   522.900      .021    29.170
    17.400    20.490    18.940   520.400      .021    29.400
    17.450    20.700    18.920   516.500      .021    29.570
    17.500    20.650    18.940   514.700      .021    29.750
    17.550    20.660    18.980   514.500      .021    29.920
    17.600    21.200    19.050   510.300      .021    30.090
    17.650    21.550    19.140   508.700      .021    30.250
    17.700    22.350    19.260   505.300      .021    30.400
    17.750    22.510    19.390   503.900      .021    30.580
    17.800    22.370    19.560   502.000      .021    30.770
    17.850    22.070    19.770   483.600      .021    30.940
    17.900    21.580    20.010   470.800      .021    31.060
    17.950    20.510    20.220   477.600      .021    31.190
    18.000    20.120    20.920   479.700      .021    31.310
    18.050    19.750    21.570   483.400      .021    31.430
    18.100    19.270    22.320   493.700      .021    31.530
    18.150    18.390    23.010   498.000      .021    31.620
    18.200    17.650    23.460   506.100      .020    31.720
    18.250    17.120    24.020   510.300      .020    31.830
    18.300    16.640    24.470   516.100      .020    31.940
    18.350    15.860    24.880   517.600      .020    32.080
    18.400    15.520    25.230   519.300      .020    32.180
    18.450    15.100    25.510   519.400      .020    32.320
    18.500    14.910    25.930   517.300      .020    32.470
    18.550    14.780    26.320   520.800      .020    32.630
    18.600    14.830    26.710   522.500      .020    32.820
    18.650    14.980    27.060   522.800      .020    33.040
    18.700    15.030    27.550   524.800      .019    33.220
    18.750    14.990    28.050   525.500      .019    33.670
    18.800    14.900    28.380   525.600      .019    33.930
    18.850    14.690    28.740   524.300      .019    34.270
    18.900    14.330    29.100   524.300      .019    34.670
    18.950    14.050    29.400   524.100      .019    35.110
    19.000    14.000    29.700   524.000      .019    35.540
    19.050    13.970    29.970   524.500      .019    35.910
    19.100    13.930    30.210   524.700      .019    36.280
    19.150    13.840    30.460   523.700      .019    36.720
    19.200    13.660    30.700   520.400      .019    36.990
    19.250    13.800    30.940   520.000      .019    37.320
    19.300    13.950    31.150   520.200      .019    37.570
    19.350    14.160    31.320   518.800      .019    37.820
    19.400    13.810    31.500   517.600      .018    38.120
    19.450    13.510    31.620   516.500      .018    38.410
    19.500    13.380    31.720   515.700      .018    38.680
    19.550    13.190    31.810   514.700      .018    38.940
    19.600    12.910    31.860   516.600      .018    39.190
    19.650    12.770    31.870   518.300      .019    39.430
    19.700    12.630    31.830   518.500      .019    39.650
