~Version Information
 VERS.                2.0:  CWLS LOG ASCII STANDARD -VERSION 2.0
 WRAP.                 NO:  ONE LINE PER DEPTH STEP
~WELL INFORMATION BLOCK
#MNEM.UNIT       DATA		            DESCRIPTION OF MNEMONIC
#---------    -------------            ------------------------
 STRT.M      .000                        :START DEPTH
 STOP.M    79.950                        :STOP DEPTH
 STEP.M      .050                        :STEP
 NULL.    -999999.0                      :NULL VALUE
 COMP.       WML                         :COMPANY
 WELL.                          B62B0898 :WELL
 FLD .    Voerendaal                     :FIELD
 CNTY.                                   :COUNTY
 STAT.                                   :STATE
 SRVC.                                   :SERVICE COMPANY
 DATE.     17-NOV-90                     :LOG DATE
 UWI .                                   :UNIQUE WELL ID
 LIC .                                   :LICENSE NUMBER
~Curve Information Block
#MNEM.UNIT      API CODE     Curve Description
#---------    -------------  ------------------------
DEPTH    .M         00 000 00 00          :  1  DEPTH
UFLOW    .M/S       00 000 00 00          :  2  UFLOW
TEMP     .DEGC      00 000 00 00          :  3  TEMP
SN40     .OHM.M     00 000 00 00          :  4  SN40
SP       .V         00 000 00 00          :  5  SP
CAL      .MM        00 000 00 00          :  6  CAL
TEMP     .DEGC      00 000 00 00          :  7  TEMP
GAMMA    .CPS       00 000 00 00          :  8  GAMMA
LN160    .OHM.M     00 000 00 00          :  9  LN160
~Parameter Information Block
#MNEM.UNIT   Information     Description
#---------- ---------------  ------------------------
 FILE.                         :File Type
 FIID.                         :File Type Identifier
 VERS.                         :System Version
 SER .                         :System Serial Number
 TRUK.                         :Truck Calibration Number
 TOOL.                         :Tool Serial Number
 TIME.                         :Time    HrHrMinMin
 LAT .                         :Latitude
 LON .                         :Longitude
 LMF .            MV           :LOG Measured FROM
 DMF .                         :Driller Measured From
 PD  .                         :Permanent Data
 PDEV.                         :Elevation Permanent Data
 EKB .M                        :Elevation Kelly Bushing
 ELEV.DF                       :Elevation DF
 EGL .M                        :Elevation Ground Level
 DRDP.                         :Drillers Depth
 CASD.                         :Casing Diameter
 CASB.                         :Casing Bottom
 CASX.                         :Casing Type
 CAST.                         :Casing Thickness
 TNOC.                         :Time Circulation Stopped
 LOGU.                         :Logging Unit
 RECB.            Veenendaal   :Recorded By
 OSR1.                         :Other Services
 OSR2.                         :Other Services
 OSR3.                         :Other Services
 BS  .MM                       :Bit Size
 MST .                         :Mean Surface Temperature
 TGRD.                         :Temperature Gradiant
 MAGN.                         :Magnetic Declination
 MDEN.                         :Density Matrix
 MATR.                         :Neutron Matrix
 DTMT.                         :Delta T Matrix
 DTFL.                         :Delta T Fluid
 MUDS.                         :Mud Sample Source
 MRS .                         :Mud Resistivity
 MTP .                         :Mud Temperature
 MFRS.                         :Resistivity Mud Filtrate
 MFTP.                         :Temperature Mud Filtrate
 MCRS.                         :Resistivity Mud Cake
 MCTP.                         :Temperature Mud Cake
 FTYP.                         :Fluid Type
 FD  .K/M3                     :Fluid Density
 DFV .S                        :Fluid Viscosity
 FPH .                         :Fuild PH
 ELCO.                         :Electron Cutoff
~Other Information
#MNEM.UNIT  Information      Description
#---------- ---------------  ------------------------
# --------------------------
## COMMENTS    Top_Depth   Bot_Depth  LithCode  Lat    Long   Elev_Gl
##    Type of LithCode   Lithologie - 1970
##                    .00         .80         .00     
##                    .85        2.25       19.00     
##                   2.30        6.15       12.00     
##                   6.20       28.50        7.00     
##                  28.55       40.50        9.00     
##                  40.55       74.60         .00     
##                  74.65       78.00       10.00     
##                  78.05       78.05         .00     
##    last_layer   78.05
# --------------------------
~A DEPTH    UFLOW    TEMP     SN40     SP       CAL      TEMP     GAMMA    LN160    
# ...
    42.750    28.010    10.450 -999999.0  -999999.0    360.000    11.020     6.470 -999999.0 
    42.800    27.770    10.450 -999999.0  -999999.0    360.000    11.020     6.450 -999999.0 
    42.850    27.440    10.450 -999999.0  -999999.0    360.000    11.020     6.390 -999999.0 
    42.900    26.810    10.450 -999999.0  -999999.0    360.000    11.020     6.300 -999999.0 
    42.950    26.440    10.450 -999999.0  -999999.0    360.000    11.030     6.200 -999999.0 
    43.000    26.030    10.450 -999999.0  -999999.0    360.000    11.030     6.020 -999999.0 
    43.050    26.010    10.450 -999999.0  -999999.0    360.000    11.030     5.810 -999999.0 
    43.100    26.250    10.450 -999999.0  -999999.0    360.000    11.030     5.680 -999999.0 
    43.150    26.580    10.450 -999999.0  -999999.0    360.000    11.030     5.620 -999999.0 
    43.200    27.040    10.450 -999999.0  -999999.0    360.000    11.030     5.580 -999999.0 
    43.250    27.270    10.450 -999999.0  -999999.0    360.000    11.040     5.470 -999999.0 
    43.300    27.620    10.460 -999999.0  -999999.0    359.900    11.040     5.310 -999999.0 
    43.350    27.890    10.460 -999999.0  -999999.0    359.800    11.040     5.200 -999999.0 
    43.400    28.080    10.460 -999999.0  -999999.0    359.800    11.040     5.070 -999999.0 
    43.450    28.120    10.450 -999999.0  -999999.0    359.800    11.050     5.030 -999999.0 
    43.500    28.010    10.450 -999999.0  -999999.0    360.000    11.050     4.970 -999999.0 
    43.550    27.820    10.450 -999999.0  -999999.0    360.000    11.050     4.990 -999999.0 
    43.600    27.450    10.450 -999999.0  -999999.0    360.100    11.050     5.050 -999999.0 
    43.650    27.080    10.450 -999999.0  -999999.0    360.100    11.060     5.090 -999999.0 
    43.700    26.840    10.450 -999999.0  -999999.0    360.200    11.060     5.040 -999999.0 
    43.750    26.590    10.440 -999999.0  -999999.0    360.300    11.060     4.900 -999999.0 
    43.800    26.370    10.440 -999999.0  -999999.0    360.400    11.060     4.720 -999999.0 
    43.850    26.240    10.440 -999999.0  -999999.0    360.200    11.070     4.610 -999999.0 
    43.900    26.200    10.430 -999999.0  -999999.0    360.200    11.070     4.540 -999999.0 
    43.950    26.200    10.430 -999999.0  -999999.0    360.100    11.070     4.510 -999999.0 
    44.000    26.230    10.420 -999999.0  -999999.0    360.000    11.070     4.500 -999999.0 
    44.050    26.240    10.420 -999999.0  -999999.0    360.100    11.080     4.510 -999999.0 
    44.100    26.220    10.420 -999999.0  -999999.0    360.200    11.080     4.500 -999999.0 
    44.150    26.240    10.420 -999999.0  -999999.0    360.300    11.080     4.490 -999999.0 
    44.200    26.290    10.420 -999999.0  -999999.0    360.400    11.080     4.510 -999999.0 
    44.250    26.290    10.420 -999999.0  -999999.0    360.500    11.080     4.550 -999999.0 
    44.300    26.260    10.420 -999999.0  -999999.0    360.700    11.080     4.580 -999999.0 
    44.350    26.160    10.420 -999999.0  -999999.0    360.900    11.080     4.560 -999999.0 
    44.400    26.080    10.420 -999999.0  -999999.0    361.000    11.080     4.550 -999999.0 
    44.450    25.780    10.420 -999999.0  -999999.0    361.400    11.080     4.500 -999999.0 
    44.500    25.390    10.420 -999999.0       .061   361.700    11.080     4.350 -999999.0 
    44.550    24.770    10.420 -999999.0       .063   362.000    11.080     4.260 -999999.0 
    44.600    24.080    10.420 -999999.0       .064   362.800    11.080     4.210 -999999.0 
    44.650    23.450    10.420 -999999.0       .064   363.700    11.080     4.200 -999999.0 
    44.700    22.830    10.420 -999999.0       .064   365.100    11.080     4.210 -999999.0 
    44.750    22.260    10.420 -999999.0       .063   367.500    11.070     4.190 -999999.0 
    44.800    21.900    10.420 -999999.0       .063   390.800    11.070     4.140 -999999.0 
    44.850    21.540    10.420 -999999.0       .062   400.500    11.070     4.020 -999999.0 
    44.900    21.230    10.420 -999999.0       .061   410.300    11.070     3.850 -999999.0 
    44.950    20.820    10.420 -999999.0       .061   420.000    11.070     3.460 -999999.0 
    45.000    20.160    10.420 -999999.0       .060   455.600    11.070     3.400 -999999.0 
    45.050    19.140    10.410 -999999.0       .060   456.800    11.070     3.380 -999999.0 
    45.100    18.700    10.410 -999999.0       .059   457.900    11.070     3.350 -999999.0 
    45.150    18.740    10.410    56.210      .059   461.100    11.070     3.320 -999999.0 
    45.200    18.980    10.410    52.880      .059   480.200    11.070     3.290 -999999.0 
    45.250    19.060    10.410    51.810      .058   500.500    11.080     3.260 -999999.0 
    45.300    18.990    10.410    51.410      .058   537.100    11.080     3.260 -999999.0 
    45.350    19.010    10.400    51.300      .058   539.000    11.080     3.290 -999999.0 
    45.400    18.990    10.400    51.310      .058   539.200    11.080     3.340 -999999.0 
    45.450    18.830    10.400    51.340      .057   539.500    11.080     3.460 -999999.0 
    45.500    18.580    10.400    51.390      .057   539.400    11.090     3.650 -999999.0 
    45.550    17.160    10.400    51.440      .057   538.300    11.090     3.730 -999999.0 
    45.600    15.770    10.400    51.550      .057   537.800    11.090     3.740 -999999.0 
    45.650    14.380    10.400    51.670      .057   537.400    11.090     3.720 -999999.0 
    45.700    12.980    10.400    51.780      .057   537.500    11.090     3.690    64.020
    45.750    11.790    10.400    51.860      .057   538.100    11.100     3.680    62.660
    45.800    10.620    10.400    51.900      .057   539.200    11.100     3.700    61.310
    45.850     9.450    10.390    51.910      .057   540.900    11.100     3.770    60.390
    45.900     8.500    10.390    51.920      .057   542.800    11.100     3.890    60.300
    45.950     8.120    10.390    51.920      .057   543.700    11.100     3.990    60.360
    46.000     8.110    10.390    51.930      .057   540.700    11.110     3.990    60.560
    46.050     8.010    10.380    51.960      .057   541.100    11.110     3.980    60.870
    46.100     7.870    10.380    51.980      .057   542.600    11.110     3.970    61.260
    46.150     7.410    10.380    52.010      .057   544.100    11.110     3.910    61.830
    46.200     6.750    10.370    52.030      .057   545.600    11.110     3.750    62.090
    46.250     6.150    10.370    52.050      .056   551.800    11.110     3.680    62.520
    46.300     6.050    10.370    52.070      .056   562.400    11.110     3.630    62.920
    46.350     6.190    10.370    52.070      .056   573.100    11.110     3.490    63.230
    46.400     6.400    10.360    52.130      .056   583.800    11.100     3.390    63.450
    46.450     6.560    10.360    52.140      .056   581.200    11.100     3.360    63.680
    46.500     6.640    10.360    52.160      .056   553.500    11.100     3.390    63.940
    46.550     6.640    10.360    52.150      .056   546.600    11.100     3.470    64.200
    46.600     6.470    10.360    52.180      .056   540.400    11.100     3.580    64.490
    46.650     6.290    10.350    52.210      .056   538.800    11.100     3.620    64.740
    46.700     6.260    10.350    52.220      .056   539.200    11.090     3.580    65.000
    46.750     6.410    10.350    52.230      .056   540.900    11.090     3.550    65.250
    46.800     6.700    10.350    52.240      .056   542.800    11.090     3.530    65.530
    46.850     7.400    10.350    52.260      .057   547.000    11.090     3.510    65.730
    46.900     7.910    10.350    52.310      .057   550.000    11.090     3.490    65.920
    46.950     8.570    10.350    52.360      .057   553.700    11.090     3.460    66.100
    47.000     8.970    10.350    52.440      .057   559.200    11.090     3.470    66.230
    47.050     9.980    10.350    52.520      .057   562.000    11.080     3.500    66.330
