~Version Information
 VERS.                2.0:  CWLS LOG ASCII STANDARD -VERSION 2.0
 WRAP.                 NO:  ONE LINE PER DEPTH STEP
~WELL INFORMATION BLOCK
#MNEM.UNIT       DATA		            DESCRIPTION OF MNEMONIC
#---------    -------------            ------------------------
 STRT.M      .450                        :START DEPTH
 STOP.M   #######                        :STOP DEPTH
 STEP.M      .050                        :STEP
 NULL.    -999999.0                      :NULL VALUE
 COMP.       SCHIFOOD                    :COMPANY
 WELL.                          B62B0897 :WELL
 FLD .    Heerlen                        :FIELD
 CNTY.                                   :COUNTY
 STAT.                                   :STATE
 SRVC.                                   :SERVICE COMPANY
 DATE.     10-DEC-90                     :LOG DATE
 UWI .                                   :UNIQUE WELL ID
 LIC .                                   :LICENSE NUMBER
~Curve Information Block
#MNEM.UNIT      API CODE     Curve Description
#---------    -------------  ------------------------
DEPTH    .M         00 000 00 00          :  1  DEPTH
SN40     .OHM.M     00 000 00 00          :  2  SN40
SP       .V         00 000 00 00          :  3  SP
CAL      .MM        00 000 00 00          :  4  CAL
LN160    .OHM.M     00 000 00 00          :  5  LN160
GAMMA    .CPS       00 000 00 00          :  6  GAMMA
~Parameter Information Block
#MNEM.UNIT   Information     Description
#---------- ---------------  ------------------------
 FILE.                         :File Type
 FIID.                         :File Type Identifier
 VERS.                         :System Version
 SER .                         :System Serial Number
 TRUK.                         :Truck Calibration Number
 TOOL.                         :Tool Serial Number
 TIME.                         :Time    HrHrMinMin
 LAT .                         :Latitude
 LON .                         :Longitude
 LMF .            MV           :LOG Measured FROM
 DMF .                         :Driller Measured From
 PD  .                         :Permanent Data
 PDEV.                         :Elevation Permanent Data
 EKB .M                        :Elevation Kelly Bushing
 ELEV.DF                       :Elevation DF
 EGL .M                        :Elevation Ground Level
 DRDP.                         :Drillers Depth
 CASD.                         :Casing Diameter
 CASB.                         :Casing Bottom
 CASX.                         :Casing Type
 CAST.                         :Casing Thickness
 TNOC.                         :Time Circulation Stopped
 LOGU.                         :Logging Unit
 RECB.            Bergsma      :Recorded By
 OSR1.                         :Other Services
 OSR2.                         :Other Services
 OSR3.                         :Other Services
 BS  .MM                       :Bit Size
 MST .                         :Mean Surface Temperature
 TGRD.                         :Temperature Gradiant
 MAGN.                         :Magnetic Declination
 MDEN.                         :Density Matrix
 MATR.                         :Neutron Matrix
 DTMT.                         :Delta T Matrix
 DTFL.                         :Delta T Fluid
 MUDS.                         :Mud Sample Source
 MRS .                         :Mud Resistivity
 MTP .                         :Mud Temperature
 MFRS.                         :Resistivity Mud Filtrate
 MFTP.                         :Temperature Mud Filtrate
 MCRS.                         :Resistivity Mud Cake
 MCTP.                         :Temperature Mud Cake
 FTYP.                         :Fluid Type
 FD  .K/M3                     :Fluid Density
 DFV .S                        :Fluid Viscosity
 FPH .                         :Fuild PH
 ELCO.                         :Electron Cutoff
~Other Information
#MNEM.UNIT  Information      Description
#---------- ---------------  ------------------------
# --------------------------
## COMMENTS    Top_Depth   Bot_Depth  LithCode  Lat    Long   Elev_Gl
##    Type of LithCode   Lithologie - 1970
##                    .00         .00         .00     
##                    .45        6.00         .00     
##                   6.05        8.10        2.00     
##                   8.15       15.30       23.00     
##                  15.35       18.50       22.00     
##                  18.55       20.80       11.00     
##                  20.85       22.35       12.00     
##                  22.40       23.40       11.00     
##                  23.45       25.30       12.00     
##                  25.35       26.25       11.00     
##                  26.30       27.80       12.00     
##                  27.85       35.10       11.00     
##                  35.15       47.80       12.00     
##                  47.85       50.40        6.00     
##                  50.45       52.00       23.00     
##                  52.05       53.20       11.00     
##                  53.25       54.60       12.00     
##                  54.65       55.50       11.00     
##                  55.55       56.50       12.00     
##                  56.55       57.25       11.00     
##                  57.30       58.60       12.00     
##                  58.65       64.40       11.00     
##                  64.45       71.10        9.00     
##                  71.15       74.20        7.00     
##                  74.25       75.90        9.00     
##                  75.95       78.90        7.00     
##                  78.95       93.30        9.00     
##                  93.35       95.20       10.00     
##                  95.25       97.60        9.00     
##                  97.65       99.95       10.00     
##                 100.00      100.00         .00     
##                 100.05      126.75     #######     
##    last_layer   126.75
# --------------------------
~A DEPTH    SN40     SP       CAL      LN160    GAMMA    
# ...
    46.250    20.200      .071   585.200    26.620    15.550
    46.300    20.250      .071   594.800    26.770    15.470
    46.350    20.280      .071   604.400    26.950    15.360
    46.400    20.310      .071   613.900    27.090    15.240
    46.450    20.370      .071   607.100    27.200    15.150
    46.500    20.410      .071   594.800    27.390    15.180
    46.550    20.470      .071   582.400    27.500    15.290
    46.600    20.580      .071   572.000    27.630    15.320
    46.650    20.710      .071   587.300    27.770    15.330
    46.700    20.880      .071   602.600    27.910    15.130
    46.750    21.020      .071   607.600    28.060    14.760
    46.800    21.230      .071   607.300    28.240    14.070
    46.850    21.430      .070   606.800    28.370    13.790
    46.900    21.610      .070   606.300    28.490    13.590
    46.950    21.810      .070   606.200    28.620    13.410
    47.000    22.010      .070   606.500    28.780    13.050
    47.050    22.220      .070   607.000    28.920    12.620
    47.100    22.530      .070   607.100    29.150    12.350
    47.150    22.700      .070   607.100    29.330    12.370
    47.200    22.890      .070   607.300    29.470    12.410
    47.250    23.090      .070   607.600    29.630    12.540
    47.300    23.230      .070   607.900    29.830    12.670
    47.350    23.430      .070   608.200    30.020    12.980
    47.400    23.510      .070   608.200    30.240    13.170
    47.450    23.580      .070   607.800    30.430    13.260
    47.500    23.680      .070   606.500    30.620    13.290
    47.550    23.720      .070   606.400    30.860    13.370
    47.600    23.750      .071   608.500    31.090    13.510
    47.650    23.750      .071   609.800    31.330    13.350
    47.700    23.760      .071   609.600    31.570    12.990
    47.750    23.760      .071   609.200    31.810    12.730
    47.800    23.750      .071   609.100    32.170    12.480
    47.850    23.760      .071   609.200    32.480    12.220
    47.900    23.790      .071   609.600    32.840    11.970
    47.950    23.850      .071   609.900    33.260    11.370
    48.000    23.920      .071   610.200    33.670    11.210
    48.050    24.030      .071   610.300    34.000    10.890
    48.100    24.190      .070   609.400    34.270    10.870
    48.150    24.350      .070   604.800    34.500    10.950
    48.200    24.520      .070   598.400    34.650    11.020
    48.250    24.720      .070   596.800    34.870    11.090
    48.300    24.950      .070   598.600    35.120    10.920
    48.350    25.190      .070   599.100    35.370    10.680
    48.400    25.470      .070   599.800    35.710    10.560
    48.450    25.680      .070   598.900    35.940    10.550
    48.500    25.910      .070   595.000    36.140    10.550
    48.550    26.110      .070   594.100    36.300    10.510
    48.600    26.490      .070   593.300    36.500    10.390
    48.650    26.800      .070   588.900    36.720    10.150
    48.700    27.130      .070   583.000    36.950     9.690
    48.750    27.480      .070   576.300    37.190     9.060
    48.800    27.830      .070   583.100    37.430     8.960
    48.850    28.140      .069   590.000    37.730     8.870
    48.900    28.580      .069   596.900    38.010     8.790
    48.950    29.020      .069   593.600    38.300     8.730
    49.000    29.450      .069   585.500    38.670     8.520
    49.050    29.890      .069   577.400    38.950     8.300
    49.100    30.330      .069   578.000    39.230     8.180
    49.150    30.710      .069   583.000    39.490     8.230
    49.200    31.290      .069   588.100    39.760     8.680
    49.250    31.870      .069   593.100    39.990     8.950
    49.300    32.450      .068   593.100    40.290     9.060
    49.350    32.860      .068   578.600    40.610     9.110
    49.400    33.240      .068   563.700    40.930     9.200
    49.450    33.740      .068   568.400    41.210     8.950
    49.500    34.030      .068   573.100    41.480     8.660
    49.550    34.430      .068   577.800    41.750     8.450
    49.600    34.770      .068   582.500    41.980     8.460
    49.650    35.050      .068   586.500    42.210     8.670
    49.700    35.320      .068   575.000    42.380     8.780
    49.750    35.640      .068   563.500    42.620     8.770
    49.800    35.800      .068   557.900    42.810     8.780
    49.850    36.020      .068   562.200    42.970     8.880
    49.900    36.110      .068   566.600    43.080     9.240
    49.950    36.140      .068   570.900    43.110     9.420
    50.000    36.140      .068   575.800    43.140     9.950
    50.050    36.140      .068   567.900    43.110    10.270
    50.100    36.080      .068   559.900    43.080    10.330
    50.150    36.020      .068   552.000    43.030    10.450
    50.200    35.960      .068   549.200    42.950    10.620
    50.250    35.890      .068   555.900    42.850    10.880
    50.300    35.850      .068   562.600    42.760    11.200
    50.350    35.810      .068   569.300    42.620    11.250
    50.400    35.770      .068   568.800    42.500    11.360
    50.450    35.730      .068   559.400    42.390    11.520
    50.500    35.680      .068   550.000    42.230    11.280
    50.550    35.580      .068   540.600    42.060    10.970
    50.600    35.440      .068   541.600    41.920    11.010
    50.650    35.260      .068   548.200    41.730    11.120
    50.700    35.070      .068   554.900    41.530    11.130
    50.750    34.850      .068   561.500    41.310    11.140
    50.800    34.440      .069   568.100    41.090    11.190
    50.850    34.090      .069   575.500    40.880    11.070
    50.900    33.530      .069   567.200    40.570    10.880
    50.950    33.180      .069   559.000    40.180    10.850
    51.000    32.810      .069   550.700    39.910    10.890
    51.050    32.480      .069   546.900    39.580    10.940
    51.100    32.190      .069   554.200    38.960    11.000
    51.150    31.920      .070   561.600    38.700    11.190
    51.200    31.640      .070   568.900    38.430    11.420
    51.250    31.340      .070   576.300    38.170    11.580
    51.300    31.040      .070   574.800    37.890    11.560
    51.350    30.760      .070   573.200    37.530    11.500
    51.400    30.380      .070   577.500    37.170    11.530
    51.450    29.750      .070   584.100    36.850    11.590
    51.500    29.340      .070   587.800    36.530    11.630
    51.550    29.030      .070   587.000    36.210    11.850
    51.600    28.530      .070   586.700    35.910    11.840
    51.650    28.150      .070   584.200    35.690    11.640
    51.700    27.810      .070   584.700    35.400    11.640
    51.750    27.350      .070   587.000    35.210    11.760
    51.800    26.930      .070   589.400    35.030    11.880
    51.850    26.490      .070   589.500    34.880    11.980
    51.900    25.980      .070   589.800    34.670    12.070
    51.950    25.570      .070   588.900    34.460    12.270
    52.000    25.260      .071   585.800    34.250    12.650
    52.050    24.770      .071   584.800    34.060    13.030
    52.100    24.370      .071   580.900    33.890    13.400
    52.150    23.790      .071   571.500    33.730    13.780
    52.200    23.500      .071   571.100    33.610    14.150
    52.250    22.880      .071   577.300    33.480    14.300
    52.300    22.400      .071   583.500    33.370    14.200
    52.350    22.110      .071   578.700    33.180    14.260
    52.400    21.710      .071   566.700    33.040    14.440
    52.450    21.320      .071   554.700    32.950    14.580
    52.500    21.120      .071   552.200    32.870    14.610
    52.550    20.940      .071   563.000    32.800    14.490
    52.600    20.840      .071   573.800    32.730    14.450
    52.650    20.740      .071   584.500    32.720    14.510
    52.700    20.660      .071   593.400    32.710    14.650
    52.750    20.610      .071   571.800    32.710    14.760
    52.800    20.580      .071   550.300    32.720    14.860
