~Version Information
 VERS.                2.0:  CWLS LOG ASCII STANDARD -VERSION 2.0
 WRAP.                 NO:  ONE LINE PER DEPTH STEP
~WELL INFORMATION BLOCK
#MNEM.UNIT       DATA		            DESCRIPTION OF MNEMONIC
#---------    -------------            ------------------------
 STRT.M      .000                        :START DEPTH
 STOP.M    82.700                        :STOP DEPTH
 STEP.M      .050                        :STEP
 NULL.    -999999.0                      :NULL VALUE
 COMP.       WML                         :COMPANY
 WELL.                          B62B0902 :WELL
 FLD .    Voerendaal                     :FIELD
 CNTY.                                   :COUNTY
 STAT.                                   :STATE
 SRVC.                                   :SERVICE COMPANY
 DATE.     04-FEB-92                     :LOG DATE
 UWI .                                   :UNIQUE WELL ID
 LIC .                                   :LICENSE NUMBER
~Curve Information Block
#MNEM.UNIT      API CODE     Curve Description
#---------    -------------  ------------------------
DEPTH    .M         00 000 00 00          :  1  DEPTH
SN40     .OHM.M     00 000 00 00          :  2  SN40
SP       .V         00 000 00 00          :  3  SP
CAL      .MM        00 000 00 00          :  4  CAL
LN160    .OHM.M     00 000 00 00          :  5  LN160
GAMMA    .CPS       00 000 00 00          :  6  GAMMA
~Parameter Information Block
#MNEM.UNIT   Information     Description
#---------- ---------------  ------------------------
 FILE.                         :File Type
 FIID.                         :File Type Identifier
 VERS.                         :System Version
 SER .                         :System Serial Number
 TRUK.                         :Truck Calibration Number
 TOOL.                         :Tool Serial Number
 TIME.                         :Time    HrHrMinMin
 LAT .                         :Latitude
 LON .                         :Longitude
 LMF .            MV           :LOG Measured FROM
 DMF .                         :Driller Measured From
 PD  .                         :Permanent Data
 PDEV.                         :Elevation Permanent Data
 EKB .M                        :Elevation Kelly Bushing
 ELEV.DF                       :Elevation DF
 EGL .M                        :Elevation Ground Level
 DRDP.                         :Drillers Depth
 CASD.                         :Casing Diameter
 CASB.                         :Casing Bottom
 CASX.                         :Casing Type
 CAST.                         :Casing Thickness
 TNOC.                         :Time Circulation Stopped
 LOGU.                         :Logging Unit
 RECB.            Bergsma      :Recorded By
 OSR1.                         :Other Services
 OSR2.                         :Other Services
 OSR3.                         :Other Services
 BS  .MM                       :Bit Size
 MST .                         :Mean Surface Temperature
 TGRD.                         :Temperature Gradiant
 MAGN.                         :Magnetic Declination
 MDEN.                         :Density Matrix
 MATR.                         :Neutron Matrix
 DTMT.                         :Delta T Matrix
 DTFL.                         :Delta T Fluid
 MUDS.                         :Mud Sample Source
 MRS .                         :Mud Resistivity
 MTP .                         :Mud Temperature
 MFRS.                         :Resistivity Mud Filtrate
 MFTP.                         :Temperature Mud Filtrate
 MCRS.                         :Resistivity Mud Cake
 MCTP.                         :Temperature Mud Cake
 FTYP.                         :Fluid Type
 FD  .K/M3                     :Fluid Density
 DFV .S                        :Fluid Viscosity
 FPH .                         :Fuild PH
 ELCO.                         :Electron Cutoff
~Other Information
#MNEM.UNIT  Information      Description
#---------- ---------------  ------------------------
# --------------------------
## COMMENTS    Top_Depth   Bot_Depth  LithCode  Lat    Long   Elev_Gl
##    Type of LithCode   Lithologie - 1970
##                    .00       10.80       13.00     
##                  10.85       11.80       23.00     
##                  11.85       15.70        6.00     
##                  15.75       16.00       23.00     
##                  16.05       28.00        7.00     
##                  28.05       46.00        9.00     
##                  46.05       46.05         .00     
##    last_layer   46.05
# --------------------------
~A DEPTH    SN40     SP       CAL      LN160    GAMMA    
# ...
    18.750 -999999.0  -999999.0    279.500 -999999.0      7.620
    18.800 -999999.0  -999999.0    279.500 -999999.0      7.650
    18.850 -999999.0  -999999.0    279.500 -999999.0      7.670
    18.900 -999999.0  -999999.0    279.500 -999999.0      7.680
    18.950 -999999.0  -999999.0    279.500 -999999.0      7.670
    19.000 -999999.0  -999999.0    279.400 -999999.0      7.590
    19.050 -999999.0  -999999.0    279.400 -999999.0      7.490
    19.100 -999999.0  -999999.0    279.300 -999999.0      7.410
    19.150 -999999.0  -999999.0    279.300 -999999.0      7.280
    19.200 -999999.0  -999999.0    279.200 -999999.0      7.300
    19.250 -999999.0  -999999.0    279.200 -999999.0      7.390
    19.300 -999999.0  -999999.0    279.100 -999999.0      7.480
    19.350 -999999.0  -999999.0    279.000 -999999.0      7.450
    19.400 -999999.0  -999999.0    278.900 -999999.0      7.310
    19.450 -999999.0  -999999.0    278.900 -999999.0      7.120
    19.500 -999999.0  -999999.0    278.800 -999999.0      7.100
    19.550 -999999.0  -999999.0    278.800 -999999.0      7.280
    19.600     4.480 -999999.0    278.800    19.070     7.690
    19.650     4.500 -999999.0    278.900    19.080     7.720
    19.700     4.510 -999999.0    279.000    19.090     7.740
    19.750     4.520 -999999.0    279.200    19.090     7.740
    19.800     4.530 -999999.0    279.300    19.100     7.750
    19.850     4.540 -999999.0    279.500    19.100     7.790
    19.900     4.550 -999999.0    279.600    19.110     7.850
    19.950     4.550 -999999.0    279.600    19.080     7.870
    20.000     4.540 -999999.0    279.600    19.060     7.860
    20.050     4.530 -999999.0    279.600    19.040     7.860
    20.100     4.520 -999999.0    279.500    19.020     7.880
    20.150     4.510 -999999.0    279.400    18.990     7.930
    20.200     4.500 -999999.0    279.300    18.960     8.000
    20.250     4.490 -999999.0    279.200    18.920     8.010
    20.300     4.490 -999999.0    279.100    18.840     7.980
    20.350     4.480 -999999.0    279.000    18.620     7.950
    20.400     4.480 -999999.0    278.900    18.420     7.940
    20.450     4.460 -999999.0    278.800    18.050     7.820
    20.500     4.440 -999999.0    278.700    16.900     7.640
    20.550     4.420 -999999.0    278.700    16.020     7.610
    20.600     4.400 -999999.0    278.600    13.760     7.590
    20.650     4.380 -999999.0    278.400    12.620     7.660
    20.700     4.370 -999999.0    278.000    11.010     7.840
    20.750     4.370 -999999.0    276.500     9.410     7.890
    20.800     4.350 -999999.0    274.300     8.710     7.920
    20.850     4.320 -999999.0    270.000     8.080     8.320
    20.900     4.280     -.029   271.300     7.540     8.430
    20.950     4.220     -.027   273.900     7.140     8.450
    21.000     4.140     -.022   273.900     6.770     8.370
    21.050     4.060     -.017   272.300     6.470     8.240
    21.100     3.970     -.003   273.600     6.030     8.020
    21.150     3.910      .006   275.000     5.700     7.800
    21.200     3.880      .014   275.000     5.260     7.570
    21.250     3.950      .017   266.800     4.840     7.470
    21.300     4.090      .021   265.200     4.600     7.500
    21.350     4.430      .031   260.600     4.340     7.750
    21.400     5.470      .039   259.000     4.110     7.960
    21.450    10.080      .045   258.300     3.960     8.150
    21.500    15.610      .048   258.400     3.750     8.320
    21.550    17.350      .069   258.600     3.640     8.480
    21.600    23.600      .077   258.500     3.560     8.720
    21.650    31.690      .079   258.200     3.570     8.950
    21.700    34.930      .080   257.900     3.650     9.130
    21.750    37.930      .080   257.700     3.760     9.490
    21.800    39.360      .079   257.100     3.910     9.720
    21.850    40.110      .078   256.300     4.120     9.890
    21.900    41.460      .077   255.200     4.350     9.860
    21.950    42.680      .076   254.500     4.880     9.450
    22.000    45.080      .076   254.600     6.430     9.180
    22.050    47.090      .074   254.800     9.460     9.010
    22.100    48.470      .073   254.900    10.700     8.890
    22.150    49.400      .072   255.000    18.730     8.730
    22.200    50.050      .072   255.000    20.280     8.680
    22.250    50.660      .071   255.200    21.970     8.650
    22.300    51.210      .071   255.500    26.260     8.360
    22.350    51.670      .071   255.700    28.390     8.340
    22.400    52.080      .070   256.000    29.850     8.340
    22.450    52.420      .069   256.500    32.190     8.360
    22.500    52.920      .069   257.300    34.200     8.420
    22.550    53.300      .068   258.000    35.580     8.730
    22.600    53.570      .068   258.000    36.330     8.770
    22.650    53.850      .067   258.000    37.490     8.770
    22.700    54.020      .067   258.100    38.270     8.760
    22.750    54.170      .067   258.100    39.200     8.800
    22.800    54.350      .066   258.100    39.950     9.040
    22.850    54.570      .066   258.200    40.780     9.130
    22.900    54.790      .066   258.200    42.030     9.190
    22.950    54.960      .066   258.600    43.370     9.240
    23.000    55.100      .066   259.900    44.720     9.310
    23.050    55.190      .066   261.500    45.400     9.410
    23.100    55.200      .066   263.700    46.100     9.490
    23.150    55.050      .065   266.500    46.480     9.610
    23.200    54.890      .065   267.700    46.720     9.720
    23.250    54.770      .065   268.300    46.870     9.830
    23.300    54.490      .064   268.800    47.010     9.970
    23.350    54.120      .064   266.400    47.120    10.150
    23.400    53.660      .064   265.200    47.280    10.300
    23.450    53.400      .064   265.400    47.430    10.430
    23.500    53.530      .064   265.700    47.610    10.500
    23.550    54.210      .063   265.500    47.790    10.530
    23.600    55.980      .063   264.900    47.960    10.520
    23.650    58.670      .063   263.900    48.110    10.550
    23.700    59.850      .063   262.900    48.230    10.570
    23.750    62.770      .063   261.500    48.330    10.680
    23.800    63.140      .064   261.200    48.420    11.010
    23.850    62.320      .064   261.100    48.530    11.060
    23.900    61.490      .064   260.700    48.570    11.040
    23.950    60.170      .065   260.300    48.600    10.950
    24.000    58.710      .064   259.600    48.600    10.780
    24.050    57.220      .064   258.900    48.590    10.640
    24.100    51.490      .064   258.600    48.580    10.620
    24.150    50.970      .063   260.200    48.540    10.690
    24.200    51.130      .063   262.400    48.510    10.760
    24.250    51.410      .062   262.900    48.460    10.830
    24.300    51.890      .061   262.000    48.400    10.860
    24.350    52.660      .061   261.500    48.360    10.800
    24.400    53.170      .061   260.800    48.220    10.760
    24.450    53.650      .060   258.400    48.060    10.780
    24.500    53.820      .060   258.100    47.850    10.710
    24.550    53.860      .060   257.400    47.620    10.620
    24.600    53.730      .060   255.800    47.150    10.590
    24.650    53.510      .060   253.600    46.450    10.730
    24.700    53.190      .059   253.300    45.980    11.040
    24.750    52.790      .059   253.900    45.800    11.320
    24.800    52.360      .059   255.600    45.750    11.710
    24.850    52.040      .059   256.800    45.810    11.970
    24.900    51.830      .059   256.600    45.870    12.300
    24.950    51.730      .058   256.100    45.920    12.400
    25.000    51.660      .058   254.700    45.940    12.470
    25.050    51.530      .058   252.100    45.970    12.470
    25.100    51.330      .057   254.300    45.890    12.430
    25.150    50.980      .057   256.500    45.750    12.380
    25.200    50.140      .057   256.800    45.570    12.330
