~Version Information Block
 VERS.                2.00:     CWLS LOG ASCII STANDARD - VERSION 2.000000
 WRAP.                  NO:     One Line Per Depth Step
#
~Well Information Block
#MNEM.UNIT                     Data                         Information
#----------   ------------------------------------------   ----------------
 STRT.M                                         0.0000:
 STOP.M                                       171.0000:
 STEP.M                                         0.0200:
 NULL.                                       -999.2500:
 COMP.                                                :     COMPANY
 WELL.                                        B62B0838:     WELL
 FLD .                                                :     FIELD
 CNTY.                                                :     COUNTY
 STAT.                                                :     STATE
 CTRY.                                                :     COUNTRY
 SRVC.                                                :     SERVICE COMPANY
 DATE.                                                :     DATE
 API .                                                :     API NUMBER
 UWI .                                                :     UWI NUMBER
#
~Curve Information Block
#MNEM.UNIT       API CODE      Curve Description
#----------    -------------   -------------------
 DEPT.M                    :   Depth in Meters
 SN20.OHM-M                :   SN20
 LN100.OHM-M               :   LN100
 CALI.CM                   :   Calr
 GAM(NAT) .CPS             :   GAM(NAT)
#
~Parameter Information Block
#MNEM.UNIT            Value               Description
#----------    --------------------    -------------------
 PDAT.                            :    Permanent Datum
 EPD .M                     0.0000:    Elevation Of Perm. Datum
 WSTA.                         LOC:    
 E   .M                     0.0000:    E (Stretch Coefficient Of The Cable)
 TD  .M                   171.0000:    Total Depth
#
~Other Information Block
<DescLogPlotStart>   NEURALOG PLOT DEFINITION
PLOTDEFVERSION: 3
LASFILE: V:\a4\j4\p44009\boorgatmetingen\SCANS TE VERWERKEN IN DINO\wlg\B62B083
DEPTHSCALE: 200.000000
RESOLUTION: 600
DEPTHLABELFREQ: 50.000000
HEAVYGRIDFREQ: 50.000000
MEDIUMGRIDFREQ: 25.000000
LIGHTGRIDFREQ: 5.000000
#
#   TRACK 1
#
STARTTRACK: 
 LEFTX: 13.760000 inch
 RIGHTX: 15.010000 inch
 SCALETYPE: LINEAR
 NUMCHARTDIVISIONS: 10
CURVE: CALI  30.000000  50.000000  (0,0,255)      Solid             2     N    
ENDTRACK: 
#
#   TRACK 2
#
STARTTRACK: 
 LEFTX: 16.551667 inch
 RIGHTX: 21.551667 inch
 SCALETYPE: LINEAR
 NUMCHARTDIVISIONS: 10
CURVE: GAM(NAT)   0.000000   50.000000  (0,131,131)    Solid             2     N    
ENDTRACK: 
#
#   TRACK 3
#
STARTTRACK: 
 LEFTX: 15.343333 inch
 RIGHTX: 21.240000 inch
 SCALETYPE: LINEAR
 NUMCHARTDIVISIONS: 10
CURVE: SN20  0.000000   100.000000 (255,0,255)    Solid             2     Y    
CURVE: LN100  0.000000   100.000000 (255,0,0)      Dot               2     Y    
ENDTRACK: 
<DescLogPlotEnd>
~Other Information
#MNEM.UNIT  Information      Description
#---------- ---------------  ------------------------
# --------------------------
## COMMENTS    Top_Depth   Bot_Depth  LithCode  Lat    Long   Elev_Gl 
##	0.0	31.2	0.0
##	31.25	97.0	25.0
##	97.05	97.5	11.0
##	97.55	104.0	12.0
##	104.05	110.1	11.0
##	110.15	111.7	12.0
##	111.75	113.1	11.0
##	113.15	116.6	12.0
##	116.65	124.1	11.0
##	124.15	125.9	12.0
##	125.95	139.0	11.0
##	139.05	140.0	10.0
##	140.05	145.5	11.0
##	145.55	146.3	10.0
##	146.35	148.0	12.0
##	148.05	149.4	10.0
##	149.45	150.0	11.0
##	150.05	151.9	10.0
##	151.95	152.6	11.0
##	152.65	155.0	10.0
##	155.05	160.9	14.0
##	160.95	163.2	11.0
##	163.25	164.0	10.0
##	164.05	167.8	11.0
##	167.85	170.0	10.0
##	170.05	171.95	11.0
# --------------------------
~A  DEPTH         SN20             LN100            CALI             GAM(NAT)  
# ...
      13.580      78.83967881    -999.25000000      50.38359788      13.55258708
      13.600      78.81571509    -999.25000000      50.38359788      13.53567805
      13.620      78.81571509    -999.25000000      50.38359788      13.49739245
      13.640      78.78745054    -999.25000000      50.38359788      13.40040582
      13.660      78.75918598    -999.25000000      50.38359788      13.37784462
      13.680      78.75918598    -999.25000000      50.38359788      13.26107541
      13.700      78.75918598    -999.25000000      50.38359788      13.03577397
      13.720      78.78086870    -999.25000000      50.38359788      12.87139447
      13.740      78.78745054    -999.25000000      50.38359788      12.81436259
      13.760      78.81571509    -999.25000000      50.38359788      12.77317575
      13.780      78.81254483    -999.25000000      50.38359788      12.69022658
      13.800      78.84397965    -999.25000000      50.38359788      12.69022658
      13.820      78.84397965    -999.25000000      50.38359788      12.69530127
      13.840      78.84397965    -999.25000000      50.38359788      12.74172891
      13.860      78.84397965    -999.25000000      50.38359788      12.69198868
      13.880      78.84397965    -999.25000000      50.38359788      12.58952985
      13.900      78.84397965    -999.25000000      50.38359788      12.42574365
      13.920      78.85819127    -999.25000000      50.38359788      12.35131623
      13.940      78.87224421    -999.25000000      50.38359788      12.29477086
      13.960      78.86517972    -999.25000000      50.38359788      12.21203330
      13.980      78.84397965    -999.25000000      50.38359788      12.17620989
      14.000      78.84397965    -999.25000000      50.38359788      12.09742172
      14.020      78.84397965    -999.25000000      50.38359788      11.93187342
      14.040      78.83696806    -999.25000000      50.38359788      11.87859317
      14.060      78.81904403    -999.25000000      50.38359788      11.87859317
      14.080      78.81571509    -999.25000000      50.38359788      11.81109351
      14.100      78.81571509    -999.25000000      50.38359788      11.76022996
      14.120      78.81571509    -999.25000000      50.38359788      11.69306453
      14.140      78.81571509    -999.25000000      50.38359788      11.64309686
      14.160      78.81571509    -999.25000000      50.38359788      11.44874191
      14.180      78.81571509    -999.25000000      50.38359788      11.34218338
      14.200      78.81571509    -999.25000000      50.38359788      10.99745475
      14.220      78.81571509    -999.25000000      50.38359788      10.86405140
      14.240      78.81571509    -999.25000000      50.38359788      10.74735932
      14.260      78.81571509    -999.25000000      50.38359788      10.60444539
      14.280      78.80929854    -999.25000000      50.38359788      10.44620259
      14.300      78.78745054    -999.25000000      50.38359788      10.35678052
      14.320      78.78745054    -999.25000000      50.38359788      10.33189557
      14.340      78.78745054    -999.25000000      50.38359788      10.28914440
      14.360      78.75918598    -999.25000000      50.38359788      10.21783181
      14.380      78.75918598    -999.25000000      50.38359788      10.18769023
      14.400      78.75918598    -999.25000000      50.38359788      10.18706726
      14.420      78.75918598    -999.25000000      50.38359788      10.17632657
      14.440      78.75918598    -999.25000000      50.38359788      10.12989892
      14.460      78.75918598    -999.25000000      50.38359788      10.06794463
      14.480      78.75918598    -999.25000000      50.38359788       9.97709469
      14.500      78.74968182    -999.25000000      50.38359788       9.90607084
      14.520      78.70265687    -999.25000000      50.38359788       9.85625545
      14.540      78.70029984    -999.25000000      50.39876234       9.81569158
      14.560      78.64612776    -999.25000000      50.41005291       9.89841332
      14.580      78.61307310    -999.25000000      50.41005291       9.96714309
      14.600      78.60632597    -999.25000000      50.41005291      10.09399838
      14.620      78.56133409    -999.25000000      50.41005291      10.37478320
      14.640      78.53306953    -999.25000000      50.41005291      10.49945120
      14.660      78.42991547    -999.25000000      50.41005291      10.58709535
      14.680      78.30695308    -999.25000000      50.41005291      10.66424205
      14.700      78.22215941    -999.25000000      50.41005291      10.77389958
      14.720      78.10910119    -999.25000000      50.41005291      10.87975999
      14.740      78.06280021    -999.25000000      50.41005291      11.16171361
      14.760      77.98515367    -999.25000000      50.41005291      11.35055088
      14.780      77.86323922    -999.25000000      50.41005291      11.51222889
      14.800      77.79819107    -999.25000000      50.41005291      11.71834303
      14.820      77.75221406    -999.25000000      50.41005291      11.95265472
      14.840      77.62688802    -999.25000000      50.41005291      12.09841055
      14.860      77.51041822    -999.25000000      50.41005291      12.11664066
      14.880      77.41848403    -999.25000000      50.41005291      12.16306831
      14.900      77.35683424    -999.25000000      50.41005291      12.22158937
      14.920      77.23289994    -999.25000000      50.41005291      12.25059182
      14.940      77.16069144    -999.25000000      50.41005291      12.19573536
      14.960      77.03707450    -999.25000000      50.41005291      12.01386540
      14.980      76.93318986    -999.25000000      50.41005291      11.93511086
      15.000      76.84636974    -999.25000000      50.41005291      11.92101407
      15.020      76.72136767    -999.25000000      50.41005291      11.80287434
      15.040      76.55703573    -999.25000000      50.41005291      12.00853164
      15.060      76.37254421    -999.25000000      50.41005291      12.10866276
      15.080      76.23404705    -999.25000000      50.41005291      12.32033612
      15.100      76.06671427    -999.25000000      50.41005291      12.57277310
      15.120      75.90916664    -999.25000000      50.41005291      12.79436840
      15.140      75.75036612    -999.25000000      50.41005291      13.02902816
      15.160      75.91282285    -999.25000000      50.41005291      13.39912627
      15.180      76.04578858    -999.25000000      50.75396825      13.56112466
      15.200      75.81095723    -999.25000000      50.75396825      13.58640514
      15.220      75.76064136    -999.25000000      50.75396825      13.57792887
      15.240      75.39199834    -999.25000000      50.75396825      13.46406683
      15.260      74.68934164    -999.25000000      50.75396825      13.41725354
      15.280      73.98668495    -999.25000000      50.75396825      13.42980182
      15.300      73.28402826    -999.25000000      50.75396825      13.48059021
      15.320      72.58137156    -999.25000000      50.75396825      13.48689501
      15.340      71.87871487    -999.25000000      50.41005291      13.42638639
      15.360      71.17605817    -999.25000000      50.41005291      13.32057147
      15.380      70.47340148    -999.25000000      50.41005291      13.18959867
      15.400      69.33771406    -999.25000000      50.41005291      13.12626200
      15.420      67.73878757    -999.25000000      50.41005291      13.02980736
      15.440      66.13986107      15.95534200      50.41005291      12.72713375
      15.460      64.54093457      15.95534200      50.41005291      12.59342189
      15.480      62.94200807      41.43075184      50.41005291      12.56855277
      15.500      61.34308157      33.08366309      50.41005291      12.50521609
      15.520      59.74415508      33.08366309      50.41005291      12.48731823
      15.540      58.14522858      33.08366309      50.41005291      12.54536663
