~Version Information
 VERS.                2.0:  CWLS LOG ASCII STANDARD -VERSION 2.0
 WRAP.                 NO:  ONE LINE PER DEPTH STEP
~WELL INFORMATION BLOCK
#MNEM.UNIT       DATA		            DESCRIPTION OF MNEMONIC
#---------    -------------            ------------------------
 STRT.M      .450                        :START DEPTH
 STOP.M   #######                        :STOP DEPTH
 STEP.M      .050                        :STEP
 NULL.    -999999.0                      :NULL VALUE
 COMP.       SCHIFOOD                    :COMPANY
 WELL.                          B62B0899 :WELL
 FLD .    Heerlen                        :FIELD
 CNTY.                                   :COUNTY
 STAT.                                   :STATE
 SRVC.                                   :SERVICE COMPANY
 DATE.     23-JAN-91                     :LOG DATE
 UWI .                                   :UNIQUE WELL ID
 LIC .                                   :LICENSE NUMBER
~Curve Information Block
#MNEM.UNIT      API CODE     Curve Description
#---------    -------------  ------------------------
DEPTH    .M         00 000 00 00          :  1  DEPTH
SN40     .OHM.M     00 000 00 00          :  2  SN40
SP       .V         00 000 00 00          :  3  SP
CAL      .MM        00 000 00 00          :  4  CAL
LN160    .OHM.M     00 000 00 00          :  5  LN160
GAMMA    .CPS       00 000 00 00          :  6  GAMMA
~Parameter Information Block
#MNEM.UNIT   Information     Description
#---------- ---------------  ------------------------
 FILE.                         :File Type
 FIID.                         :File Type Identifier
 VERS.                         :System Version
 SER .                         :System Serial Number
 TRUK.                         :Truck Calibration Number
 TOOL.                         :Tool Serial Number
 TIME.                         :Time    HrHrMinMin
 LAT .                         :Latitude
 LON .                         :Longitude
 LMF .            MV           :LOG Measured FROM
 DMF .                         :Driller Measured From
 PD  .                         :Permanent Data
 PDEV.                         :Elevation Permanent Data
 EKB .M                        :Elevation Kelly Bushing
 ELEV.DF                       :Elevation DF
 EGL .M                        :Elevation Ground Level
 DRDP.                         :Drillers Depth
 CASD.                         :Casing Diameter
 CASB.                         :Casing Bottom
 CASX.                         :Casing Type
 CAST.                         :Casing Thickness
 TNOC.                         :Time Circulation Stopped
 LOGU.                         :Logging Unit
 RECB.            Veenendaal   :Recorded By
 OSR1.                         :Other Services
 OSR2.                         :Other Services
 OSR3.                         :Other Services
 BS  .MM                       :Bit Size
 MST .                         :Mean Surface Temperature
 TGRD.                         :Temperature Gradiant
 MAGN.                         :Magnetic Declination
 MDEN.                         :Density Matrix
 MATR.                         :Neutron Matrix
 DTMT.                         :Delta T Matrix
 DTFL.                         :Delta T Fluid
 MUDS.                         :Mud Sample Source
 MRS .                         :Mud Resistivity
 MTP .                         :Mud Temperature
 MFRS.                         :Resistivity Mud Filtrate
 MFTP.                         :Temperature Mud Filtrate
 MCRS.                         :Resistivity Mud Cake
 MCTP.                         :Temperature Mud Cake
 FTYP.                         :Fluid Type
 FD  .K/M3                     :Fluid Density
 DFV .S                        :Fluid Viscosity
 FPH .                         :Fuild PH
 ELCO.                         :Electron Cutoff
~Other Information
#MNEM.UNIT  Information      Description
#---------- ---------------  ------------------------
# --------------------------
## COMMENTS    Top_Depth   Bot_Depth  LithCode  Lat    Long   Elev_Gl
##    Type of LithCode   Lithologie - 1970
##                    .00         .00         .00     
##                    .45        5.75         .00     
##                   5.80        7.15       13.00     
##                   7.20        8.50        2.00     
##                   8.55       10.20       23.00     
##                  10.25       11.30       11.00     
##                  11.35       15.15       23.00     
##                  15.20       18.40       21.00     
##                  18.45       27.30       12.00     
##                  27.35       39.00       11.00     
##                  39.05       47.15       12.00     
##                  47.20       49.00       10.00     
##                  49.05       51.00        7.00     
##                  51.05       54.00       10.00     
##                  54.05       55.80        9.00     
##                  55.85       57.00       20.00     
##                  57.05       58.00        9.00     
##                  58.05       60.00       20.00     
##                  60.05       63.20       11.00     
##                  63.25       67.00        8.00     
##                  67.05       70.20        9.00     
##                  70.25       74.00        7.00     
##                  74.05       75.70        9.00     
##                  75.75       78.00        7.00     
##                  78.05       84.00        8.00     
##                  84.05       92.00        9.00     
##                  92.05       94.10       10.00     
##                  94.15       97.50        9.00     
##                  97.55      100.55       10.00     
##                 100.60      100.60         .00     
##                 100.65      126.40     #######     
##    last_layer   126.4
# --------------------------
~A DEPTH    SN40     SP       CAL      LN160    GAMMA    
# ...
   112.300    46.490      .095   462.700    63.360     5.690
   112.350    45.990      .095   462.100    63.420     6.040
   112.400    45.650      .095   459.900    63.520     6.330
   112.450    45.610      .095   459.400    63.640     6.440
   112.500    45.510      .095   457.200    63.750     6.420
   112.550    45.170      .096   455.800    63.870     6.410
   112.600    44.780      .096   454.600    63.960     6.430
   112.650    44.260      .096   453.000    64.070     6.340
   112.700    43.920      .096   447.000    64.180     6.180
   112.750    43.500      .096   446.100    64.260     6.190
   112.800    43.310      .096   448.300    64.350     6.290
   112.850    42.810      .096   450.400    64.440     6.380
   112.900    42.150      .096   450.500    64.510     6.380
   112.950    42.030      .096   450.400    64.550     6.340
   113.000    41.860      .096   450.300    64.570     6.400
   113.050    41.690      .096   448.400    64.550     6.550
   113.100    41.400      .096   441.800    64.510     6.500
   113.150    41.350      .096   439.400    64.360     6.550
   113.200    41.330      .096   438.800    64.200     6.660
   113.250    41.450      .096   439.100    63.920     6.670
   113.300    41.600      .096   439.900    63.610     6.610
   113.350    41.910      .096   441.700    63.100     6.570
   113.400    42.270      .096   445.400    62.600     6.730
   113.450    42.630      .096   448.100    62.060     6.860
   113.500    42.990      .096   450.400    61.870     6.860
   113.550    43.320      .095   451.100    61.620     6.880
   113.600    43.800      .095   451.300    61.430     6.930
   113.650    44.460      .095   451.700    61.260     7.360
   113.700    45.100      .095   452.800    61.090     7.730
   113.750    45.720      .095   453.900    60.930     7.940
   113.800    46.390      .095   454.800    60.800     7.860
   113.850    47.120      .096   455.400    60.670     7.520
   113.900    47.850      .096   455.600    60.560     7.490
   113.950    48.200      .096   455.000    60.480     7.480
   114.000    48.840      .096   453.100    60.440     7.470
   114.050    49.320      .096   451.700    60.480     7.450
   114.100    49.830      .096   449.300    60.560     7.350
   114.150    50.300      .095   449.400    60.640     6.980
   114.200    51.470      .095   450.700    60.800     6.550
   114.250    52.180      .094   451.700    60.970     6.110
   114.300    53.010      .094   452.200    61.230     5.530
   114.350    53.950      .093   451.600    61.560     5.460
   114.400    54.350      .093   450.400    61.900     5.520
   114.450    54.620      .092   449.900    62.450     5.620
   114.500    54.820      .092   449.700    62.840     5.740
   114.550    54.950      .092   450.000    63.920     5.860
   114.600    55.030      .092   451.300    65.000     6.060
   114.650    55.090      .092   454.100    66.080     6.240
   114.700    55.130      .091   454.800    67.160     6.260
   114.750    55.110      .091   455.000    68.240     6.230
   114.800    54.950      .091   455.600    69.440     6.270
   114.850    54.780      .090   456.800    70.960     6.350
   114.900    54.440      .090   457.700    72.470     6.420
   114.950    54.250      .089   458.300    73.990     6.430
   115.000    54.130      .088   457.900    74.840     6.330
   115.050    54.060      .088   454.900    75.720     5.850
   115.100    53.990      .088   449.200    76.120     5.660
   115.150    53.970      .088   448.500    76.650     5.640
   115.200    54.010      .088   448.300    76.820     5.580
   115.250    54.070      .088   448.600    76.800     5.430
   115.300    54.170      .089   449.000    76.660     5.440
   115.350    54.240      .089   449.200    76.300     5.520
   115.400    54.280      .089   449.500    76.080     5.680
   115.450    54.300      .089   449.700    75.590     5.750
   115.500    54.340      .090   449.900    74.990     5.820
   115.550    54.390      .090   450.200    74.330     5.790
   115.600    54.540      .090   450.500    73.360     5.630
   115.650    54.720      .089   450.900    72.800     5.520
   115.700    54.940      .089   451.500    71.670     5.490
   115.750    55.180      .089   452.200    71.090     5.590
   115.800    55.400      .089   453.200    69.530     5.690
   115.850    55.610      .089   454.000    68.660     5.700
   115.900    55.740      .089   454.700    67.540     5.680
   115.950    55.820      .089   454.800    66.640     5.690
   116.000    55.860      .089   454.700    64.970     5.710
   116.050    55.850      .089   454.600    64.510     5.550
   116.100    55.740      .089   454.400    64.170     5.180
   116.150    55.410      .089   454.400    63.810     5.050
   116.200    54.830      .089   454.300    63.590     5.420
   116.250    53.960      .089   454.000    63.420     5.800
   116.300    53.480      .087   453.700    63.270     6.170
   116.350    53.020      .086   453.400    63.130     6.300
   116.400    52.610      .086   453.200    63.040     5.990
   116.450    52.270      .086   453.200    62.990     5.970
   116.500    52.000      .086   453.300    62.930     5.920
   116.550    51.830      .086   453.500    62.890     5.800
   116.600    51.670      .086   453.600    62.780     5.630
   116.650    51.540      .086   453.500    62.670     5.320
   116.700    51.320      .086   452.300    62.530     5.190
   116.750    51.080      .085   451.600    62.370     5.330
   116.800    50.330      .085   451.000    62.220     5.650
   116.850    49.730      .085   450.900    62.120     5.830
   116.900    49.420      .085   451.200    62.080     5.880
   116.950    49.210      .085   451.300    62.090     6.260
   117.000    49.060      .085   451.400    62.190     6.730
   117.050    48.920      .084   450.900    62.360     7.190
   117.100    48.730      .084   450.100    62.700     7.460
   117.150    48.450      .084   449.800    63.330     7.500
   117.200    48.090      .084   450.100    63.780     7.390
   117.250    47.340      .084   452.100    63.900     7.180
   117.300    46.630      .084   453.300    63.920     7.000
   117.350    45.830      .084   454.400    63.850     6.970
   117.400    45.380      .084   454.800    63.730     6.920
   117.450    44.790      .084   454.400    63.500     6.730
   117.500    44.620      .084   452.500    63.200     6.510
   117.550    44.600      .084   447.300    63.030     6.300
   117.600    44.700      .084   445.500    62.720     6.280
   117.650    44.870      .084   445.500    62.470     6.250
   117.700    45.090      .084   446.600    62.250     6.140
   117.750    45.120      .084   449.500    62.050     6.040
   117.800    44.740      .084   451.900    61.880     6.000
   117.850    44.470      .084   455.500    61.700     6.060
   117.900    44.060      .083   457.400    61.480     6.140
   117.950    43.720      .083   456.800    61.230     6.340
   118.000    43.590      .083   454.700    61.030     6.560
   118.050    43.500      .083   452.900    60.870     6.590
   118.100    43.500      .083   450.900    60.770     6.660
   118.150    43.620      .083   450.200    60.720     6.750
   118.200    43.870      .083   449.900    60.730     6.860
   118.250    44.120      .083   449.700    60.750     7.010
   118.300    44.300      .083   449.600    60.790     7.050
   118.350    44.340      .084   449.800    60.840     6.910
   118.400    44.300      .084   450.400    60.880     6.860
   118.450    44.220      .084   451.300    60.840     6.840
   118.500    44.100      .084   452.500    60.720     6.560
   118.550    44.020      .084   454.100    60.550     6.510
   118.600    43.980      .085   454.400    60.350     6.530
   118.650    43.960      .085   454.000    60.210     6.590
   118.700    44.010      .085   452.800    60.070     6.610
   118.750    44.320      .085   451.500    60.070     6.450
   118.800    44.760      .085   450.800    60.070     6.350
   118.850    45.200      .085   450.400    60.070     6.340
