~Version Information Block
 VERS.                2.00:     CWLS LOG ASCII STANDARD - VERSION 2.000000
 WRAP.                  NO:     One Line Per Depth Step
#
~Well Information Block
#MNEM.UNIT                     Data                         Information
#----------   ------------------------------------------   ----------------
 STRT.M                                         0.0000:
 STOP.M                                        32.0000:
 STEP.M                                         0.0200:
 NULL.                                       -999.2500:
 COMP.                                                :     COMPANY
 WELL.                                        B62B0912:     WELL
 FLD .                                                :     FIELD
 CNTY.                                                :     COUNTY
 STAT.                                                :     STATE
 CTRY.                                                :     COUNTRY
 SRVC.                                                :     SERVICE COMPANY
 DATE.                                                :     DATE
 API .                                                :     API NUMBER
 UWI .                                                :     UWI NUMBER
#
~Curve Information Block
#MNEM.UNIT       API CODE      Curve Description
#----------    -------------   -------------------
 DEPT.M                    :   Depth in Meters
 CAL .CM                   :   Cal
 GAM(NAT) .CPS             :   GAM(NAT)
 SP  .MV                   :   SP
 SN40.OHM-M                :   SN40
 LN160.OHM-M               :   LN160
#
~Parameter Information Block
#MNEM.UNIT            Value               Description
#----------    --------------------    -------------------
 PDAT.                            :    Permanent Datum
 EPD .M                     0.0000:    Elevation Of Perm. Datum
 WSTA.                         LOC:    
 E   .M                     0.0000:    E (Stretch Coefficient Of The Cable)
 TD  .M                    32.0000:    Total Depth
#
~Other Information Block
<DescLogPlotStart>   NEURALOG PLOT DEFINITION
PLOTDEFVERSION: 3
LASFILE: D:\NeurLrest_23_04_'08en 20_05\nlg_1\B62B0912.las
DEPTHSCALE: 200.000000
RESOLUTION: 600
DEPTHLABELFREQ: 50.000000
HEAVYGRIDFREQ: 50.000000
MEDIUMGRIDFREQ: 25.000000
LIGHTGRIDFREQ: 5.000000
#
#   TRACK 1
#
STARTTRACK: 
 LEFTX: 0.500000 inch
 RIGHTX: 3.000000 inch
 SCALETYPE: LINEAR
 NUMCHARTDIVISIONS: 10
CURVE: SP    0.000000   50.000000  (0,0,255)      Solid             2     N    
ENDTRACK: 
#
#   TRACK 2
#
STARTTRACK: 
 LEFTX: 3.500000 inch
 RIGHTX: 6.000000 inch
 SCALETYPE: LINEAR
 NUMCHARTDIVISIONS: 10
CURVE: CAL   0.000000   100.000000 (0,131,131)    Solid             2     N    
ENDTRACK: 
#
#   TRACK 3
#
STARTTRACK: 
 LEFTX: 6.000000 inch
 RIGHTX: 11.000000 inch
 SCALETYPE: LINEAR
 NUMCHARTDIVISIONS: 10
CURVE: SN40  0.000000   100.000000 (255,0,255)    Solid             2     N    
CURVE: LN160  0.000000   100.000000 (255,0,0)      Dot               2     N    
ENDTRACK: 
#
#   TRACK 4
#
STARTTRACK: 
 LEFTX: 11.000000 inch
 RIGHTX: 16.000000 inch
 SCALETYPE: LINEAR
 NUMCHARTDIVISIONS: 10
CURVE: GAM(NAT)   0.000000   50.000000  (255,131,0)    Solid             2     N    
ENDTRACK: 
<DescLogPlotEnd>
~A  DEPTH        CAL               GAM(NAT)         SP                SN40            LN160  
# ...
      30.040      30.67876344      26.57071293      20.17809140      51.99928571      52.99967568
      30.060      30.67876344      26.37815126      19.62632241      52.08895576      53.09244288
      30.080      30.64598016      26.37815126      19.57325269      52.17862580      53.18521008
      30.100      30.57635079      26.37815126      19.57325269      52.26829585      53.27797728
      30.120      30.50672142      26.37815126      18.73319892      52.35294118      53.37074449
      30.140      30.43709204      26.80622391      18.73319892      52.35294118      53.46351169
      30.160      30.36746267      27.00000000      18.73319892      52.35294118      53.55627889
      30.180      30.29783330      27.00000000      18.49798387      52.35294118      53.64904609
      30.200      30.22820393      27.21848739      18.49798387      52.35294118      53.74181329
      30.220      30.15857456      27.21848739      16.61626344      52.24164076      53.83193277
      30.240      30.08894519      27.61847655      16.61626344      51.99292437      53.83193277
      30.260      30.01931582      27.84033613      16.61626344      51.74420798      53.83193277
      30.280      29.94968645      27.84033613      16.41465054      51.49549160      54.03361345
      30.300      29.88005707      27.67573868      16.41465054      51.24677521      54.03361345
      30.320      29.81042770      27.63865546      15.77620968      50.99805882      54.03420168
      30.340      29.74079833    -999.25000000      15.77620968      50.74934244      54.31560924
      30.360      29.67116896    -999.25000000      15.77620968      50.50062605      54.39584034
      30.380      29.60153959    -999.25000000      15.77620968      50.26890756      54.67775210
      30.400      29.53191022    -999.25000000      15.77620968      50.26890756      54.75798319
      30.420      29.46228085    -999.25000000      15.80222425      50.26890756      54.83821429
      30.440      29.44657554    -999.25000000      16.61626344      50.26890756      54.91844538
      30.460      29.78372828    -999.25000000      16.61626344      50.26890756      54.99867647
      30.480      30.12088103    -999.25000000      16.61626344      50.27710084      55.09857143
      30.500      30.45803377    -999.25000000      16.61626344      50.47767857      55.31092437
      30.520      30.79518652    -999.25000000      16.61626344      50.67825630      55.31092437
      30.540      31.13233926    -999.25000000      16.61626344      50.87883403      55.52128151
      30.560      31.46949201    -999.25000000      16.61626344      51.07941176      55.60151261
      30.580      31.80664475    -999.25000000      16.61626344      51.27998950      55.69567227
      30.600      32.14379750    -999.25000000      16.61626344      51.48056723      56.15126050
      30.620      32.48095024    -999.25000000      16.61626344      51.68114496      56.15126050
      30.640      32.81810299    -999.25000000      16.61626344      51.88172269      56.55462185
      30.660      33.15525573    -999.25000000      16.61626344      52.08230042      56.55462185
      30.680      33.49240848    -999.25000000      16.61626344      52.28287815      56.52100840
      30.700      33.82956122    -999.25000000      16.61626344      52.48345588      56.95798319
      30.720      34.03897849    -999.25000000      16.61626344      52.68403361      56.95798319
      30.740      34.03897849    -999.25000000      16.61626344      52.88461134      56.98357143
      30.760    -999.25000000    -999.25000000      16.61626344      53.03499432      57.21054622
      30.780    -999.25000000    -999.25000000      16.61626344      53.15642516      57.29077731
      30.800    -999.25000000    -999.25000000    -999.25000000      53.27785601      57.60630252
      30.820    -999.25000000    -999.25000000    -999.25000000      53.39928685      57.68653361
      30.840    -999.25000000    -999.25000000    -999.25000000      53.52071769      57.77911765
      30.860    -999.25000000    -999.25000000    -999.25000000      53.64214854      58.00000000
      30.880    -999.25000000    -999.25000000    -999.25000000      53.76357938      58.00000000
      30.900    -999.25000000    -999.25000000    -999.25000000      53.88501022      58.00000000
      30.920    -999.25000000    -999.25000000    -999.25000000      54.00644106      58.00000000
      30.940    -999.25000000    -999.25000000    -999.25000000      54.12787191      58.00000000
      30.960    -999.25000000    -999.25000000    -999.25000000      54.24930275      58.20168067
      30.980    -999.25000000    -999.25000000    -999.25000000      54.37073359      58.20168067
      31.000    -999.25000000    -999.25000000    -999.25000000      54.49216443      58.23844538
      31.020    -999.25000000    -999.25000000    -999.25000000      54.61359528      58.43697479
      31.040    -999.25000000    -999.25000000    -999.25000000      54.73502612      58.43697479
      31.060    -999.25000000    -999.25000000    -999.25000000      54.84033613      58.63865546
      31.080    -999.25000000    -999.25000000    -999.25000000      54.84033613      58.63865546
      31.100    -999.25000000    -999.25000000    -999.25000000      54.84033613      58.63865546
      31.120    -999.25000000    -999.25000000    -999.25000000      54.84033613      58.84033613
      31.140    -999.25000000    -999.25000000    -999.25000000      54.84033613      58.84033613
      31.160    -999.25000000    -999.25000000    -999.25000000      54.84033613      58.89100840
      31.180    -999.25000000    -999.25000000    -999.25000000      54.84033613      59.09707983
      31.200    -999.25000000    -999.25000000    -999.25000000      54.84033613      59.21092437
      31.220    -999.25000000    -999.25000000    -999.25000000      54.63865546      59.27731092
      31.240    -999.25000000    -999.25000000    -999.25000000      54.63865546      59.27731092
      31.260    -999.25000000    -999.25000000    -999.25000000      54.56378151      59.35218487
      31.280    -999.25000000    -999.25000000    -999.25000000      54.23529412      59.68067227
      31.300    -999.25000000    -999.25000000    -999.25000000      54.23529412      59.68067227
      31.320    -999.25000000    -999.25000000    -999.25000000      54.23529412      59.68067227
      31.340    -999.25000000    -999.25000000    -999.25000000      54.23529412      59.68067227
      31.360    -999.25000000    -999.25000000    -999.25000000      54.23529412      59.68067227
      31.380    -999.25000000    -999.25000000    -999.25000000      53.79831933      59.89939076
      31.400    -999.25000000    -999.25000000    -999.25000000      53.79831933      60.00966387
      31.420    -999.25000000    -999.25000000    -999.25000000      53.81583733      60.09346639
      31.440    -999.25000000    -999.25000000    -999.25000000      53.96483794      60.11764706
      31.460    -999.25000000    -999.25000000    -999.25000000      54.11383854      60.11764706
      31.480    -999.25000000    -999.25000000    -999.25000000      54.23529412      60.52100840
      31.500    -999.25000000    -999.25000000    -999.25000000      54.23529412      60.52100840
      31.520    -999.25000000    -999.25000000    -999.25000000      54.23529412      60.52100840
      31.540    -999.25000000    -999.25000000    -999.25000000      54.63865546    -999.25000000
      31.560    -999.25000000    -999.25000000    -999.25000000      54.63865546    -999.25000000
      31.580    -999.25000000    -999.25000000    -999.25000000      54.71441176    -999.25000000
      31.600    -999.25000000    -999.25000000    -999.25000000      54.84033613    -999.25000000
      31.620    -999.25000000    -999.25000000    -999.25000000      54.84033613    -999.25000000
      31.640    -999.25000000    -999.25000000    -999.25000000      55.07563025    -999.25000000
      31.660    -999.25000000    -999.25000000    -999.25000000      55.07563025    -999.25000000
