~Version Information
 VERS.                2.0:  CWLS LOG ASCII STANDARD -VERSION 2.0
 WRAP.                 NO:  ONE LINE PER DEPTH STEP
~WELL INFORMATION BLOCK
#MNEM.UNIT       DATA		            DESCRIPTION OF MNEMONIC
#---------    -------------            ------------------------
 STRT.M      .000                        :START DEPTH
 STOP.M    82.700                        :STOP DEPTH
 STEP.M      .050                        :STEP
 NULL.    -999999.0                      :NULL VALUE
 COMP.       WML                         :COMPANY
 WELL.                          B62B0902 :WELL
 FLD .    Voerendaal                     :FIELD
 CNTY.                                   :COUNTY
 STAT.                                   :STATE
 SRVC.                                   :SERVICE COMPANY
 DATE.     04-FEB-92                     :LOG DATE
 UWI .                                   :UNIQUE WELL ID
 LIC .                                   :LICENSE NUMBER
~Curve Information Block
#MNEM.UNIT      API CODE     Curve Description
#---------    -------------  ------------------------
DEPTH    .M         00 000 00 00          :  1  DEPTH
SN40     .OHM.M     00 000 00 00          :  2  SN40
SP       .V         00 000 00 00          :  3  SP
CAL      .MM        00 000 00 00          :  4  CAL
LN160    .OHM.M     00 000 00 00          :  5  LN160
GAMMA    .CPS       00 000 00 00          :  6  GAMMA
~Parameter Information Block
#MNEM.UNIT   Information     Description
#---------- ---------------  ------------------------
 FILE.                         :File Type
 FIID.                         :File Type Identifier
 VERS.                         :System Version
 SER .                         :System Serial Number
 TRUK.                         :Truck Calibration Number
 TOOL.                         :Tool Serial Number
 TIME.                         :Time    HrHrMinMin
 LAT .                         :Latitude
 LON .                         :Longitude
 LMF .            MV           :LOG Measured FROM
 DMF .                         :Driller Measured From
 PD  .                         :Permanent Data
 PDEV.                         :Elevation Permanent Data
 EKB .M                        :Elevation Kelly Bushing
 ELEV.DF                       :Elevation DF
 EGL .M                        :Elevation Ground Level
 DRDP.                         :Drillers Depth
 CASD.                         :Casing Diameter
 CASB.                         :Casing Bottom
 CASX.                         :Casing Type
 CAST.                         :Casing Thickness
 TNOC.                         :Time Circulation Stopped
 LOGU.                         :Logging Unit
 RECB.            Bergsma      :Recorded By
 OSR1.                         :Other Services
 OSR2.                         :Other Services
 OSR3.                         :Other Services
 BS  .MM                       :Bit Size
 MST .                         :Mean Surface Temperature
 TGRD.                         :Temperature Gradiant
 MAGN.                         :Magnetic Declination
 MDEN.                         :Density Matrix
 MATR.                         :Neutron Matrix
 DTMT.                         :Delta T Matrix
 DTFL.                         :Delta T Fluid
 MUDS.                         :Mud Sample Source
 MRS .                         :Mud Resistivity
 MTP .                         :Mud Temperature
 MFRS.                         :Resistivity Mud Filtrate
 MFTP.                         :Temperature Mud Filtrate
 MCRS.                         :Resistivity Mud Cake
 MCTP.                         :Temperature Mud Cake
 FTYP.                         :Fluid Type
 FD  .K/M3                     :Fluid Density
 DFV .S                        :Fluid Viscosity
 FPH .                         :Fuild PH
 ELCO.                         :Electron Cutoff
~Other Information
#MNEM.UNIT  Information      Description
#---------- ---------------  ------------------------
# --------------------------
## COMMENTS    Top_Depth   Bot_Depth  LithCode  Lat    Long   Elev_Gl
##    Type of LithCode   Lithologie - 1970
##                    .00       10.80       13.00     
##                  10.85       11.80       23.00     
##                  11.85       15.70        6.00     
##                  15.75       16.00       23.00     
##                  16.05       28.00        7.00     
##                  28.05       46.00        9.00     
##                  46.05       46.05         .00     
##    last_layer   46.05
# --------------------------
~A DEPTH    SN40     SP       CAL      LN160    GAMMA    
# ...
    71.450    60.660      .026   206.600    51.090     9.970
    71.500    61.130      .025   207.100    51.030    10.350
    71.550    61.730      .025   207.200    51.000    10.610
    71.600    62.330      .024   207.200    51.020    10.680
    71.650    62.110      .024   207.300    51.100    10.700
    71.700    61.190      .023   207.400    51.190    10.750
    71.750    60.640      .023   207.600    51.280    10.810
    71.800    59.400      .023   207.800    51.360    10.970
    71.850    58.210      .022   208.000    51.440    11.710
    71.900    57.350      .022   209.500    51.490    11.890
    71.950    57.100      .022   210.400    51.490    12.010
    72.000    57.200      .022   210.400    51.490    12.060
    72.050    57.390      .027   210.400    51.480    12.070
    72.100    57.490      .027   210.400    51.480    12.080
    72.150    57.240      .026   210.600    51.490    12.080
    72.200    56.670      .026   210.800    51.520    12.080
    72.250    56.100      .026   211.000    51.500    12.050
    72.300    55.480      .026   211.200    51.460    12.000
    72.350    54.910      .026   211.500    51.390    11.900
    72.400    53.930      .026   211.800    51.240    11.870
    72.450    53.590      .025   212.000    51.100    11.980
    72.500    53.540      .025   212.400    50.720    12.060
    72.550    53.490      .026   213.100    50.350    12.000
    72.600    53.410      .026   213.900    49.990    11.370
    72.650    53.190      .026   214.300    49.370    11.250
    72.700    52.840      .026   214.500    48.850    11.300
    72.750    52.600      .027   214.400    48.270    11.480
    72.800    52.860      .031   213.600    47.990    11.550
    72.850    53.560      .033   212.300    47.690    11.590
    72.900    54.680      .035   210.900    47.350    11.590
    72.950    55.310      .035   210.400    46.990    11.460
    73.000    55.730      .036   210.300    46.610    11.230
    73.050    55.820      .036   210.400    46.240    11.000
    73.100    55.650      .036   210.500    45.800    11.000
    73.150    55.020      .036   210.600    45.370    10.990
    73.200    54.050      .037   210.600    44.960    10.910
    73.250    52.910      .037   210.600    44.640    10.570
    73.300    51.940      .037   210.500    43.950    10.270
    73.350    51.570      .036   210.500    43.760     9.950
    73.400    51.570      .036   210.400    43.510     9.640
    73.450    51.800      .036   210.300    43.430     9.640
    73.500    51.750      .036   210.300    43.430     9.670
    73.550    51.440      .035   210.300    43.450     9.750
    73.600    50.950      .035   210.400    43.490     9.960
    73.650    50.380      .034   210.900    43.530    10.250
    73.700    48.870      .034   211.500    43.570    10.350
    73.750    45.030      .034   212.200    43.620    10.400
    73.800    44.010      .034   213.000    43.690    10.420
    73.850    42.870      .034   213.800    43.760    10.350
    73.900    42.040      .034   213.700    43.850    10.050
    73.950    38.490      .035   212.600    43.970     9.970
    74.000    37.170      .038   212.600    44.070    10.020
    74.050    36.880      .038   213.100    44.240    10.160
    74.100    36.750      .037   212.700    44.440    10.440
    74.150    36.700      .037   211.200    44.570    10.670
    74.200    36.480      .038   211.400    44.560    10.980
    74.250    36.100      .038   212.000    44.470    11.120
    74.300    35.640      .038   212.600    44.350    11.310
    74.350    35.080      .038   213.200    44.300    11.610
    74.400    34.530      .038   213.800    44.250    12.220
    74.450    34.100      .038   213.800    44.250    12.580
    74.500    33.820      .038   213.100    44.240    12.660
    74.550    33.910      .038   212.500    44.250    12.750
    74.600    34.130      .038   212.300    44.260    13.470
    74.650    34.390      .037   212.500    44.270    13.620
    74.700    34.640      .037   212.800    44.270    13.660
    74.750    34.870      .036   212.900    44.270    13.610
    74.800    35.100      .036   213.000    44.280    13.500
    74.850    35.240      .036   212.900    44.280    13.180
    74.900    35.300      .036   212.300    44.220    12.710
    74.950    35.140      .035   212.700    44.160    12.230
    75.000    34.960      .035   212.700    44.100    11.970
    75.050    34.880      .035   212.200    43.980    11.860
    75.100    34.930      .035   211.600    43.870    11.600
    75.150    35.040      .035   211.500    43.670    11.260
    75.200    35.230      .034   211.400    43.520    10.940
    75.250    35.390      .034   211.100    43.460    10.860
    75.300    35.540      .034   211.000    43.440    10.950
    75.350    35.700      .035   211.100    43.450    11.120
    75.400    35.820      .037   211.300    43.430    11.530
    75.450    35.940      .040   210.800    43.370    12.040
    75.500    36.040      .040   210.200    43.300    12.200
    75.550    36.170      .040   209.900    43.200    12.360
    75.600    36.300      .039   209.900    43.030    12.640
    75.650    36.520      .039   209.900    42.810    12.600
    75.700    36.800      .039   209.600    42.660    12.340
    75.750    37.630      .039   208.400    42.640    12.100
    75.800    37.900      .039   206.500    42.620    11.840
    75.850    38.060      .040   206.200    42.610    11.750
    75.900    38.250      .040   208.300    42.630    11.690
    75.950    38.470      .041   209.200    42.640    11.640
    76.000    38.780      .041   209.500    42.660    11.400
    76.050    39.040      .042   209.700    42.700    11.150
    76.100    39.510      .043   210.000    42.750    11.150
    76.150    39.830      .044   210.200    42.790    11.300
    76.200    40.020      .045   210.500    42.890    11.410
    76.250    40.060      .045   210.800    42.980    11.420
    76.300    39.890      .045   211.000    43.090    11.330
    76.350    39.790      .045   211.200    43.170    11.150
    76.400    39.760      .045   211.500    43.240    10.970
    76.450    39.530      .045   212.400    43.290    10.990
    76.500    39.560      .045   213.500    43.390    11.070
    76.550    39.760      .045   214.200    43.510    11.080
    76.600    40.190      .044   217.100    43.650    11.300
    76.650    40.760      .044   219.400    43.790    11.420
    76.700    41.180      .044   222.000    43.920    11.370
    76.750    41.280      .044   224.300    44.040    10.980
    76.800    41.380      .045   225.200    44.130    10.680
    76.850    41.510      .045   213.500    44.190    10.360
    76.900    41.750      .046   213.000    44.230    10.330
    76.950    41.940      .046   213.300    44.290    10.520
    77.000    42.090      .046   212.600    44.340    10.960
    77.050    42.160      .046   211.800    44.500    11.300
    77.100    42.170      .045   211.600    44.670    11.580
    77.150    42.160      .045   209.400    44.870    11.720
    77.200    42.190      .045   208.200    45.100    11.720
    77.250    42.290      .044   208.800    45.350    11.650
    77.300    42.520      .044   211.300    45.600    11.390
    77.350    42.910      .043   212.400    45.810    11.400
    77.400    43.370      .042   214.400    46.010    11.430
    77.450    43.820      .041   214.200    46.210    11.350
    77.500    44.210      .041   212.800    46.380    11.200
    77.550    44.430      .040   211.300    46.530    11.200
    77.600    44.450      .040   208.100    46.630    11.220
    77.650    44.400      .040   207.300    46.670    11.250
    77.700    44.420      .040   207.600    46.660    11.270
    77.750    44.470      .040   207.500    46.640    11.280
    77.800    44.790      .040   206.800    46.630    11.250
    77.850    45.550      .040   206.100    46.670    11.170
    77.900    46.250      .040   205.700    46.710    10.890
    77.950    46.610      .041   205.500    46.750    10.520
    78.000    46.820      .041   206.100    46.840    10.040
