~Version Information Block
 VERS.                2.00:     CWLS LOG ASCII STANDARD - VERSION 2.000000
 WRAP.                  NO:     One Line Per Depth Step
#
~Well Information Block
#MNEM.UNIT                     Data                         Information
#----------   ------------------------------------------   ----------------
 STRT.M                                         0.0000:
 STOP.M                                        32.0000:
 STEP.M                                         0.0200:
 NULL.                                       -999.2500:
 COMP.                                                :     COMPANY
 WELL.                                        B62B0912:     WELL
 FLD .                                                :     FIELD
 CNTY.                                                :     COUNTY
 STAT.                                                :     STATE
 CTRY.                                                :     COUNTRY
 SRVC.                                                :     SERVICE COMPANY
 DATE.                                                :     DATE
 API .                                                :     API NUMBER
 UWI .                                                :     UWI NUMBER
#
~Curve Information Block
#MNEM.UNIT       API CODE      Curve Description
#----------    -------------   -------------------
 DEPT.M                    :   Depth in Meters
 CAL .CM                   :   Cal
 GAM(NAT) .CPS             :   GAM(NAT)
 SP  .MV                   :   SP
 SN40.OHM-M                :   SN40
 LN160.OHM-M               :   LN160
#
~Parameter Information Block
#MNEM.UNIT            Value               Description
#----------    --------------------    -------------------
 PDAT.                            :    Permanent Datum
 EPD .M                     0.0000:    Elevation Of Perm. Datum
 WSTA.                         LOC:    
 E   .M                     0.0000:    E (Stretch Coefficient Of The Cable)
 TD  .M                    32.0000:    Total Depth
#
~Other Information Block
<DescLogPlotStart>   NEURALOG PLOT DEFINITION
PLOTDEFVERSION: 3
LASFILE: D:\NeurLrest_23_04_'08en 20_05\nlg_1\B62B0912.las
DEPTHSCALE: 200.000000
RESOLUTION: 600
DEPTHLABELFREQ: 50.000000
HEAVYGRIDFREQ: 50.000000
MEDIUMGRIDFREQ: 25.000000
LIGHTGRIDFREQ: 5.000000
#
#   TRACK 1
#
STARTTRACK: 
 LEFTX: 0.500000 inch
 RIGHTX: 3.000000 inch
 SCALETYPE: LINEAR
 NUMCHARTDIVISIONS: 10
CURVE: SP    0.000000   50.000000  (0,0,255)      Solid             2     N    
ENDTRACK: 
#
#   TRACK 2
#
STARTTRACK: 
 LEFTX: 3.500000 inch
 RIGHTX: 6.000000 inch
 SCALETYPE: LINEAR
 NUMCHARTDIVISIONS: 10
CURVE: CAL   0.000000   100.000000 (0,131,131)    Solid             2     N    
ENDTRACK: 
#
#   TRACK 3
#
STARTTRACK: 
 LEFTX: 6.000000 inch
 RIGHTX: 11.000000 inch
 SCALETYPE: LINEAR
 NUMCHARTDIVISIONS: 10
CURVE: SN40  0.000000   100.000000 (255,0,255)    Solid             2     N    
CURVE: LN160  0.000000   100.000000 (255,0,0)      Dot               2     N    
ENDTRACK: 
#
#   TRACK 4
#
STARTTRACK: 
 LEFTX: 11.000000 inch
 RIGHTX: 16.000000 inch
 SCALETYPE: LINEAR
 NUMCHARTDIVISIONS: 10
CURVE: GAM(NAT)   0.000000   50.000000  (255,131,0)    Solid             2     N    
ENDTRACK: 
<DescLogPlotEnd>
~A  DEPTH        CAL               GAM(NAT)         SP                SN40            LN160  
# ...
      28.400      32.29166667      27.50420168      22.59451960      54.57668067      48.99159664
      28.420      31.48521505      28.24369748      22.34952740      54.77725840      48.99159664
      28.440      31.48521505      28.21922472      22.13521072      54.97783613      49.02214886
      28.460      31.48521505      28.17904039      21.86422563      55.17841387      49.13676471
      28.480      31.33862296      28.05882353      21.60050295      55.37899160      49.25138055
      28.500      31.11017170      28.05882353      21.38776882      55.51260504      49.36599640
      28.520      30.61155914      28.05882353      21.33870968      55.51260504      49.48061224
      28.540      30.61155914      28.05882353      21.28696237      55.39752101      49.59522809
      28.560      30.29756330      28.05882353      21.32899757      55.31092437      49.70984394
      28.580      30.20833333      28.40434400      21.39761100      55.31092437      49.82445978
      28.600      30.20833333      28.78107211      21.48998439      55.15642257      49.93907563
      28.620      29.81447277      29.15780022      21.58938172      54.65211285      50.05369148
      28.640      29.80510753      29.31932773      21.73493323      54.14780312      50.16830732
      28.660      29.80510753      29.31932773      22.07516042      53.78301968      50.28292317
      28.680      29.80510753      29.42016807      22.21518384      53.65211632      50.39753902
      28.700      29.80510753      29.42016807      22.46368800      53.52121296      50.51215486
      28.720      29.80510753      29.42016807      22.72290149      53.39030960      50.62677071
      28.740      29.80510753      29.26220819      23.20575356      53.25940624      50.74138655
      28.760      29.80510753      29.09946164      23.41772893      53.12850287      50.85600240
      28.780      29.80510753      28.93671510      23.62571540      52.99759951      50.97061825
      28.800      29.80510753      28.77396856      23.87400277      52.86669615      51.08523409
      28.820      29.80510753      28.61122201      24.11548300      52.78991597      51.19984994
      28.840      29.80510753      28.44847547      24.34269858      52.78991597      51.31446579
      28.860      29.80510753      28.28572892      24.49148023      52.63651261      51.42908163
      28.880      29.80510753      28.12298238      24.61357527      52.58823529      51.54369748
      28.900      29.80510753      27.61623007      24.94786247      52.58823529      51.65831333
      28.920      29.80510753      26.88560586      25.05040323      52.47320247      51.77292917
      28.940      28.93145161      26.15498164      25.05040323      52.33029084      51.88754502
      28.960      28.93145161      25.42435743      25.01801509      52.18737920      52.00216086
      28.980      28.93145161      24.69747899      24.84879032      52.04446757      52.11677671
      29.000      28.93145161      24.69747899      24.84879032      51.90155593      52.23139256
      29.020      28.93145161      24.69747899      24.84879032      51.75864430      52.34600840
      29.040      28.93145161      24.47899160      24.84879032      51.61573267      52.45480354
      29.060      28.93145161      24.47899160      24.90446150      51.47282103      52.56322394
      29.080      28.93145161      24.47899160      25.25201613      51.32990940      52.67164433
      29.100      28.93145161      24.47899160      25.25201613      51.18699777      52.78006473
      29.120      28.93145161      24.47899160      25.25201613      51.04408613      52.88848512
      29.140      28.93145161      24.37815126      25.25201613      50.90117450      52.99690552
      29.160      28.93145161      24.37815126      25.25201613      50.75826287      53.10532591
      29.180      28.93145161      24.37815126      25.05040323      50.67226891      53.21374631
      29.200      28.93145161      23.95798319      25.05040323      50.67226891      53.32216670
      29.220      28.93145161      23.95798319      25.05040323      50.67226891      53.43058710
      29.240      28.93145161      23.94841963      25.05040323      50.47058824      53.53900749
      29.260      28.93145161      23.85714286      25.05040323      50.47058824      53.64742789
      29.280      28.93145161      23.85714286      24.84879032      50.29210084      53.75584829
      29.300      28.93145161      23.73949580      24.84879032      50.26890756      53.86426868
      29.320      28.93145161      23.73949580      24.84879032      50.26890756      53.97268908
      29.340      28.93145161      23.73448631      24.84879032      50.26890756      54.03361345
      29.360      28.93145161      23.63865546      24.84879032      50.26890756      54.03361345
      29.380      28.93145161      23.63865546      24.75487773      50.10365546      54.03361345
      29.400      28.93145161      24.57983193      24.64717742      50.06722689      54.03361345
      29.420      28.93145161      24.57983193      24.64717742      50.06722689      54.03361345
      29.440      28.93145161      24.57983193      24.21034946      50.06722689      54.03361345
      29.460      28.93145161      24.69747899      24.21034946      50.06722689      54.03361345
      29.480      28.93145161      24.69747899      24.12098942      50.06722689      54.03361345
      29.500      28.93145161      24.69747899      24.00873656      50.06722689      54.03361345
      29.520      28.93145161      24.25815487      24.00873656      50.06722689      54.03361345
      29.540      28.93145161      23.58841601      24.13568765      50.06722689      53.84920168
      29.560      28.93145161      23.02744270      24.21034946      50.14457983      53.83193277
      29.580      28.93145161      23.10003375      24.21034946      50.22481092      53.83193277
      29.600      28.93145161      23.17262480      24.00873656      50.26890756      52.99159664
      29.620      28.93145161      23.24521586      24.00873656      50.26890756      52.99159664
      29.640      28.93145161      23.31780691      24.00873656      50.26890756      52.99159664
      29.660      28.93145161      23.39039796      23.94144554      50.31044118      52.78991597
      29.680      28.93145161      23.46298901      23.86095213      50.39067227      52.78991597
      29.700      28.93145161      23.53558006      23.57190860      50.47489496      52.58823529
      29.720      28.99471037      23.60817111      23.53830645      50.56456500      52.58823529
      29.740      28.99865591      23.68076216      23.53830645      50.65423505      52.58823529
      29.760      28.99865591      23.75335321      23.33669355      50.74390509      52.58823529
      29.780      29.11460256      23.82594426      23.33669355      50.83357514      52.58823529
      29.800      29.24464044      23.89853531      22.84447624      50.92324518      52.58823529
      29.820      29.37467831      24.03593696      22.69825269      51.01291522      52.58823529
      29.840      29.50471619      24.46648337      22.69825269      51.10258527      52.58823529
      29.860      29.63475406      24.89702978      22.09341398      51.19225531      52.58823529
      29.880      29.76479194      25.32757619      22.09341398      51.28192536      52.58823529
      29.900      29.89482981      25.75812260      21.61561308      51.37159540      52.58823529
      29.920      30.02486769      26.18866902      21.45497312      51.46126545      52.58823529
      29.940      30.15490556      26.54661064      21.45497312      51.55093549      52.58823529
      29.960      30.28494344      26.75422969      20.66965834      51.64060554      52.62860688
      29.980      30.41498131      26.96184874      20.61491935      51.73027558      52.72137408
      30.000      30.54501919      27.10084034      20.61491935      51.81994563      52.81414128
      30.020      30.67505706      27.10084034      20.17809140      51.90961567      52.90690848
