~Version Information
 VERS.                2.0:  CWLS LOG ASCII STANDARD -VERSION 2.0
 WRAP.                 NO:  ONE LINE PER DEPTH STEP
~WELL INFORMATION BLOCK
#MNEM.UNIT       DATA		            DESCRIPTION OF MNEMONIC
#---------    -------------            ------------------------
 STRT.M      .450                        :START DEPTH
 STOP.M   #######                        :STOP DEPTH
 STEP.M      .050                        :STEP
 NULL.    -999999.0                      :NULL VALUE
 COMP.       SCHIFOOD                    :COMPANY
 WELL.                          B62B0897 :WELL
 FLD .    Heerlen                        :FIELD
 CNTY.                                   :COUNTY
 STAT.                                   :STATE
 SRVC.                                   :SERVICE COMPANY
 DATE.     10-DEC-90                     :LOG DATE
 UWI .                                   :UNIQUE WELL ID
 LIC .                                   :LICENSE NUMBER
~Curve Information Block
#MNEM.UNIT      API CODE     Curve Description
#---------    -------------  ------------------------
DEPTH    .M         00 000 00 00          :  1  DEPTH
SN40     .OHM.M     00 000 00 00          :  2  SN40
SP       .V         00 000 00 00          :  3  SP
CAL      .MM        00 000 00 00          :  4  CAL
LN160    .OHM.M     00 000 00 00          :  5  LN160
GAMMA    .CPS       00 000 00 00          :  6  GAMMA
~Parameter Information Block
#MNEM.UNIT   Information     Description
#---------- ---------------  ------------------------
 FILE.                         :File Type
 FIID.                         :File Type Identifier
 VERS.                         :System Version
 SER .                         :System Serial Number
 TRUK.                         :Truck Calibration Number
 TOOL.                         :Tool Serial Number
 TIME.                         :Time    HrHrMinMin
 LAT .                         :Latitude
 LON .                         :Longitude
 LMF .            MV           :LOG Measured FROM
 DMF .                         :Driller Measured From
 PD  .                         :Permanent Data
 PDEV.                         :Elevation Permanent Data
 EKB .M                        :Elevation Kelly Bushing
 ELEV.DF                       :Elevation DF
 EGL .M                        :Elevation Ground Level
 DRDP.                         :Drillers Depth
 CASD.                         :Casing Diameter
 CASB.                         :Casing Bottom
 CASX.                         :Casing Type
 CAST.                         :Casing Thickness
 TNOC.                         :Time Circulation Stopped
 LOGU.                         :Logging Unit
 RECB.            Bergsma      :Recorded By
 OSR1.                         :Other Services
 OSR2.                         :Other Services
 OSR3.                         :Other Services
 BS  .MM                       :Bit Size
 MST .                         :Mean Surface Temperature
 TGRD.                         :Temperature Gradiant
 MAGN.                         :Magnetic Declination
 MDEN.                         :Density Matrix
 MATR.                         :Neutron Matrix
 DTMT.                         :Delta T Matrix
 DTFL.                         :Delta T Fluid
 MUDS.                         :Mud Sample Source
 MRS .                         :Mud Resistivity
 MTP .                         :Mud Temperature
 MFRS.                         :Resistivity Mud Filtrate
 MFTP.                         :Temperature Mud Filtrate
 MCRS.                         :Resistivity Mud Cake
 MCTP.                         :Temperature Mud Cake
 FTYP.                         :Fluid Type
 FD  .K/M3                     :Fluid Density
 DFV .S                        :Fluid Viscosity
 FPH .                         :Fuild PH
 ELCO.                         :Electron Cutoff
~Other Information
#MNEM.UNIT  Information      Description
#---------- ---------------  ------------------------
# --------------------------
## COMMENTS    Top_Depth   Bot_Depth  LithCode  Lat    Long   Elev_Gl
##    Type of LithCode   Lithologie - 1970
##                    .00         .00         .00     
##                    .45        6.00         .00     
##                   6.05        8.10        2.00     
##                   8.15       15.30       23.00     
##                  15.35       18.50       22.00     
##                  18.55       20.80       11.00     
##                  20.85       22.35       12.00     
##                  22.40       23.40       11.00     
##                  23.45       25.30       12.00     
##                  25.35       26.25       11.00     
##                  26.30       27.80       12.00     
##                  27.85       35.10       11.00     
##                  35.15       47.80       12.00     
##                  47.85       50.40        6.00     
##                  50.45       52.00       23.00     
##                  52.05       53.20       11.00     
##                  53.25       54.60       12.00     
##                  54.65       55.50       11.00     
##                  55.55       56.50       12.00     
##                  56.55       57.25       11.00     
##                  57.30       58.60       12.00     
##                  58.65       64.40       11.00     
##                  64.45       71.10        9.00     
##                  71.15       74.20        7.00     
##                  74.25       75.90        9.00     
##                  75.95       78.90        7.00     
##                  78.95       93.30        9.00     
##                  93.35       95.20       10.00     
##                  95.25       97.60        9.00     
##                  97.65       99.95       10.00     
##                 100.00      100.00         .00     
##                 100.05      126.75     #######     
##    last_layer   126.75
# --------------------------
~A DEPTH    SN40     SP       CAL      LN160    GAMMA    
# ...
    26.450    21.010      .067   570.700    25.870    13.300
    26.500    21.090      .067   569.000    25.690    13.640
    26.550    21.170      .067   576.000    25.520    13.760
    26.600    21.270      .067   582.000    25.360    13.840
    26.650    21.320      .067   576.100    25.180    14.000
    26.700    21.350      .067   573.500    25.010    14.220
    26.750    21.400      .067   577.400    24.830    14.440
    26.800    21.390      .067   581.000    24.660    14.660
    26.850    21.400      .067   579.200    24.500    14.430
    26.900    21.400      .067   580.000    24.360    14.320
    26.950    21.380      .067   581.900    24.220    14.300
    27.000    21.330      .067   582.400    24.090    14.520
    27.050    21.270      .067   584.500    23.950    14.730
    27.100    21.130      .067   586.200    23.800    14.850
    27.150    21.010      .067   585.100    23.640    15.320
    27.200    20.880      .067   580.000    23.480    15.660
    27.250    20.730      .067   580.000    23.310    15.800
    27.300    20.570      .067   589.300    23.160    15.880
    27.350    20.230      .067   598.700    23.010    16.050
    27.400    19.940      .067   597.500    22.860    16.120
    27.450    19.680      .067   583.900    22.710    16.390
    27.500    19.370      .067   570.300    22.540    16.400
    27.550    19.040      .067   561.700    22.420    16.450
    27.600    18.770      .067   566.200    22.300    16.560
    27.650    18.450      .068   570.700    22.190    16.820
    27.700    18.140      .068   575.300    22.100    17.090
    27.750    17.820      .068   579.800    22.010    17.350
    27.800    17.410      .068   585.000    21.920    17.560
    27.850    17.150      .068   574.400    21.830    17.760
    27.900    16.840      .067   563.800    21.750    18.080
    27.950    16.480      .067   551.700    21.680    18.250
    28.000    16.100      .067   560.500    21.610    18.410
    28.050    15.710      .067   571.300    21.540    18.640
    28.100    15.350      .067   582.100    21.450    18.550
    28.150    14.940      .067   592.800    21.360    18.550
    28.200    14.660      .067   594.800    21.280    18.700
    28.250    14.480      .067   584.100    21.190    18.910
    28.300    14.370      .067   573.400    21.090    18.910
    28.350    14.300      .067   560.800    20.950    17.770
    28.400    14.250      .067   565.300    20.840    17.670
    28.450    14.230      .067   569.700    20.720    17.660
    28.500    14.250      .067   574.200    20.580    17.630
    28.550    14.300      .067   578.700    20.410    17.550
    28.600    14.400      .067   583.200    20.250    17.420
    28.650    14.520      .067   587.300    20.090    16.830
    28.700    14.640      .067   591.300    19.920    16.190
    28.750    14.760      .067   595.400    19.760    15.800
    28.800    14.910      .067   599.500    19.620    15.420
    28.850    15.060      .067   603.500    19.500    14.850
    28.900    15.310      .067   602.900    19.410    14.270
    28.950    15.470      .067   612.000    19.320    14.100
    29.000    15.710      .067   621.000    19.260    14.310
    29.050    15.890      .067   619.600    19.200    14.530
    29.100    16.040      .067   614.700    19.150    14.740
    29.150    16.120      .067   613.400    19.110    14.950
    29.200    16.170      .067   612.600    19.070    15.290
    29.250    16.160      .067   611.500    19.030    15.820
    29.300    16.120      .067   609.500    18.990    16.340
    29.350    16.070      .067   606.500    18.980    16.670
    29.400    16.010      .067   603.000    18.970    16.660
    29.450    15.920      .067   595.000    18.960    16.770
    29.500    15.800      .067   592.700    18.950    16.950
    29.550    15.630      .067   588.400    18.940    17.130
    29.600    15.410      .067   587.800    18.930    17.370
    29.650    15.110      .067   591.900    18.930    17.530
    29.700    14.940      .067   591.300    18.920    17.550
    29.750    14.680      .067   585.400    18.910    17.600
    29.800    14.520      .067   588.400    18.900    17.770
    29.850    14.260      .067   593.400    18.880    17.550
    29.900    14.090      .067   594.600    18.870    17.250
    29.950    13.980      .067   591.400    18.850    17.080
    30.000    13.910      .067   587.900    18.840    16.710
    30.050    13.890      .067   577.000    18.810    16.900
    30.100    13.890      .067   567.800    18.790    17.200
    30.150    13.920      .067   559.800    18.770    17.210
    30.200    13.970      .067   559.600    18.740    16.880
    30.250    14.020      .067   562.700    18.700    16.110
    30.300    14.080      .067   565.500    18.680    15.800
    30.350    14.170      .067   568.800    18.660    15.740
    30.400    14.290      .067   570.900    18.610    15.860
    30.450    14.400      .067   568.600    18.560    15.910
    30.500    14.480      .067   559.900    18.500    15.790
    30.550    14.560      .067   551.100    18.420    15.610
    30.600    14.620      .067   542.400    18.350    15.550
    30.650    14.630      .067   542.000    18.290    15.470
    30.700    14.610      .067   552.600    18.240    15.370
    30.750    14.580      .067   563.200    18.200    15.350
    30.800    14.540      .067   573.800    18.160    15.490
    30.850    14.470      .067   584.700    18.160    15.800
    30.900    14.390      .067   565.500    18.150    16.140
    30.950    14.300      .067   550.400    18.140    16.340
    31.000    14.220      .067   555.100    18.130    16.280
    31.050    14.140      .067   559.400    18.130    16.170
    31.100    14.070      .067   563.700    18.130    16.210
    31.150    14.010      .067   568.000    18.130    16.330
    31.200    13.960      .067   572.300    18.140    16.430
    31.250    13.920      .067   576.600    18.140    16.450
    31.300    13.900      .067   580.900    18.150    16.380
    31.350    13.880      .067   585.100    18.170    16.380
    31.400    13.870      .067   589.400    18.180    16.460
    31.450    13.860      .067   588.400    18.200    16.690
    31.500    13.850      .067   581.700    18.230    17.000
    31.550    13.860      .067   574.900    18.250    17.130
    31.600    13.860      .067   568.200    18.280    17.360
    31.650    13.860      .067   561.400    18.300    17.520
    31.700    13.870      .067   563.700    18.320    17.370
    31.750    13.900      .067   568.800    18.340    16.830
    31.800    13.930      .067   574.000    18.360    16.710
    31.850    13.970      .067   578.300    18.350    16.680
    31.900    14.020      .067   574.200    18.350    16.580
    31.950    14.150      .067   569.500    18.340    16.420
    32.000    14.300      .066   568.800    18.320    16.160
    32.050    14.480      .066   559.100    18.310    15.890
    32.100    14.710      .066   557.400    18.290    15.520
    32.150    14.960      .066   558.900    18.270    15.520
    32.200    15.170      .066   565.100    18.250    15.780
    32.250    15.490      .066   573.700    18.240    15.950
    32.300    15.750      .066   583.000    18.230    16.180
    32.350    16.000      .065   585.200    18.230    16.420
    32.400    16.170      .065   590.100    18.240    16.550
    32.450    16.310      .065   592.800    18.250    16.740
    32.500    16.440      .065   594.600    18.250    16.450
    32.550    16.530      .064   594.700    18.260    16.370
    32.600    16.590      .064   594.900    18.270    16.430
    32.650    16.610      .064   594.900    18.270    16.560
    32.700    16.620      .064   594.900    18.280    16.890
    32.750    16.620      .064   594.900    18.290    17.140
    32.800    16.560      .064   595.200    18.300    17.270
    32.850    16.490      .064   594.500    18.310    17.330
    32.900    16.410      .064   589.500    18.330    17.350
    32.950    16.250      .064   582.400    18.360    17.480
    33.000    16.030      .064   575.300    18.410    17.420
