~Version Information Block
 VERS.                2.00:     CWLS LOG ASCII STANDARD - VERSION 2.000000
 WRAP.                  NO:     One Line Per Depth Step
#
~Well Information Block
#MNEM.UNIT                     Data                         Information
#----------   ------------------------------------------   ----------------
 STRT.M                                         0.0000:
 STOP.M                                       171.0000:
 STEP.M                                         0.0200:
 NULL.                                       -999.2500:
 COMP.                                                :     COMPANY
 WELL.                                        B62B0838:     WELL
 FLD .                                                :     FIELD
 CNTY.                                                :     COUNTY
 STAT.                                                :     STATE
 CTRY.                                                :     COUNTRY
 SRVC.                                                :     SERVICE COMPANY
 DATE.                                                :     DATE
 API .                                                :     API NUMBER
 UWI .                                                :     UWI NUMBER
#
~Curve Information Block
#MNEM.UNIT       API CODE      Curve Description
#----------    -------------   -------------------
 DEPT.M                    :   Depth in Meters
 SN20.OHM-M                :   SN20
 LN100.OHM-M               :   LN100
 CALI.CM                   :   Calr
 GAM(NAT) .CPS             :   GAM(NAT)
#
~Parameter Information Block
#MNEM.UNIT            Value               Description
#----------    --------------------    -------------------
 PDAT.                            :    Permanent Datum
 EPD .M                     0.0000:    Elevation Of Perm. Datum
 WSTA.                         LOC:    
 E   .M                     0.0000:    E (Stretch Coefficient Of The Cable)
 TD  .M                   171.0000:    Total Depth
#
~Other Information Block
<DescLogPlotStart>   NEURALOG PLOT DEFINITION
PLOTDEFVERSION: 3
LASFILE: V:\a4\j4\p44009\boorgatmetingen\SCANS TE VERWERKEN IN DINO\wlg\B62B083
DEPTHSCALE: 200.000000
RESOLUTION: 600
DEPTHLABELFREQ: 50.000000
HEAVYGRIDFREQ: 50.000000
MEDIUMGRIDFREQ: 25.000000
LIGHTGRIDFREQ: 5.000000
#
#   TRACK 1
#
STARTTRACK: 
 LEFTX: 13.760000 inch
 RIGHTX: 15.010000 inch
 SCALETYPE: LINEAR
 NUMCHARTDIVISIONS: 10
CURVE: CALI  30.000000  50.000000  (0,0,255)      Solid             2     N    
ENDTRACK: 
#
#   TRACK 2
#
STARTTRACK: 
 LEFTX: 16.551667 inch
 RIGHTX: 21.551667 inch
 SCALETYPE: LINEAR
 NUMCHARTDIVISIONS: 10
CURVE: GAM(NAT)   0.000000   50.000000  (0,131,131)    Solid             2     N    
ENDTRACK: 
#
#   TRACK 3
#
STARTTRACK: 
 LEFTX: 15.343333 inch
 RIGHTX: 21.240000 inch
 SCALETYPE: LINEAR
 NUMCHARTDIVISIONS: 10
CURVE: SN20  0.000000   100.000000 (255,0,255)    Solid             2     Y    
CURVE: LN100  0.000000   100.000000 (255,0,0)      Dot               2     Y    
ENDTRACK: 
<DescLogPlotEnd>
~Other Information
#MNEM.UNIT  Information      Description
#---------- ---------------  ------------------------
# --------------------------
## COMMENTS    Top_Depth   Bot_Depth  LithCode  Lat    Long   Elev_Gl 
##	0.0	31.2	0.0
##	31.25	97.0	25.0
##	97.05	97.5	11.0
##	97.55	104.0	12.0
##	104.05	110.1	11.0
##	110.15	111.7	12.0
##	111.75	113.1	11.0
##	113.15	116.6	12.0
##	116.65	124.1	11.0
##	124.15	125.9	12.0
##	125.95	139.0	11.0
##	139.05	140.0	10.0
##	140.05	145.5	11.0
##	145.55	146.3	10.0
##	146.35	148.0	12.0
##	148.05	149.4	10.0
##	149.45	150.0	11.0
##	150.05	151.9	10.0
##	151.95	152.6	11.0
##	152.65	155.0	10.0
##	155.05	160.9	14.0
##	160.95	163.2	11.0
##	163.25	164.0	10.0
##	164.05	167.8	11.0
##	167.85	170.0	10.0
##	170.05	171.95	11.0
# --------------------------
~A  DEPTH         SN20             LN100            CALI             GAM(NAT)  
# ...
     102.680      28.08931600      27.09440362      37.79100529      25.48194887
     102.700      28.08931600      27.09440362      37.79100529      25.21870000
     102.720      28.08931600      27.09440362      37.81746032      24.61109232
     102.740      28.08931600      27.09440362      37.63227513      24.61109232
     102.760      28.01381223      27.09440362      37.63227513      25.10145418
     102.780      27.91891699      27.09440362      37.63227513      25.09563391
     102.800      27.82402174      27.09440362      37.81746032      25.13672582
     102.820      27.72912650      27.09440362      37.81746032      25.29449992
     102.840      27.63423126      27.09440362      37.63227513      25.66656581
     102.860      27.53933602      27.17354438      37.64980507      25.83653221
     102.880      27.44444077      27.17354438      37.87037037      26.05851513
     102.900      27.34954553      27.17354438      37.89682540      26.27784798
     102.920      27.25465029      27.17354438      37.89682540      26.46423889
     102.940      27.15975505      27.17354438      37.89682540      26.65566690
     102.960      27.06485980      27.21588766      37.89682540      26.69129452
     102.980      26.96996456      27.26396583      37.89682540      26.72472100
     103.000      26.87506932      27.29080096      37.89682540      26.70781197
     103.020      26.78017408      27.37704918      37.92672422      26.67179277
     103.040      26.68527884      27.37704918      37.94973545      26.64007302
     103.060      26.59038359      27.44936810      37.94973545      26.54291828
     103.080      26.49548835      27.54511717      37.99270862      26.31469780
     103.100      26.40059311      27.57195230      38.02409573      26.25126818
     103.120      26.30569787      27.94234031      38.05548284      26.21745012
     103.140      26.21080262      27.94234031      38.09172932      26.21745012
     103.160      26.11590738      27.94234031      38.10846561      26.27190906
     103.180      26.02101214      27.94234031      38.13791268      26.35654716
     103.200      25.92611690      27.94234031      38.16137566      26.41166664
     103.220      25.83122165      27.94234031      38.13492063      26.42035847
     103.240      25.73632641      27.94234031      38.10744402      26.45417653
     103.260      25.64143117      27.94234031      38.09698165      26.47462162
     103.280      25.54653593      28.08931600      38.08651928      26.67246716
     103.300      25.45164068      28.08931600      38.07605691      26.78901487
     103.320      25.35674544      28.08931600      38.06559454      27.00099674
     103.340      25.33069531      28.08931600      38.05513217      27.11457993
     103.360      25.33069531      28.08931600      38.04466980      27.43651599
     103.380      25.29887239      27.98854343      38.03420743      27.69206581
     103.400      25.26286037      27.87450537      38.20099632      27.96633818
     103.420      25.26286037      27.87450537      38.05555556      28.04954247
     103.440      25.39853024      27.83651429      38.08201058      28.16064765
     103.460      25.39853024      27.77979458      38.11287323      28.30288917
     103.480      25.39853024      27.72307488      38.11624122      28.46635103
     103.500      25.37919134      27.66635517      38.10637705      28.52775751
     103.520      25.35235621      27.60963546      38.10990027      28.78711433
     103.540      25.33069531      27.55291576      38.25637344      29.10713798
     103.560      25.33069531      27.49619605      37.99741947      29.47379694
     103.580      25.33069531      27.43947634      37.96110028      29.76584455
     103.600      25.33069531      27.38275664      37.89982673      29.98144951
     103.620      25.33069531      27.32603693      37.91491692      30.08874571
     103.640      25.30861524      27.26931722      37.89682540      30.23128190
     103.660      25.26286037      27.21259752      37.89682540      30.31048142
     103.680      25.26286037      27.15587781      37.89682540      30.43514942
     103.700      25.26286037      27.09915810      37.89682540      30.45836325
     103.720      25.26286037      27.04243840      37.87037037      30.54616165
     103.740      25.26286037      26.98571869      37.87037037      30.57997971
     103.760      25.26286037      26.92899898      37.87037037      30.59564083
     103.780      25.26286037      26.87227928      37.87037037      30.79805872
     103.800      25.21670485      26.81555957      37.87037037      30.89015657
     103.820      25.09680495      26.75883986      37.84391534      31.00346289
     103.840      25.06996982      26.70212016      37.86048919      31.17627515
     103.860      25.01035144      26.64540045      37.94419382      31.72464981
     103.880      24.92928110      26.58868074      38.00264550      32.09040892
     103.900      24.84821076      26.53196104      38.00264550      32.26671967
     103.920      24.76714042      26.47524133      38.02910053      32.39847166
     103.940      24.68607007      26.41852162      38.02164052      32.52451809
     103.960      24.60499973      26.36180192      37.97619048      32.54142712
     103.980      24.52392939      26.30508221      37.97619048      32.54142712
     104.000      24.44285905      26.24836250      37.97619048      32.44659812
     104.020      24.36178871      26.19164280      37.97619048      32.32160974
     104.040      24.28071837      26.13492309      37.97619048      32.45976541
     104.060      24.19964803      26.07820338      37.97619048      32.64417865
     104.080      24.11857769      26.02148368      38.05269965      32.78958641
     104.100      24.03750735      25.96476397      38.06256382      33.11387193
     104.120      23.95643701      25.90804426      38.08201058      34.14323827
     104.140      23.87536667      25.85132456      38.13492063      34.55360162
     104.160      23.79429633      25.79460485      38.16137566      34.55360162
     104.180      23.71322599      25.81266677      38.20784059      34.67196483
     104.200      23.63215565      25.88167139      38.24415978      34.67196483
     104.220      23.55108531      25.95067601      38.26719577      34.13708773
     104.240      23.47001497      25.95249117      38.26719577      33.60669598
     104.260      23.38894463      25.91743237      38.26719577      33.60669598
     104.280      23.30787429      25.88237357      38.26719577      33.40378762
     104.300      23.22680395      25.84731477      38.29348062      33.40378762
     104.320      23.14573361      25.81225597      38.29365079      33.40378762
     104.340      23.06466327      25.77719717      38.29365079      34.35950970
     104.360      22.98359293      25.74213837      38.29365079      34.27736741
     104.380      22.90252259      25.70707958      38.29365079      34.17492045
     104.400      22.82145225      25.67202078      38.29365079      34.09705783
     104.420      22.74038191      25.63696198      38.26719577      34.18030167
     104.440      22.65931157      25.60190318      38.26719577      34.30377714
     104.460      22.57824123      25.56684438      38.39947090      34.50247702
     104.480      22.49717089      25.53178558      38.05555556      34.69478114
     104.500      22.41610055      25.49672678      38.05555556      34.75181302
     104.520      22.33503021      25.46166798      38.05555556      35.15506470
     104.540      22.25395987      25.42660918      38.05555556      35.91803570
     104.560      22.17288953      25.39155039      38.05555556      36.56577612
     104.580      22.09181919      25.35649159      38.05555556      36.56577612
     104.600      22.01074885      25.32143279      38.05555556      35.95006002
     104.620      21.92967851      25.28637399      38.05555556      35.82726883
     104.640      21.84860817      25.25131519      38.05555556      35.60763339
