~Version Information
 VERS.                2.0:  CWLS LOG ASCII STANDARD -VERSION 2.0
 WRAP.                 NO:  ONE LINE PER DEPTH STEP
~WELL INFORMATION BLOCK
#MNEM.UNIT       DATA		            DESCRIPTION OF MNEMONIC
#---------    -------------            ------------------------
 STRT.M      .000                        :START DEPTH
 STOP.M    82.700                        :STOP DEPTH
 STEP.M      .050                        :STEP
 NULL.    -999999.0                      :NULL VALUE
 COMP.       WML                         :COMPANY
 WELL.                          B62B0902 :WELL
 FLD .    Voerendaal                     :FIELD
 CNTY.                                   :COUNTY
 STAT.                                   :STATE
 SRVC.                                   :SERVICE COMPANY
 DATE.     04-FEB-92                     :LOG DATE
 UWI .                                   :UNIQUE WELL ID
 LIC .                                   :LICENSE NUMBER
~Curve Information Block
#MNEM.UNIT      API CODE     Curve Description
#---------    -------------  ------------------------
DEPTH    .M         00 000 00 00          :  1  DEPTH
SN40     .OHM.M     00 000 00 00          :  2  SN40
SP       .V         00 000 00 00          :  3  SP
CAL      .MM        00 000 00 00          :  4  CAL
LN160    .OHM.M     00 000 00 00          :  5  LN160
GAMMA    .CPS       00 000 00 00          :  6  GAMMA
~Parameter Information Block
#MNEM.UNIT   Information     Description
#---------- ---------------  ------------------------
 FILE.                         :File Type
 FIID.                         :File Type Identifier
 VERS.                         :System Version
 SER .                         :System Serial Number
 TRUK.                         :Truck Calibration Number
 TOOL.                         :Tool Serial Number
 TIME.                         :Time    HrHrMinMin
 LAT .                         :Latitude
 LON .                         :Longitude
 LMF .            MV           :LOG Measured FROM
 DMF .                         :Driller Measured From
 PD  .                         :Permanent Data
 PDEV.                         :Elevation Permanent Data
 EKB .M                        :Elevation Kelly Bushing
 ELEV.DF                       :Elevation DF
 EGL .M                        :Elevation Ground Level
 DRDP.                         :Drillers Depth
 CASD.                         :Casing Diameter
 CASB.                         :Casing Bottom
 CASX.                         :Casing Type
 CAST.                         :Casing Thickness
 TNOC.                         :Time Circulation Stopped
 LOGU.                         :Logging Unit
 RECB.            Bergsma      :Recorded By
 OSR1.                         :Other Services
 OSR2.                         :Other Services
 OSR3.                         :Other Services
 BS  .MM                       :Bit Size
 MST .                         :Mean Surface Temperature
 TGRD.                         :Temperature Gradiant
 MAGN.                         :Magnetic Declination
 MDEN.                         :Density Matrix
 MATR.                         :Neutron Matrix
 DTMT.                         :Delta T Matrix
 DTFL.                         :Delta T Fluid
 MUDS.                         :Mud Sample Source
 MRS .                         :Mud Resistivity
 MTP .                         :Mud Temperature
 MFRS.                         :Resistivity Mud Filtrate
 MFTP.                         :Temperature Mud Filtrate
 MCRS.                         :Resistivity Mud Cake
 MCTP.                         :Temperature Mud Cake
 FTYP.                         :Fluid Type
 FD  .K/M3                     :Fluid Density
 DFV .S                        :Fluid Viscosity
 FPH .                         :Fuild PH
 ELCO.                         :Electron Cutoff
~Other Information
#MNEM.UNIT  Information      Description
#---------- ---------------  ------------------------
# --------------------------
## COMMENTS    Top_Depth   Bot_Depth  LithCode  Lat    Long   Elev_Gl
##    Type of LithCode   Lithologie - 1970
##                    .00       10.80       13.00     
##                  10.85       11.80       23.00     
##                  11.85       15.70        6.00     
##                  15.75       16.00       23.00     
##                  16.05       28.00        7.00     
##                  28.05       46.00        9.00     
##                  46.05       46.05         .00     
##    last_layer   46.05
# --------------------------
~A DEPTH    SN40     SP       CAL      LN160    GAMMA    
# ...
    38.450    25.050      .062   259.500    28.720    17.930
    38.500    24.900      .062   259.500    28.670    17.590
    38.550    24.780      .062   260.700    28.620    17.420
    38.600    24.610      .061   260.500    28.570    17.470
    38.650    24.420      .061   260.600    28.530    18.090
    38.700    24.320      .061   260.700    28.480    18.210
    38.750    24.220      .060   260.800    28.440    18.240
    38.800    24.130      .060   261.000    28.400    18.170
    38.850    24.060      .059   261.900    28.360    17.860
    38.900    23.980      .059   262.100    28.320    17.730
    38.950    23.920      .059   261.500    28.280    17.620
    39.000    23.870      .059   260.900    28.230    16.970
    39.050    23.820      .059   261.200    28.190    16.480
    39.100    23.750      .059   259.200    28.140    16.300
    39.150    23.670      .058   257.800    28.110    16.090
    39.200    23.620      .058   257.300    28.090    16.070
    39.250    23.490      .058   257.700    28.070    16.220
    39.300    23.370      .058   257.300    28.050    16.420
    39.350    23.270      .058   256.700    28.040    16.510
    39.400    23.180      .058   256.300    28.040    16.530
    39.450    23.100      .059   260.300    28.040    16.530
    39.500    23.050      .059   260.300    28.040    16.560
    39.550    23.010      .059   260.400    28.020    16.650
    39.600    22.970      .059   261.100    28.010    16.820
    39.650    22.930      .059   260.100    27.990    16.890
    39.700    22.870      .059   259.000    27.970    16.960
    39.750    22.810      .060   258.200    27.940    17.010
    39.800    22.750      .060   257.900    27.900    16.910
    39.850    22.700      .060   257.800    27.870    16.470
    39.900    22.680      .060   257.500    27.830    16.140
    39.950    22.680      .059   257.300    27.800    16.070
    40.000    22.690      .059   258.100    27.760    15.950
    40.050    22.720      .059   259.700    27.730    15.910
    40.100    22.770      .059   259.500    27.690    16.000
    40.150    22.830      .059   259.600    27.660    16.100
    40.200    22.900      .059   260.800    27.620    16.100
    40.250    22.990      .059   260.600    27.590    16.090
    40.300    23.090      .059   262.400    27.550    16.080
    40.350    23.180      .059   260.900    27.520    16.000
    40.400    23.260      .059   259.200    27.480    15.820
    40.450    23.340      .059   257.500    27.460    15.250
    40.500    23.410      .059   257.600    27.430    14.940
    40.550    23.440      .059   260.200    27.410    14.920
    40.600    23.460      .059   260.300    27.390    15.090
    40.650    23.480      .059   259.100    27.360    15.250
    40.700    23.540      .059   258.200    27.340    15.420
    40.750    23.620      .058   257.600    27.320    15.630
    40.800    23.700      .058   256.600    27.290    15.610
    40.850    23.810      .058   255.700    27.280    15.370
    40.900    23.920      .058   259.700    27.260    15.150
    40.950    24.020      .058   261.000    27.240    15.020
    41.000    24.110      .058   261.200    27.230    15.020
    41.050    24.180      .058   260.200    27.210    15.000
    41.100    24.240      .058   259.300    27.180    14.900
    41.150    24.270      .058   259.600    27.160    14.720
    41.200    24.300      .058   260.000    27.130    14.620
    41.250    24.340      .057   260.000    27.110    14.600
    41.300    24.370      .057   259.000    27.090    14.680
    41.350    24.410      .057   257.600    27.070    15.300
    41.400    24.460      .057   257.000    27.040    15.640
    41.450    24.520      .057   257.300    27.020    15.780
    41.500    24.540      .057   257.800    27.000    15.830
    41.550    24.560      .057   257.100    26.990    15.880
    41.600    24.530      .057   258.200    26.970    15.890
    41.650    24.530      .056   258.600    26.950    15.860
    41.700    24.570      .056   258.500    26.950    15.680
    41.750    24.610      .056   257.500    26.960    15.300
    41.800    24.670      .056   259.600    26.970    15.060
    41.850    24.710      .056   261.100    26.970    15.000
    41.900    24.740      .055   261.300    26.970    14.800
    41.950    24.740      .055   256.900    26.970    14.290
    42.000    24.710      .055   256.900    26.960    13.850
    42.050    24.660      .054   255.800    26.960    13.550
    42.100    24.610      .053   254.600    26.950    13.330
    42.150    24.500      .053   253.900    26.950    13.300
    42.200    24.390      .053   253.000    26.940    13.430
    42.250    24.280      .053   252.900    26.940    13.570
    42.300    24.150      .053   252.200    26.930    13.650
    42.350    24.000      .054   252.000    26.940    13.780
    42.400    23.850      .055   256.900    26.940    13.890
    42.450    23.680      .055   256.700    26.940    14.100
    42.500    23.530      .056   256.400    26.950    14.310
    42.550    23.350      .056   258.700    26.960    14.450
    42.600    23.180      .056   260.200    26.960    14.650
    42.650    23.020      .055   259.000    26.970    14.900
    42.700    22.880      .055   257.200    26.980    15.260
    42.750    22.730      .055   258.400    27.000    15.750
    42.800    22.610      .055   260.000    27.020    15.970
    42.850    22.470      .055   261.700    27.040    16.230
    42.900    22.320      .055   262.200    27.060    16.360
    42.950    22.180      .055   261.000    27.080    16.310
    43.000    22.040      .055   260.700    27.100    15.460
    43.050    21.890      .055   262.300    27.120    15.420
    43.100    21.770      .055   262.200    27.140    15.540
    43.150    21.660      .055   257.700    27.160    15.720
    43.200    21.570      .055   256.600    27.230    15.750
    43.250    21.480      .055   258.300    27.330    15.300
    43.300    21.450      .055   258.500    27.450    14.920
    43.350    21.410      .055   258.200    27.550    14.710
    43.400    21.350      .055   258.600    27.630    14.700
    43.450    21.270      .054   258.600    27.680    14.920
    43.500    21.220      .054   259.200    27.820    15.120
    43.550    21.190      .054   258.400    27.960    14.900
    43.600    21.190      .054   257.600    28.090    14.420
    43.650    21.200      .054   257.700    28.140    14.240
    43.700    21.240      .054   258.400    28.190    14.190
    43.750    21.270      .054   260.700    28.270    14.160
    43.800    21.290      .054   262.900    28.340    14.080
    43.850    21.330      .054   263.100    28.410    13.930
    43.900    21.360      .054   263.800    28.500    13.870
    43.950    21.380      .054   265.000    28.600    13.860
    44.000    21.400      .054   264.800    28.700    13.870
    44.050    21.410      .054   264.400    28.790    13.960
    44.100    21.410      .054   262.700    28.920    14.210
    44.150    21.420      .054   258.800    29.050    14.420
    44.200    21.410      .055   257.800    29.200    14.570
    44.250    21.370      .056   259.300    29.360    14.590
    44.300    21.300      .056   257.800    29.530    14.570
    44.350    21.210      .057   257.000    29.700    14.440
    44.400    21.180      .057   256.700    29.910    14.380
    44.450    21.140      .056   255.500    30.120    14.420
    44.500    21.150      .056   254.700    30.360    14.610
    44.550    21.170      .055   252.000    30.620    14.790
    44.600    21.200      .054   249.200    30.890    14.820
    44.650    21.250      .054   247.600    31.160    14.830
    44.700    21.320      .054   246.900    31.590    14.760
    44.750    21.390      .054   245.800    32.120    14.720
    44.800    21.450      .053   243.900    32.450    14.770
    44.850    21.570      .053   244.400    32.660    14.960
    44.900    21.730      .053   246.900    32.810    15.020
    44.950    21.920      .052   255.200    32.960    14.920
    45.000    22.140      .052   259.200    33.090    14.460
