~Version Information
 VERS.                2.0:  CWLS LOG ASCII STANDARD -VERSION 2.0
 WRAP.                 NO:  ONE LINE PER DEPTH STEP
~WELL INFORMATION BLOCK
#MNEM.UNIT       DATA		            DESCRIPTION OF MNEMONIC
#---------    -------------            ------------------------
 STRT.M      .150                        :START DEPTH
 STOP.M   #######                        :STOP DEPTH
 STEP.M      .050                        :STEP
 NULL.    -999999.0                      :NULL VALUE
 COMP.       SOFTDR                      :COMPANY
 WELL.                          B62B0927 :WELL
 FLD .    Heerlen                        :FIELD
 CNTY.                                   :COUNTY
 STAT.                                   :STATE
 SRVC.                                   :SERVICE COMPANY
 DATE.     29-MAY-97                     :LOG DATE
 UWI .                                   :UNIQUE WELL ID
 LIC .                                   :LICENSE NUMBER
~Curve Information Block
#MNEM.UNIT      API CODE     Curve Description
#---------    -------------  ------------------------
DEPTH    .M         00 000 00 00          :  1  DEPTH
GAM(NAT) .CPS       00 000 00 00          :  2  GAM(NAT)
SP       .V         00 000 00 00          :  3  SP
RES(16N) .OHM.M     00 000 00 00          :  4  RES(16N)
RES(64N) .OHM.M     00 000 00 00          :  5  RES(64N)
RES      .OHM       00 000 00 00          :  6  RES
~Parameter Information Block
#MNEM.UNIT   Information     Description
#---------- ---------------  ------------------------
 FILE.                         :File Type
 FIID.                         :File Type Identifier
 VERS.                         :System Version
 SER .                         :System Serial Number
 TRUK.                         :Truck Calibration Number
 TOOL.                         :Tool Serial Number
 TIME.                         :Time    HrHrMinMin
 LAT .                         :Latitude
 LON .                         :Longitude
 LMF .            MV           :LOG Measured FROM
 DMF .                         :Driller Measured From
 PD  .                         :Permanent Data
 PDEV.                         :Elevation Permanent Data
 EKB .M                        :Elevation Kelly Bushing
 ELEV.DF                       :Elevation DF
 EGL .M                        :Elevation Ground Level
 DRDP.                         :Drillers Depth
 CASD.                         :Casing Diameter
 CASB.                         :Casing Bottom
 CASX.                         :Casing Type
 CAST.                         :Casing Thickness
 TNOC.                         :Time Circulation Stopped
 LOGU.                         :Logging Unit
 RECB.            Bergsma      :Recorded By
 OSR1.                         :Other Services
 OSR2.                         :Other Services
 OSR3.                         :Other Services
 BS  .MM                       :Bit Size
 MST .                         :Mean Surface Temperature
 TGRD.                         :Temperature Gradiant
 MAGN.                         :Magnetic Declination
 MDEN.                         :Density Matrix
 MATR.                         :Neutron Matrix
 DTMT.                         :Delta T Matrix
 DTFL.                         :Delta T Fluid
 MUDS.                         :Mud Sample Source
 MRS .                         :Mud Resistivity
 MTP .                         :Mud Temperature
 MFRS.                         :Resistivity Mud Filtrate
 MFTP.                         :Temperature Mud Filtrate
 MCRS.                         :Resistivity Mud Cake
 MCTP.                         :Temperature Mud Cake
 FTYP.                         :Fluid Type
 FD  .K/M3                     :Fluid Density
 DFV .S                        :Fluid Viscosity
 FPH .                         :Fuild PH
 ELCO.                         :Electron Cutoff
~Other Information
#MNEM.UNIT  Information      Description
#---------- ---------------  ------------------------
# --------------------------
## COMMENTS    Top_Depth   Bot_Depth  LithCode  Lat    Long   Elev_Gl
##    Type of LithCode   Lithologie - 1970
##                    .15        3.55       62.00     
##                   3.55        5.50        2.00     
##                   5.50        8.70       26.00     
##                   8.70       15.10       63.00     
##                  15.10       19.15       26.00     
##                  19.15       20.70       43.00     
##                  20.70       22.60       26.00     
##                  22.60       30.05       63.00     
##                  30.05       30.85       26.00     
##                  30.85       52.70       63.00     
##                  52.70       54.00       26.00     
##                  54.00       58.15       63.00     
##                  58.15       59.85       26.00     
##                  59.85       66.75       63.00     
##                  66.75       70.35       26.00     
##                  70.35       72.25       63.00     
##                  72.25       73.10       26.00     
##                  73.10       74.40       63.00     
##                  74.40       75.15       26.00     
##                  75.15       75.95       63.00     
##                  75.95       76.75       26.00     
##                  76.75       77.40       63.00     
##                  77.40       78.20       26.00     
##                  78.20       79.70       63.00     
##                  79.70       80.75       26.00     
##                  80.75       81.70       58.00     
##                  81.70       83.15       26.00     
##                  83.15       84.95       58.00     
##                  84.95       87.35       22.00     
##                  87.35       88.60       23.00     
##                  88.60       89.30       58.00     
##                  89.30       91.10       23.00     
##                  91.10       92.35       58.00     
##                  92.35       94.30       23.00     
##                  94.30       99.05       26.00     
##                  99.05      100.50       23.00     
##                 100.50      103.10       26.00     
##                 103.10      105.80       40.00     
##                 105.80      107.05       43.00     
##                 107.05      110.35       57.00     
##                 110.35      112.35       15.00     
##                 112.35      116.10       63.00     
##                 116.10      120.45       32.00     
##                 120.45      121.95       63.00     
##                 121.95      122.70       12.00     
##                 122.70      124.70       15.00     
##                 124.70      127.95       19.00     
##                 127.95      129.55       58.00     
##                 129.55      130.60       38.00     
##                 130.60      132.70       57.00     
##                 132.70      133.60       59.00     
##                 133.60      135.20       57.00     
##                 135.20      135.85       59.00     
##                 135.85      136.50       57.00     
##                 136.50      137.30       58.00     
##    last_layer   137.3
##    Type of LithCode   Lithologie - 1970
##                   1.90        2.15       87.00     
##                   2.15        3.90       84.00     
##                   3.90        4.25       85.00     
##                   4.25       21.95         .00     
##                  21.95       22.35       87.00     
##                  22.35       24.95       84.00     
##                  24.95       25.30       85.00     
##                  25.30       37.95         .00     
##                  37.95       38.25       87.00     
##                  38.25       40.95       84.00     
##                  40.95       41.20       85.00     
##                  41.20       42.00         .00     
##                  42.00       44.95       74.00     
##                  44.95       46.95         .00     
##                  46.95       47.25       87.00     
##                  47.25       50.90       84.00     
##                  50.90       51.20       85.00     
##                  51.20       59.95         .00     
##                  59.95       60.35       87.00     
##                  60.35       62.95       84.00     
##                  62.95       63.25       85.00     
##                  63.25       76.90         .00     
##                  76.90       77.15       87.00     
##                  77.15       80.00       84.00     
##                  80.00       80.35       85.00     
##                  80.35      106.95         .00     
##                 106.95      107.25       87.00     
##                 107.25      115.45       84.00     
##                 115.45      115.80       85.00     
##                 115.80      116.40         .00     
##                 116.40      117.40       77.00     
##                 117.40      119.40       80.00     
##                 119.40      120.45       77.00     
##                 120.45      121.90         .00     
##                 121.90      122.35       87.00     
##                 122.35      127.90       84.00     
##                 127.90      128.30       85.00     
##                 128.30      130.95         .00     
##                 130.95      131.25       87.00     
##                 131.25      133.95       84.00     
##                 133.95      134.15       85.00     
##    last_layer   134.15
# --------------------------
~A DEPTH    GAM(NAT) SP       RES(16N) RES(64N) RES      
      .150 -999999.0  -999999.0  -999999.0  -999999.0  -999999.0 
      .200 -999999.0  -999999.0  -999999.0  -999999.0  -999999.0 
      .250 -999999.0  -999999.0  -999999.0  -999999.0  -999999.0 
      .300 -999999.0  -999999.0  -999999.0  -999999.0  -999999.0 
      .350 -999999.0  -999999.0  -999999.0  -999999.0  -999999.0 
      .400 -999999.0      -.172 -999999.0  -999999.0  -999999.0 
      .450 -999999.0      -.173 -999999.0  -999999.0  -999999.0 
      .500 -999999.0      -.173 -999999.0  -999999.0  -999999.0 
      .550 -999999.0      -.173 -999999.0  -999999.0  -999999.0 
      .600 -999999.0      -.171 -999999.0  -999999.0  -999999.0 
      .650 -999999.0      -.168 -999999.0  -999999.0  -999999.0 
      .700 -999999.0      -.164 -999999.0  -999999.0  -999999.0 
      .750 -999999.0      -.159 -999999.0  -999999.0  -999999.0 
      .800 -999999.0      -.153 -999999.0  -999999.0  -999999.0 
      .850 -999999.0      -.146 -999999.0  -999999.0  -999999.0 
      .900 -999999.0      -.137 -999999.0  -999999.0  -999999.0 
      .950 -999999.0      -.126 -999999.0  -999999.0  -999999.0 
     1.000 -999999.0      -.111 -999999.0  -999999.0  -999999.0 
     1.050 -999999.0      -.091 -999999.0  -999999.0  -999999.0 
     1.100 -999999.0      -.069 -999999.0  -999999.0  -999999.0 
     1.150 -999999.0      -.047 -999999.0  -999999.0  -999999.0 
     1.200 -999999.0      -.026 -999999.0  -999999.0  -999999.0 
     1.250 -999999.0      -.011 -999999.0      6.500 -999999.0 
     1.300 -999999.0      -.002 -999999.0      6.200 -999999.0 
     1.350 -999999.0       .005 -999999.0      5.700 -999999.0 
     1.400   117.000      .010 -999999.0      3.700 -999999.0 
     1.450    95.300      .014 -999999.0      1.200 -999999.0 
     1.500    72.900      .016 -999999.0     -1.100 -999999.0 
     1.550    58.900      .018 -999999.0     -2.000 -999999.0 
     1.600    68.900      .020 -999999.0     -2.500 -999999.0 
     1.650    85.200      .021 -999999.0     -3.300 -999999.0 
     1.700    58.500      .022 -999999.0     -5.300 -999999.0 
     1.750    59.600      .023 -999999.0     -5.100 -999999.0 
     1.800    44.700      .024 -999999.0     -5.700 -999999.0 
     1.850    67.700      .024    34.500    -8.300 -999999.0 
     1.900    76.800      .024    34.500   -11.100 -999999.0 
     1.950    63.800      .025    34.700   -12.000 -999999.0 
     2.000    73.600      .025    35.000   -13.300 -999999.0 
     2.050    65.000      .025    34.700   -15.200 -999999.0 
     2.100    75.100      .025    34.600   -15.800 -999999.0 
     2.150    79.100      .025    34.400   -15.200   248.300
     2.200    89.700      .026    34.900   -14.600   249.200
     2.250   100.900      .026    34.500   -14.200   249.800
     2.300    73.500      .026    35.000   -12.600   250.300
     2.350    86.300      .026    34.700   -11.300   250.800
     2.400    67.800      .026    34.600   -11.700   251.200
     2.450    75.400      .026    35.100   -13.100   251.100
     2.500   107.700      .026    34.800   -14.100   250.500
     2.550    82.300      .026    35.000   -14.800   249.600
     2.600    90.500      .026    34.800   -15.600   249.100
     2.650   115.400      .026    35.300   -16.400   248.500
     2.700    96.800      .026    35.500   -16.100   248.500
     2.750    57.700      .026    35.700   -15.700   248.400
     2.800    49.900      .026    35.200   -16.200   248.900
     2.850    98.900      .026    35.500   -17.000   249.900
     2.900    85.300      .027    35.900   -17.300   250.300
     2.950    69.500      .027    35.100   -17.600   250.500
     3.000    93.400      .027    35.600   -17.700   250.500
     3.050    74.800      .027    35.400   -18.200   250.500
     3.100    89.800      .027    36.100   -19.200   250.300
     3.150    82.100      .027    35.500   -20.100   249.900
     3.200    81.300      .027    35.200   -20.100   248.900
     3.250    91.400      .027    35.100   -20.500   247.400
     3.300    87.500      .027    35.500   -20.800   246.700
     3.350    81.300      .027    35.600   -20.600   246.400
     3.400    72.800      .027    35.500   -20.900   246.100
     3.450    77.000      .027    35.300   -21.100   245.500
     3.500    71.400      .027    35.400   -20.400   245.800
     3.550    67.600      .027    35.500   -19.600   246.700
     3.600    69.200      .027    35.300   -18.900   247.600
     3.650    76.600      .027    35.100   -17.600   248.100
     3.700    56.000      .027    34.700   -16.400   248.400
     3.750    54.700      .027    34.000   -16.400   248.900
     3.800    47.200      .027    33.200   -17.400   249.800
     3.850    72.700      .028    32.300   -18.100   250.400
     3.900    80.600      .028    31.700   -18.100   250.300
     3.950    75.600      .028    31.700   -17.500   250.300
     4.000    45.000      .029    31.700   -17.200   250.300
     4.050    61.700      .029    32.100   -17.000   249.900
     4.100    56.600      .030    32.800   -17.800   248.800
     4.150    42.500      .031    33.100   -18.400   247.100
     4.200    94.900      .031    33.200   -17.900   244.900
     4.250    81.800      .031    33.600   -18.200   242.900
     4.300    48.000      .031    33.700   -18.700   242.300
     4.350    93.000      .031    33.400   -19.600   242.800
     4.400    55.100      .031    33.500   -20.500   242.800
     4.450    92.200      .031    33.400   -22.000   242.400
     4.500    62.700      .031    33.400   -21.400   242.500
     4.550    60.000      .031    33.500   -20.000   242.700
     4.600    74.300      .031    33.300   -19.200   242.400
     4.650    73.000      .031    32.500   -19.200   242.100
     4.700    74.500      .031    32.200   -18.800   242.400
     4.750    90.500      .031    32.000   -18.500   243.200
     4.800    54.400      .031    32.200   -18.900   244.600
     4.850    75.100      .031    32.400   -18.800   244.700
     4.900    77.800      .031    32.800   -18.700   240.600
     4.950    51.800      .031    33.400   -19.200   237.600
     5.000    76.100      .031    33.000   -19.300   242.000
     5.050    68.300      .031    32.300   -19.100   245.300
     5.100    44.400      .031    31.200   -18.900   248.800
     5.150    56.400      .031    31.200   -19.400   251.900
     5.200    69.200      .031    31.200   -19.100   253.300
     5.250    64.000      .031    31.000   -18.700   252.600
     5.300    61.900      .031    31.500   -17.900   250.000
     5.350    37.400      .032    31.900   -18.200   243.700
     5.400    39.000      .032    31.700   -18.700   235.300
     5.450    65.800      .032    31.700   -19.100   230.400
     5.500    73.500      .032    31.400   -18.000   225.800
     5.550    60.300      .032    30.700   -16.600   222.300
     5.600    57.800      .032    30.100   -15.800   219.600
     5.650    51.300      .032    29.600   -16.300   219.900
     5.700    48.900      .032    28.900   -17.200   224.700
     5.750    38.300      .032    28.700   -16.800   228.200
     5.800    46.100      .032    28.600   -16.200   229.100
     5.850    74.600      .033    28.400   -15.900   227.800
     5.900    70.300      .033    28.500   -15.900   224.600
     5.950    57.000      .033    28.900   -15.300   221.500
     6.000    64.400      .033    28.800   -14.800   219.000
     6.050    50.300      .033    29.000   -14.900   216.900
     6.100    77.800      .034    29.100   -15.500   216.000
     6.150    78.900      .033    29.100   -16.200   214.600
     6.200    44.400      .033    29.300   -16.800   213.100
     6.250    48.500      .033    29.500   -16.500   213.300
     6.300    74.100      .033    29.200   -15.600   214.700
     6.350    56.600      .033    29.300   -15.200   214.600
     6.400    49.400      .033    29.700   -15.400   213.300
     6.450    60.400      .032    29.900   -15.600   213.100
     6.500    33.200      .032    30.200   -16.300   215.800
     6.550    48.400      .031    30.200   -16.700   218.700
     6.600    67.200      .030    30.300   -16.200   220.500
