~Version Information
 VERS.                2.0:  CWLS LOG ASCII STANDARD -VERSION 2.0
 WRAP.                 NO:  ONE LINE PER DEPTH STEP
~WELL INFORMATION BLOCK
#MNEM.UNIT       DATA		            DESCRIPTION OF MNEMONIC
#---------    -------------            ------------------------
 STRT.M      .000                        :START DEPTH
 STOP.M    79.950                        :STOP DEPTH
 STEP.M      .050                        :STEP
 NULL.    -999999.0                      :NULL VALUE
 COMP.       WML                         :COMPANY
 WELL.                          B62B0898 :WELL
 FLD .    Voerendaal                     :FIELD
 CNTY.                                   :COUNTY
 STAT.                                   :STATE
 SRVC.                                   :SERVICE COMPANY
 DATE.     17-NOV-90                     :LOG DATE
 UWI .                                   :UNIQUE WELL ID
 LIC .                                   :LICENSE NUMBER
~Curve Information Block
#MNEM.UNIT      API CODE     Curve Description
#---------    -------------  ------------------------
DEPTH    .M         00 000 00 00          :  1  DEPTH
UFLOW    .M/S       00 000 00 00          :  2  UFLOW
TEMP     .DEGC      00 000 00 00          :  3  TEMP
SN40     .OHM.M     00 000 00 00          :  4  SN40
SP       .V         00 000 00 00          :  5  SP
CAL      .MM        00 000 00 00          :  6  CAL
TEMP     .DEGC      00 000 00 00          :  7  TEMP
GAMMA    .CPS       00 000 00 00          :  8  GAMMA
LN160    .OHM.M     00 000 00 00          :  9  LN160
~Parameter Information Block
#MNEM.UNIT   Information     Description
#---------- ---------------  ------------------------
 FILE.                         :File Type
 FIID.                         :File Type Identifier
 VERS.                         :System Version
 SER .                         :System Serial Number
 TRUK.                         :Truck Calibration Number
 TOOL.                         :Tool Serial Number
 TIME.                         :Time    HrHrMinMin
 LAT .                         :Latitude
 LON .                         :Longitude
 LMF .            MV           :LOG Measured FROM
 DMF .                         :Driller Measured From
 PD  .                         :Permanent Data
 PDEV.                         :Elevation Permanent Data
 EKB .M                        :Elevation Kelly Bushing
 ELEV.DF                       :Elevation DF
 EGL .M                        :Elevation Ground Level
 DRDP.                         :Drillers Depth
 CASD.                         :Casing Diameter
 CASB.                         :Casing Bottom
 CASX.                         :Casing Type
 CAST.                         :Casing Thickness
 TNOC.                         :Time Circulation Stopped
 LOGU.                         :Logging Unit
 RECB.            Veenendaal   :Recorded By
 OSR1.                         :Other Services
 OSR2.                         :Other Services
 OSR3.                         :Other Services
 BS  .MM                       :Bit Size
 MST .                         :Mean Surface Temperature
 TGRD.                         :Temperature Gradiant
 MAGN.                         :Magnetic Declination
 MDEN.                         :Density Matrix
 MATR.                         :Neutron Matrix
 DTMT.                         :Delta T Matrix
 DTFL.                         :Delta T Fluid
 MUDS.                         :Mud Sample Source
 MRS .                         :Mud Resistivity
 MTP .                         :Mud Temperature
 MFRS.                         :Resistivity Mud Filtrate
 MFTP.                         :Temperature Mud Filtrate
 MCRS.                         :Resistivity Mud Cake
 MCTP.                         :Temperature Mud Cake
 FTYP.                         :Fluid Type
 FD  .K/M3                     :Fluid Density
 DFV .S                        :Fluid Viscosity
 FPH .                         :Fuild PH
 ELCO.                         :Electron Cutoff
~Other Information
#MNEM.UNIT  Information      Description
#---------- ---------------  ------------------------
# --------------------------
## COMMENTS    Top_Depth   Bot_Depth  LithCode  Lat    Long   Elev_Gl
##    Type of LithCode   Lithologie - 1970
##                    .00         .80         .00     
##                    .85        2.25       19.00     
##                   2.30        6.15       12.00     
##                   6.20       28.50        7.00     
##                  28.55       40.50        9.00     
##                  40.55       74.60         .00     
##                  74.65       78.00       10.00     
##                  78.05       78.05         .00     
##    last_layer   78.05
# --------------------------
~A DEPTH    UFLOW    TEMP     SN40     SP       CAL      TEMP     GAMMA    LN160    
# ...
    21.250    27.590    10.480 -999999.0  -999999.0    361.200    10.590     8.770 -999999.0 
    21.300    26.590    10.480 -999999.0  -999999.0    361.100    10.600     8.600 -999999.0 
    21.350    26.400    10.480 -999999.0  -999999.0    361.200    10.600     8.390 -999999.0 
    21.400    26.560    10.480 -999999.0  -999999.0    361.400    10.600     8.280 -999999.0 
    21.450    26.700    10.480 -999999.0  -999999.0    361.800    10.600     8.130 -999999.0 
    21.500    26.570    10.480 -999999.0  -999999.0    363.700    10.600     8.180 -999999.0 
    21.550    26.270    10.480 -999999.0  -999999.0    366.500    10.600     8.330 -999999.0 
    21.600    26.310    10.470 -999999.0  -999999.0    366.300    10.610     8.340 -999999.0 
    21.650    26.380    10.470 -999999.0  -999999.0    364.100    10.610     8.350 -999999.0 
    21.700    26.270    10.460 -999999.0  -999999.0    361.200    10.610     8.380 -999999.0 
    21.750    26.060    10.450 -999999.0  -999999.0    361.000    10.610     8.440 -999999.0 
    21.800    25.710    10.410 -999999.0  -999999.0    361.100    10.610     8.520 -999999.0 
    21.850    24.880    10.380 -999999.0  -999999.0    361.300    10.610     8.520 -999999.0 
    21.900    24.650    10.370 -999999.0  -999999.0    361.400    10.620     8.480 -999999.0 
    21.950    24.580    10.360 -999999.0  -999999.0    361.400    10.620     8.440 -999999.0 
    22.000    25.080    10.350 -999999.0  -999999.0    361.500    10.620     8.380 -999999.0 
    22.050    25.640    10.340 -999999.0  -999999.0    361.500    10.620     8.280 -999999.0 
    22.100    25.580    10.320 -999999.0  -999999.0    361.600    10.620     8.150 -999999.0 
    22.150    25.390    10.320 -999999.0  -999999.0    361.800    10.630     8.110 -999999.0 
    22.200    25.560    10.310 -999999.0  -999999.0    362.000    10.630     8.110 -999999.0 
    22.250    25.730    10.310 -999999.0  -999999.0    361.900    10.630     8.090 -999999.0 
    22.300    25.560    10.310 -999999.0  -999999.0    361.800    10.630     8.100 -999999.0 
    22.350    24.770    10.310 -999999.0  -999999.0    361.700    10.630     8.110 -999999.0 
    22.400    23.690    10.300 -999999.0  -999999.0    361.600    10.640     8.070 -999999.0 
    22.450    22.790    10.300 -999999.0  -999999.0    361.700    10.640     8.050 -999999.0 
    22.500    22.660    10.300 -999999.0  -999999.0    361.700    10.640     8.070 -999999.0 
    22.550    23.170    10.300 -999999.0  -999999.0    361.700    10.640     8.080 -999999.0 
    22.600    23.850    10.300 -999999.0  -999999.0    361.500    10.640     8.070 -999999.0 
    22.650    24.250    10.300 -999999.0  -999999.0    361.400    10.650     8.060 -999999.0 
    22.700    24.230    10.300 -999999.0  -999999.0    361.300    10.650     8.030 -999999.0 
    22.750    24.790    10.300 -999999.0  -999999.0    361.300    10.650     7.980 -999999.0 
    22.800    25.660    10.300 -999999.0  -999999.0    361.300    10.650     7.970 -999999.0 
    22.850    25.830    10.300 -999999.0  -999999.0    361.400    10.660     8.030 -999999.0 
    22.900    25.330    10.300 -999999.0  -999999.0    361.300    10.660     8.080 -999999.0 
    22.950    24.520    10.300 -999999.0  -999999.0    361.200    10.660     8.100 -999999.0 
    23.000    23.870    10.300 -999999.0  -999999.0    361.100    10.660     8.160 -999999.0 
    23.050    24.080    10.300 -999999.0  -999999.0    361.000    10.660     8.260 -999999.0 
    23.100    25.850    10.300 -999999.0  -999999.0    361.000    10.670     8.310 -999999.0 
    23.150    26.230    10.310 -999999.0  -999999.0    360.900    10.670     8.260 -999999.0 
    23.200    26.410    10.310 -999999.0  -999999.0    361.000    10.670     8.250 -999999.0 
    23.250    26.700    10.310 -999999.0  -999999.0    361.000    10.670     8.220 -999999.0 
    23.300    27.470    10.310 -999999.0  -999999.0    361.100    10.670     8.140 -999999.0 
    23.350    27.950    10.310 -999999.0  -999999.0    361.100    10.670     8.000 -999999.0 
    23.400    28.030    10.310 -999999.0  -999999.0    361.200    10.670     7.840 -999999.0 
    23.450    27.620    10.310 -999999.0  -999999.0    361.300    10.680     7.540 -999999.0 
    23.500    26.970    10.320 -999999.0  -999999.0    361.200    10.680     7.410 -999999.0 
    23.550    25.830    10.320 -999999.0  -999999.0    361.200    10.680     7.250 -999999.0 
    23.600    26.050    10.320 -999999.0  -999999.0    361.200    10.680     7.200 -999999.0 
    23.650    26.890    10.320 -999999.0  -999999.0    361.200    10.680     7.240 -999999.0 
    23.700    27.240    10.320 -999999.0  -999999.0    361.300    10.680     7.260 -999999.0 
    23.750    27.120    10.320 -999999.0  -999999.0    361.300    10.680     7.370 -999999.0 
    23.800    26.810    10.320 -999999.0  -999999.0    361.400    10.680     7.480 -999999.0 
    23.850    27.090    10.320 -999999.0  -999999.0    361.300    10.690     7.500 -999999.0 
    23.900    27.720    10.320 -999999.0  -999999.0    361.100    10.690     7.560 -999999.0 
    23.950    28.180    10.310 -999999.0  -999999.0    361.000    10.690     7.690 -999999.0 
    24.000    28.350    10.310 -999999.0  -999999.0    360.900    10.690     7.860 -999999.0 
    24.050    28.030    10.310 -999999.0  -999999.0    360.800    10.690     7.980 -999999.0 
    24.100    27.590    10.310 -999999.0  -999999.0    360.600    10.690     7.980 -999999.0 
    24.150    27.800    10.310 -999999.0  -999999.0    360.400    10.690     7.880 -999999.0 
    24.200    28.300    10.310 -999999.0  -999999.0    360.300    10.690     7.760 -999999.0 
    24.250    28.420    10.310 -999999.0  -999999.0    360.200    10.690     7.660 -999999.0 
    24.300    28.130    10.310 -999999.0  -999999.0    360.200    10.690     7.610 -999999.0 
    24.350    27.740    10.300 -999999.0  -999999.0    360.200    10.690     7.570 -999999.0 
    24.400    27.650    10.300 -999999.0  -999999.0    360.200    10.690     7.560 -999999.0 
    24.450    27.940    10.300 -999999.0  -999999.0    360.100    10.690     7.590 -999999.0 
    24.500    28.300    10.300 -999999.0  -999999.0    360.300    10.690     7.640 -999999.0 
    24.550    28.260    10.310 -999999.0  -999999.0    360.400    10.690     7.830 -999999.0 
    24.600    27.920    10.310 -999999.0  -999999.0    360.500    10.690     8.070 -999999.0 
    24.650    27.400    10.310 -999999.0  -999999.0    360.600    10.690     8.400 -999999.0 
    24.700    27.440    10.310 -999999.0  -999999.0    360.600    10.700     8.650 -999999.0 
    24.750    27.670    10.310 -999999.0  -999999.0    360.600    10.700     8.650 -999999.0 
    24.800    28.340    10.320 -999999.0  -999999.0    360.500    10.700     8.510 -999999.0 
    24.850    28.340    10.320 -999999.0  -999999.0    360.600    10.700     8.490 -999999.0 
    24.900    28.250    10.320 -999999.0  -999999.0    360.600    10.700     8.380 -999999.0 
    24.950    28.640    10.320 -999999.0  -999999.0    360.600    10.700     8.130 -999999.0 
    25.000    28.790    10.320 -999999.0  -999999.0    360.600    10.700     8.070 -999999.0 
    25.050    28.590    10.320 -999999.0  -999999.0    360.600    10.700     8.060 -999999.0 
    25.100    28.110    10.320 -999999.0  -999999.0    360.600    10.700     8.050 -999999.0 
    25.150    27.590    10.320 -999999.0  -999999.0    360.700    10.700     8.060 -999999.0 
    25.200    27.510    10.320 -999999.0  -999999.0    360.900    10.700     8.060 -999999.0 
    25.250    28.070    10.320 -999999.0  -999999.0    361.100    10.700     8.080 -999999.0 
    25.300    28.570    10.320 -999999.0  -999999.0    361.200    10.700     8.190 -999999.0 
    25.350    28.760    10.320 -999999.0  -999999.0    361.300    10.710     8.310 -999999.0 
    25.400    28.730    10.320 -999999.0  -999999.0    361.100    10.710     8.420 -999999.0 
    25.450    28.940    10.320 -999999.0  -999999.0    361.000    10.710     8.460 -999999.0 
    25.500    29.300    10.320 -999999.0  -999999.0    360.900    10.710     8.390 -999999.0 
