~Version Information
 VERS.                2.0:  CWLS LOG ASCII STANDARD -VERSION 2.0
 WRAP.                 NO:  ONE LINE PER DEPTH STEP
~WELL INFORMATION BLOCK
#MNEM.UNIT       DATA		            DESCRIPTION OF MNEMONIC
#---------    -------------            ------------------------
 STRT.M      .000                        :START DEPTH
 STOP.M    68.050                        :STOP DEPTH
 STEP.M      .050                        :STEP
 NULL.    -999999.0                      :NULL VALUE
 COMP.       WML                         :COMPANY
 WELL.                          B62B0903 :WELL
 FLD .    Nuth                           :FIELD
 CNTY.                                   :COUNTY
 STAT.                                   :STATE
 SRVC.                                   :SERVICE COMPANY
 DATE.     13-APR-92                     :LOG DATE
 UWI .                                   :UNIQUE WELL ID
 LIC .                                   :LICENSE NUMBER
~Curve Information Block
#MNEM.UNIT      API CODE     Curve Description
#---------    -------------  ------------------------
DEPTH    .M         00 000 00 00          :  1  DEPTH
GAMMA    .CPS       00 000 00 00          :  2  GAMMA
SN40     .OHM.M     00 000 00 00          :  3  SN40
CAL      .MM        00 000 00 00          :  4  CAL
SP       .V         00 000 00 00          :  5  SP
LN160    .OHM.M     00 000 00 00          :  6  LN160
~Parameter Information Block
#MNEM.UNIT   Information     Description
#---------- ---------------  ------------------------
 FILE.                         :File Type
 FIID.                         :File Type Identifier
 VERS.                         :System Version
 SER .                         :System Serial Number
 TRUK.                         :Truck Calibration Number
 TOOL.                         :Tool Serial Number
 TIME.                         :Time    HrHrMinMin
 LAT .                         :Latitude
 LON .                         :Longitude
 LMF .            MV           :LOG Measured FROM
 DMF .                         :Driller Measured From
 PD  .                         :Permanent Data
 PDEV.                         :Elevation Permanent Data
 EKB .M                        :Elevation Kelly Bushing
 ELEV.DF                       :Elevation DF
 EGL .M                        :Elevation Ground Level
 DRDP.                         :Drillers Depth
 CASD.                         :Casing Diameter
 CASB.                         :Casing Bottom
 CASX.                         :Casing Type
 CAST.                         :Casing Thickness
 TNOC.                         :Time Circulation Stopped
 LOGU.                         :Logging Unit
 RECB.            Bergsma      :Recorded By
 OSR1.                         :Other Services
 OSR2.                         :Other Services
 OSR3.                         :Other Services
 BS  .MM                       :Bit Size
 MST .                         :Mean Surface Temperature
 TGRD.                         :Temperature Gradiant
 MAGN.                         :Magnetic Declination
 MDEN.                         :Density Matrix
 MATR.                         :Neutron Matrix
 DTMT.                         :Delta T Matrix
 DTFL.                         :Delta T Fluid
 MUDS.                         :Mud Sample Source
 MRS .                         :Mud Resistivity
 MTP .                         :Mud Temperature
 MFRS.                         :Resistivity Mud Filtrate
 MFTP.                         :Temperature Mud Filtrate
 MCRS.                         :Resistivity Mud Cake
 MCTP.                         :Temperature Mud Cake
 FTYP.                         :Fluid Type
 FD  .K/M3                     :Fluid Density
 DFV .S                        :Fluid Viscosity
 FPH .                         :Fuild PH
 ELCO.                         :Electron Cutoff
~Other Information
#MNEM.UNIT  Information      Description
#---------- ---------------  ------------------------
# --------------------------
## COMMENTS    Top_Depth   Bot_Depth  LithCode  Lat    Long   Elev_Gl
##    Type of LithCode   Lithologie - 1970
##                    .00        5.00         .00     
##                   5.05        6.80       10.00     
##                   6.85        8.00       11.00     
##                   8.05       11.00       10.00     
##                  11.05       15.00       12.00     
##                  15.05       17.00       10.00     
##                  17.05       18.40       12.00     
##                  18.45       23.00       10.00     
##                  23.05       25.40       12.00     
##                  25.45       28.00        6.00     
##                  28.05       28.35       19.00     
##                  28.40       30.00       11.00     
##                  30.05       31.00       12.00     
##                  31.05       34.00       11.00     
##                  34.05       38.90        6.00     
##                  38.95       40.80       23.00     
##                  40.85       47.45        6.00     
##                  47.50       52.00       21.00     
##                  52.05       60.00       22.00     
##                  60.05       68.00       23.00     
##                  68.05       68.05         .00     
##    last_layer   68.05
# --------------------------
~A DEPTH    GAMMA    SN40     CAL      SP       LN160    
# ...
    52.750    18.610    28.330   476.600      .006    37.190
    52.800    19.210    28.230   479.200      .006    37.140
    52.850    19.070    28.140   482.200      .006    37.140
    52.900    18.870    28.060   485.000      .006    37.130
    52.950    19.190    27.970   481.100      .006    37.130
    53.000    19.370    27.880   485.100      .006    37.130
    53.050    19.680    27.780   490.200      .006    37.130
    53.100    20.100    27.670   474.100      .006    37.130
    53.150    20.530    27.570   476.900      .006    37.130
    53.200    20.480    27.450   480.300      .006    37.120
    53.250    20.240    27.360   484.400      .007    37.120
    53.300    20.430    27.270   476.300      .007    37.090
    53.350    20.680    27.200   472.400      .007    37.060
    53.400    20.620    27.160   480.000      .007    37.030
    53.450    19.570    27.100   486.400      .007    37.000
    53.500    19.200    27.080   485.200      .007    36.930
    53.550    18.900    27.060   479.800      .007    36.860
    53.600    18.640    27.070   478.600      .007    36.790
    53.650    18.650    27.090   481.800      .007    36.720
    53.700    18.680    27.120   485.500      .007    36.650
    53.750    18.680    27.150   483.100      .007    36.570
    53.800    18.010    27.180   476.900      .007    36.510
    53.850    17.680    27.240   479.500      .007    36.440
    53.900    17.760    27.300   486.000      .007    36.380
    53.950    17.960    27.380   489.100      .007    36.310
    54.000    18.270    27.470   482.300      .007    36.240
    54.050    18.580    27.560   482.500      .007    36.170
    54.100    18.870    27.660   487.000      .007    36.090
    54.150    19.210    27.750   473.900      .007    36.010
    54.200    19.230    27.840   477.400      .007    35.930
    54.250    19.300    27.920   482.000      .007    35.830
    54.300    19.490    27.990   481.000      .006    35.710
    54.350    19.650    28.050   478.800      .006    35.590
    54.400    19.660    28.110   485.500      .006    35.470
    54.450    19.300    28.160   486.600      .006    35.360
    54.500    18.820    28.190   482.700      .006    35.250
    54.550    18.700    28.220   479.600      .006    35.150
    54.600    18.570    28.240   478.700      .006    35.050
    54.650    18.490    28.260   484.800      .006    34.950
    54.700    18.090    28.280   483.400      .006    34.850
    54.750    17.680    28.280   478.000      .006    34.780
    54.800    17.780    28.280   480.700      .006    34.670
    54.850    17.890    28.260   485.100      .006    34.570
    54.900    17.970    28.230   480.100      .005    34.460
    54.950    18.140    28.190   473.400      .005    34.370
    55.000    18.450    28.140   476.700      .005    34.270
    55.050    18.670    28.080   480.400      .005    34.170
    55.100    18.840    28.030   485.400      .005    34.070
    55.150    19.060    27.960   482.100      .005    34.000
    55.200    19.390    27.880   476.300      .005    33.930
    55.250    19.890    27.740   481.700      .005    33.850
    55.300    20.050    27.590   485.900      .005    33.800
    55.350    20.200    27.390   476.200      .005    33.760
    55.400    20.240    27.230   474.000      .005    33.710
    55.450    19.340    27.080   465.500      .005    33.670
    55.500    19.130    26.930   465.200      .005    33.620
    55.550    19.170    26.750   467.300      .005    33.570
    55.600    19.140    26.620   471.200      .005    33.520
    55.650    18.830    26.500   474.100      .005    33.490
    55.700    18.380    26.360   476.600      .005    33.460
    55.750    17.770    26.210   477.100      .005    33.440
    55.800    17.560    26.060   478.400      .005    33.410
    55.850    17.530    25.910   480.400      .005    33.390
    55.900    17.620    25.770   473.900      .005    33.360
    55.950    17.710    25.580   472.200      .005    33.350
    56.000    17.710    25.400   470.000      .005    33.340
    56.050    17.600    25.230   468.600      .005    33.330
    56.100    17.440    25.070   467.700      .005    33.330
    56.150    17.200    24.930   467.000      .005    33.320
    56.200    17.280    24.810   465.900      .005    33.320
    56.250    17.660    24.650   466.800      .005    33.270
    56.300    17.910    24.460   469.200      .005    33.230
    56.350    18.180    24.340   472.900      .006    33.190
    56.400    18.270    24.200   469.800      .006    33.090
    56.450    17.910    24.140   468.800      .006    32.980
    56.500    17.570    24.100   471.600      .006    32.870
    56.550    17.270    24.070   468.900      .006    32.750
    56.600    17.460    24.050   465.700      .006    32.660
    56.650    17.690    24.040   469.600      .006    32.570
    56.700    17.990    24.020   474.200      .006    32.480
    56.750    17.770    24.030   472.500      .006    32.390
    56.800    17.580    24.040   477.900      .006    32.320
    56.850    17.640    24.050   484.900      .006    32.260
    56.900    17.910    24.060   480.300      .006    32.200
    56.950    17.930    24.070   475.000      .006    32.160
    57.000    17.810    24.100   478.600      .006    32.110
    57.050    16.940    24.120   483.200      .006    32.070
    57.100    16.760    24.150   473.800      .006    32.020
    57.150    16.750    24.160   475.400      .006    31.960
    57.200    16.690    24.170   478.800      .006    31.890
    57.250    16.510    24.180   483.500      .006    31.830
    57.300    16.480    24.210   476.300      .006    31.780
    57.350    16.490    24.270   477.700      .006    31.730
    57.400    16.480    24.320   482.800      .006    31.690
    57.450    15.910    24.370   480.700      .006    31.640
    57.500    15.610    24.400   468.200      .006    31.590
    57.550    15.270    24.420   473.600      .006    31.530
    57.600    14.940    24.440   480.600      .006    31.490
    57.650    14.880    24.470   484.800      .006    31.430
    57.700    15.160    24.490   473.600      .006    31.350
    57.750    15.460    24.520   471.900      .006    31.280
    57.800    15.780    24.530   477.900      .006    31.200
    57.850    16.120    24.540   482.600      .006    31.130
    57.900    16.790    24.550   480.700      .006    31.040
    57.950    17.210    24.560   473.700      .006    30.970
    58.000    17.380    24.590   470.400      .006    30.900
    58.050    17.600    24.620   480.400      .007    30.840
    58.100    17.960    24.640   476.100      .007    30.810
    58.150    18.220    24.660   480.200      .007    30.780
    58.200    17.530    24.680   483.000      .007    30.740
    58.250    17.200    24.700   486.000      .007    30.690
    58.300    16.980    24.710   469.200      .008    30.630
    58.350    16.790    24.730   472.400      .008    30.550
    58.400    16.860    24.740   477.300      .008    30.460
    58.450    17.090    24.750   474.500      .008    30.380
    58.500    17.500    24.750   477.000      .009    30.310
    58.550    17.770    24.760   479.400      .009    30.230
    58.600    18.220    24.730   482.400      .009    30.140
    58.650    18.940    24.670   471.100      .009    30.050
    58.700    19.110    24.600   472.800      .009    29.960
    58.750    19.230    24.530   476.600      .009    29.880
    58.800    19.330    24.450   479.700      .009    29.800
    58.850    19.430    24.370   476.500      .009    29.710
    58.900    19.370    24.310   484.400      .009    29.640
    58.950    19.250    24.200   474.800      .009    29.570
    59.000    19.220    24.090   469.100      .010    29.500
    59.050    19.460    23.990   475.500      .010    29.430
    59.100    19.780    23.880   475.700      .010    29.370
    59.150    19.630    23.780   473.300      .010    29.320
    59.200    19.410    23.670   476.600      .010    29.280
    59.250    19.220    23.560   479.800      .010    29.240
    59.300    19.330    23.450   482.900      .010    29.200
