~Version Information
 VERS.                2.0:  CWLS LOG ASCII STANDARD -VERSION 2.0
 WRAP.                 NO:  ONE LINE PER DEPTH STEP
~WELL INFORMATION BLOCK
#MNEM.UNIT       DATA		            DESCRIPTION OF MNEMONIC
#---------    -------------            ------------------------
 STRT.M      .000                        :START DEPTH
 STOP.M   #######                        :STOP DEPTH
 STEP.M      .050                        :STEP
 NULL.    -999999.0                      :NULL VALUE
 COMP.       SCHIFOOD                    :COMPANY
 WELL.                          B62B0896 :WELL
 FLD .    Hoensbroek                     :FIELD
 CNTY.                                   :COUNTY
 STAT.                                   :STATE
 SRVC.                                   :SERVICE COMPANY
 DATE.     17-JUL-90                     :LOG DATE
 UWI .                                   :UNIQUE WELL ID
 LIC .                                   :LICENSE NUMBER
~Curve Information Block
#MNEM.UNIT      API CODE     Curve Description
#---------    -------------  ------------------------
DEPTH    .M         00 000 00 00          :  1  DEPTH
SN40     .OHM.M     00 000 00 00          :  2  SN40
SP       .V         00 000 00 00          :  3  SP
CAL      .MM        00 000 00 00          :  4  CAL
LN160    .OHM.M     00 000 00 00          :  5  LN160
GAMMA    .CPS       00 000 00 00          :  6  GAMMA
~Parameter Information Block
#MNEM.UNIT   Information     Description
#---------- ---------------  ------------------------
 FILE.                         :File Type
 FIID.                         :File Type Identifier
 VERS.                         :System Version
 SER .                         :System Serial Number
 TRUK.                         :Truck Calibration Number
 TOOL.                         :Tool Serial Number
 TIME.                         :Time    HrHrMinMin
 LAT .                         :Latitude
 LON .                         :Longitude
 LMF .            MV           :LOG Measured FROM
 DMF .                         :Driller Measured From
 PD  .                         :Permanent Data
 PDEV.                         :Elevation Permanent Data
 EKB .M                        :Elevation Kelly Bushing
 ELEV.DF                       :Elevation DF
 EGL .M                        :Elevation Ground Level
 DRDP.                         :Drillers Depth
 CASD.                         :Casing Diameter
 CASB.                         :Casing Bottom
 CASX.                         :Casing Type
 CAST.                         :Casing Thickness
 TNOC.                         :Time Circulation Stopped
 LOGU.                         :Logging Unit
 RECB.            Bergsma      :Recorded By
 OSR1.                         :Other Services
 OSR2.                         :Other Services
 OSR3.                         :Other Services
 BS  .MM                       :Bit Size
 MST .                         :Mean Surface Temperature
 TGRD.                         :Temperature Gradiant
 MAGN.                         :Magnetic Declination
 MDEN.                         :Density Matrix
 MATR.                         :Neutron Matrix
 DTMT.                         :Delta T Matrix
 DTFL.                         :Delta T Fluid
 MUDS.                         :Mud Sample Source
 MRS .            6            :Mud Resistivity
 MTP .            19           :Mud Temperature
 MFRS.                         :Resistivity Mud Filtrate
 MFTP.                         :Temperature Mud Filtrate
 MCRS.                         :Resistivity Mud Cake
 MCTP.                         :Temperature Mud Cake
 FTYP.                         :Fluid Type
 FD  .K/M3                     :Fluid Density
 DFV .S                        :Fluid Viscosity
 FPH .                         :Fuild PH
 ELCO.                         :Electron Cutoff
~Other Information
#MNEM.UNIT  Information      Description
#---------- ---------------  ------------------------
# --------------------------
## COMMENTS    Top_Depth   Bot_Depth  LithCode  Lat    Long   Elev_Gl
##    Type of LithCode   Lithologie - 1970
##                    .00        6.00         .00     
##                   6.05        8.00        2.00     
##                   8.05       11.50       22.00     
##                  11.55       15.20       23.00     
##                  15.25       19.00       22.00     
##                  19.05       20.25       11.00     
##                  20.30       22.10       12.00     
##                  22.15       23.70       11.00     
##                  23.75       25.15       12.00     
##                  25.20       26.10       11.00     
##                  26.15       27.20       12.00     
##                  27.25       35.00       11.00     
##                  35.05       47.55       12.00     
##                  47.60       51.00        7.00     
##                  51.05       52.25       11.00     
##                  52.30       54.00        7.00     
##                  54.05       55.10       11.00     
##                  55.15       58.00       12.00     
##                  58.05       62.60       11.00     
##                  62.65       67.20        8.00     
##                  67.25       70.05        9.00     
##                  70.10       74.00        7.00     
##                  74.05       75.40        8.00     
##                  75.45       80.00        7.00     
##                  80.05       92.40        9.00     
##                  92.45       94.50       10.00     
##                  94.55       96.90        8.00     
##                  96.95       99.30       10.00     
##                  99.35       99.35         .00     
##    last_layer   99.35
# --------------------------
~A DEPTH    SN40     SP       CAL      LN160    GAMMA    
# ...
    65.800    29.870      .066   576.100    44.140    21.420
    65.850    29.900      .066   575.600    44.140    21.520
    65.900    29.920      .065   575.200    44.150    21.660
    65.950    29.920      .065   570.900    44.170    21.770
    66.000    29.910      .065   568.000    44.210    21.890
    66.050    29.910      .064   567.000    44.260    22.010
    66.100    29.900      .064   573.700    44.330    22.090
    66.150    29.870      .064   573.100    44.380    22.170
    66.200    29.810      .064   571.400    44.500    22.270
    66.250    29.740      .064   570.400    44.590    22.340
    66.300    29.680      .064   572.500    44.680    22.410
    66.350    29.610      .064   574.100    44.790    22.470
    66.400    29.540      .064   572.500    44.890    22.530
    66.450    29.470      .064   570.500    44.990    22.560
    66.500    29.410      .064   566.800    45.080    22.370
    66.550    29.330      .064   568.300    45.160    22.190
    66.600    29.270      .064   571.500    45.230    22.220
    66.650    29.180      .064   575.100    45.300    22.250
    66.700    29.090      .064   576.900    45.360    22.280
    66.750    29.010      .064   576.300    45.410    22.260
    66.800    28.930      .064   574.500    45.440    22.250
    66.850    28.850      .064   575.700    45.460    22.370
    66.900    28.760      .064   576.500    45.480    22.550
    66.950    28.670      .064   576.700    45.480    22.730
    67.000    28.610      .064   576.500    45.470    22.810
    67.050    28.560      .064   576.000    45.440    22.840
    67.100    28.500      .064   576.200    45.410    22.990
    67.150    28.440      .064   576.700    45.370    23.140
    67.200    28.400      .064   576.900    45.330    23.210
    67.250    28.360      .064   577.300    45.260    23.220
    67.300    28.340      .064   577.600    45.200    23.230
    67.350    28.320      .064   577.900    45.120    23.240
    67.400    28.310      .064   578.200    45.040    23.230
    67.450    28.290      .064   578.400    44.960    23.210
    67.500    28.290      .064   578.200    44.870    23.150
    67.550    28.290      .064   577.700    44.780    22.980
    67.600    28.290      .064   576.900    44.670    22.760
    67.650    28.290      .064   576.200    44.590    22.500
    67.700    28.280      .064   576.100    44.440    22.300
    67.750    28.280      .064   577.600    44.350    22.120
    67.800    28.280      .064   578.300    44.260    21.970
    67.850    28.280      .064   576.600    44.180    21.880
    67.900    28.270      .064   573.700    44.080    21.810
    67.950    28.260      .064   572.300    44.030    21.770
    68.000    28.230      .064   571.500    44.010    21.840
    68.050    28.200      .064   573.800    43.990    21.980
    68.100    28.160      .064   571.600    43.990    22.170
    68.150    28.130      .064   569.000    44.000    22.440
    68.200    28.050      .064   565.200    44.000    22.590
    68.250    27.960      .064   563.500    44.010    22.620
    68.300    27.850      .064   567.000    44.030    22.630
    68.350    27.770      .064   570.900    44.050    22.610
    68.400    27.600      .065   576.200    44.080    22.510
    68.450    27.450      .065   581.600    44.100    22.540
    68.500    27.340      .065   580.900    44.160    22.560
    68.550    27.260      .065   575.800    44.210    22.510
    68.600    27.190      .065   574.200    44.270    22.380
    68.650    27.140      .065   577.100    44.350    22.240
    68.700    27.100      .066   577.000    44.420    22.100
    68.750    27.070      .066   577.400    44.530    22.020
    68.800    27.050      .066   580.200    44.620    21.980
    68.850    27.030      .066   577.500    44.710    21.990
    68.900    27.030      .066   575.200    44.810    22.020
    68.950    27.040      .066   570.000    44.920    22.080
    69.000    27.060      .066   571.400    44.990    22.160
    69.050    27.100      .066   574.700    45.070    22.210
    69.100    27.170      .066   571.600    45.160    22.240
    69.150    27.250      .066   567.000    45.280    22.240
    69.200    27.330      .065   563.500    45.440    22.250
    69.250    27.440      .065   566.900    45.570    22.260
    69.300    27.560      .065   569.400    45.670    22.280
    69.350    27.700      .065   570.900    45.780    22.320
    69.400    27.890      .065   568.200    45.890    22.420
    69.450    28.090      .065   575.400    46.010    22.570
    69.500    28.270      .064   579.200    46.150    22.680
    69.550    28.460      .064   581.500    46.270    22.730
    69.600    28.640      .064   582.600    46.450    22.720
    69.650    28.790      .064   577.100    46.540    22.640
    69.700    29.060      .063   572.800    46.710    22.620
    69.750    29.280      .063   564.400    46.890    22.590
    69.800    29.500      .063   556.000    47.130    22.560
    69.850    29.800      .063   555.300    47.420    22.530
    69.900    30.100      .062   558.400    47.710    22.510
    69.950    30.480      .062   556.300    48.000    22.500
    70.000    30.660      .062   553.700    48.290    22.490
    70.050    30.810      .062   550.700    48.580    22.480
    70.100    31.090      .061   548.700    48.870    22.450
    70.150    31.400      .061   547.500    49.170    22.400
    70.200    31.700      .061   547.000    49.460    22.350
    70.250    31.990      .061   546.700    49.760    22.280
    70.300    32.420      .061   546.300    50.060    22.200
    70.350    32.720      .061   545.900    50.350    22.070
    70.400    33.080      .061   545.500    50.660    21.910
    70.450    33.330      .060   545.200    50.960    21.780
    70.500    33.590      .060   545.100    51.270    21.730
    70.550    33.860      .060   545.200    51.580    21.750
    70.600    34.080      .060   545.100    51.880    21.780
    70.650    34.300      .060   544.800    52.190    21.790
    70.700    34.520      .060   544.400    52.500    21.790
    70.750    34.750      .060   544.600    52.810    21.770
    70.800    34.920      .060   544.700    53.110    21.730
    70.850    35.060      .060   546.100    53.530    21.750
    70.900    35.190      .060   547.900    54.040    21.840
    70.950    35.280      .060   548.800    54.530    22.010
    71.000    35.370      .060   549.600    54.890    22.290
    71.050    35.450      .060   550.200    55.250    22.560
    71.100    35.520      .060   551.200    55.540    22.660
    71.150    35.570      .060   551.900    55.790    22.810
    71.200    35.630      .060   552.000    56.040    22.820
    71.250    35.670      .060   551.700    56.290    22.810
    71.300    35.710      .060   551.000    56.490    22.630
    71.350    35.740      .060   551.700    56.710    22.420
    71.400    35.780      .060   552.200    56.930    22.220
    71.450    35.820      .060   553.500    57.140    21.940
    71.500    35.850      .060   554.100    57.270    21.650
    71.550    35.880      .060   554.600    57.340    21.610
    71.600    35.910      .060   555.300    57.430    21.790
    71.650    35.930      .060   555.700    57.550    21.850
    71.700    35.940      .060   555.500    57.670    21.860
    71.750    35.960      .060   554.100    57.740    21.760
    71.800    35.980      .060   552.900    57.800    21.630
    71.850    35.990      .060   550.900    57.840    21.600
    71.900    35.990      .060   549.800    57.850    21.750
    71.950    35.990      .060   549.000    57.830    21.840
    72.000    35.990      .060   548.500    57.820    21.860
    72.050    35.980      .060   548.300    57.810    21.830
    72.100    35.980      .060   548.000    57.790    21.800
    72.150    35.980      .060   547.800    57.740    21.770
    72.200    35.980      .060   547.500    57.700    21.800
    72.250    35.960      .060   547.300    57.660    21.900
    72.300    35.950      .060   547.100    57.610    22.040
    72.350    35.940      .060   546.800    57.560    22.140
