~Version Information
 VERS.                2.0:  CWLS LOG ASCII STANDARD -VERSION 2.0
 WRAP.                 NO:  ONE LINE PER DEPTH STEP
~WELL INFORMATION BLOCK
#MNEM.UNIT       DATA		            DESCRIPTION OF MNEMONIC
#---------    -------------            ------------------------
 STRT.M      .000                        :START DEPTH
 STOP.M    99.850                        :STOP DEPTH
 STEP.M      .050                        :STEP
 NULL.    -999999.0                      :NULL VALUE
 COMP.       WML                         :COMPANY
 WELL.                          B62B0901 :WELL
 FLD .    Klimmen                        :FIELD
 CNTY.                                   :COUNTY
 STAT.                                   :STATE
 SRVC.                                   :SERVICE COMPANY
 DATE.     17-JAN-92                     :LOG DATE
 UWI .                                   :UNIQUE WELL ID
 LIC .                                   :LICENSE NUMBER
~Curve Information Block
#MNEM.UNIT      API CODE     Curve Description
#---------    -------------  ------------------------
DEPTH    .M         00 000 00 00          :  1  DEPTH
SN40     .OHM.M     00 000 00 00          :  2  SN40
SP       .V         00 000 00 00          :  3  SP
CAL      .MM        00 000 00 00          :  4  CAL
LN160    .OHM.M     00 000 00 00          :  5  LN160
GAMMA    .CPS       00 000 00 00          :  6  GAMMA
~Parameter Information Block
#MNEM.UNIT   Information     Description
#---------- ---------------  ------------------------
 FILE.                         :File Type
 FIID.                         :File Type Identifier
 VERS.                         :System Version
 SER .                         :System Serial Number
 TRUK.                         :Truck Calibration Number
 TOOL.                         :Tool Serial Number
 TIME.                         :Time    HrHrMinMin
 LAT .                         :Latitude
 LON .                         :Longitude
 LMF .            MV           :LOG Measured FROM
 DMF .                         :Driller Measured From
 PD  .                         :Permanent Data
 PDEV.                         :Elevation Permanent Data
 EKB .M                        :Elevation Kelly Bushing
 ELEV.DF                       :Elevation DF
 EGL .M                        :Elevation Ground Level
 DRDP.                         :Drillers Depth
 CASD.                         :Casing Diameter
 CASB.                         :Casing Bottom
 CASX.                         :Casing Type
 CAST.                         :Casing Thickness
 TNOC.                         :Time Circulation Stopped
 LOGU.                         :Logging Unit
 RECB.            Bergsma      :Recorded By
 OSR1.                         :Other Services
 OSR2.                         :Other Services
 OSR3.                         :Other Services
 BS  .MM                       :Bit Size
 MST .                         :Mean Surface Temperature
 TGRD.                         :Temperature Gradiant
 MAGN.                         :Magnetic Declination
 MDEN.                         :Density Matrix
 MATR.                         :Neutron Matrix
 DTMT.                         :Delta T Matrix
 DTFL.                         :Delta T Fluid
 MUDS.                         :Mud Sample Source
 MRS .                         :Mud Resistivity
 MTP .                         :Mud Temperature
 MFRS.                         :Resistivity Mud Filtrate
 MFTP.                         :Temperature Mud Filtrate
 MCRS.                         :Resistivity Mud Cake
 MCTP.                         :Temperature Mud Cake
 FTYP.                         :Fluid Type
 FD  .K/M3                     :Fluid Density
 DFV .S                        :Fluid Viscosity
 FPH .                         :Fuild PH
 ELCO.                         :Electron Cutoff
~Other Information
#MNEM.UNIT  Information      Description
#---------- ---------------  ------------------------
# --------------------------
## COMMENTS    Top_Depth   Bot_Depth  LithCode  Lat    Long   Elev_Gl
##    Type of LithCode   Lithologie - 1970
##                    .00         .30        7.00     
##                    .35        4.60       11.00     
##                   4.65       77.95         .00     
##                  78.00       88.95        7.00     
##                  89.00       99.05       10.00     
##                  99.10       99.10         .00     
##    last_layer   99.1
# --------------------------
~A DEPTH    SN40     SP       CAL      LN160    GAMMA    
# ...
    83.800    60.370      .028   238.700    61.090    19.250
    83.850    60.000      .028   238.900    60.890    19.210
    83.900    59.640      .028   239.200    60.630    19.320
    83.950    59.190      .028   239.200    60.480    19.510
    84.000    58.870      .028   238.700    60.360    19.720
    84.050    58.470      .028   238.200    60.230    20.260
    84.100    58.020      .028   237.600    60.080    20.850
    84.150    57.770      .028   237.200    59.910    21.160
    84.200    57.510      .028   237.300    59.750    21.540
    84.250    57.480      .028   237.300    59.660    21.760
    84.300    57.530      .028   237.500    59.660    21.910
    84.350    57.540      .028   237.600    59.660    22.070
    84.400    57.560      .028   237.800    59.660    22.180
    84.450    57.370      .028   237.900    59.480    22.300
    84.500    57.140      .028   238.100    59.320    22.380
    84.550    56.820      .027   238.400    58.940    22.390
    84.600    56.490      .027   238.900    58.620    21.990
    84.650    56.350      .027   239.400    58.370    21.120
    84.700    56.370      .027   240.000    58.150    20.990
    84.750    56.480      .028   240.300    57.950    20.900
    84.800    56.690      .028   239.900    57.760    20.850
    84.850    56.990      .028   239.100    57.590    20.910
    84.900    57.330      .028   238.700    57.440    21.050
    84.950    57.640      .028   238.500    57.290    20.990
    85.000    58.270      .028   238.000    57.180    19.730
    85.050    59.130      .028   237.500    57.010    19.420
    85.100    59.400      .028   237.300    56.960    19.240
    85.150    59.200      .028   237.000    56.910    18.690
    85.200    58.940      .028   236.600    56.900    18.010
    85.250    58.890      .028   236.100    56.900    17.340
    85.300    58.910      .028   236.000    56.920    17.150
    85.350    58.990      .028   236.300    57.070    17.000
    85.400    59.000      .028   236.600    57.240    16.890
    85.450    58.970      .028   236.900    57.360    16.830
    85.500    58.870      .028   237.700    57.590    16.770
    85.550    58.460      .028   238.400    57.820    16.440
    85.600    58.010      .028   238.800    58.050    16.400
    85.650    57.630      .027   238.900    58.280    16.440
    85.700    57.310      .027   238.400    58.500    16.490
    85.750    57.110      .027   236.900    58.720    16.560
    85.800    56.990      .027   236.200    58.920    16.610
    85.850    56.910      .027   236.100    59.040    16.630
    85.900    56.890      .027   236.300    59.000    16.600
    85.950    56.890      .027   236.500    58.900    16.490
    86.000    56.920      .027   236.600    58.820    16.310
    86.050    56.970      .027   236.700    58.660    15.950
    86.100    57.020      .027   236.500    58.470    15.280
    86.150    57.170      .027   236.300    58.310    15.150
    86.200    57.480      .026   236.300    58.140    15.100
    86.250    57.880      .026   236.300    57.950    15.200
    86.300    58.480      .026   236.400    57.720    15.270
    86.350    59.220      .026   236.400    57.540    15.350
    86.400    60.200      .026   236.500    57.190    15.230
    86.450    61.050      .026   236.500    56.710    14.960
    86.500    61.740      .026   236.600    56.010    14.800
    86.550    62.320      .026   236.400    55.390    14.610
    86.600    62.850      .026   236.300    54.640    14.390
    86.650    63.350      .026   236.300    53.790    14.150
    86.700    63.760      .026   236.300    52.920    14.150
    86.750    65.620      .026   236.200    51.330    14.290
    86.800    66.690      .026   236.100    49.720    14.450
    86.850    68.460      .026   235.900    48.920    14.610
    86.900    69.910      .026   235.600    48.050    14.660
    86.950    71.190      .026   235.400    46.960    15.080
    87.000    72.880      .026   235.700    46.190    15.190
    87.050    74.240      .026   236.000    45.220    15.310
    87.100    74.710      .026   236.200    44.690    15.680
    87.150    75.170      .026   236.500    44.310    16.020
    87.200    75.280      .026   236.900    44.170    16.400
    87.250    74.790      .027   238.700    44.150    16.620
    87.300    74.390      .027   240.000    44.210    16.590
    87.350    73.790      .027   240.800    44.270    16.480
    87.400    72.860      .027   241.100    44.380    16.380
    87.450    68.790      .027   240.300    44.490    16.410
    87.500    67.410      .027   240.200    44.570    16.980
    87.550    64.530      .026   239.800    44.630    17.430
    87.600    63.140      .026   239.100    44.640    17.760
    87.650    61.290      .026   237.900    44.380    18.360
    87.700    60.190      .026   236.800    43.790    18.720
    87.750    58.710      .026   235.700    43.110    19.000
    87.800    56.130      .026   235.500    42.500    19.180
    87.850    55.300      .025   235.400    41.800    19.410
    87.900    53.960      .025   235.400    41.280    19.690
    87.950    52.420      .025   235.600    41.020    19.910
    88.000    51.760      .025   236.000    40.940    20.200
    88.050    50.550      .025   236.500    40.920    20.410
    88.100    50.130      .025   237.000    40.910    20.470
    88.150    49.280      .025   237.600    40.910    20.410
    88.200    48.620      .025   238.600    40.910    20.460
    88.250    47.690      .025   240.000    40.920    20.590
    88.300    46.290      .024   240.900    40.890    20.580
    88.350    45.200      .024   241.000    40.840    20.700
    88.400    44.430      .024   240.300    40.760    20.980
    88.450    43.600      .024   239.500    40.560    21.190
    88.500    42.870      .024   238.600    40.310    21.320
    88.550    42.020      .024   235.900    40.020    21.430
    88.600    41.290      .024   231.500    39.700    21.700
    88.650    40.780      .024   231.700    39.440    21.940
    88.700    40.290      .024   232.000    39.120    23.600
    88.750    39.800      .024   232.400    38.780    23.760
    88.800    38.980      .024   231.400    38.560    23.960
    88.850    38.150      .024   230.900    38.350    24.170
    88.900    37.050      .023   232.200    38.190    24.290
    88.950    35.960      .023   234.100    38.060    24.400
    89.000    35.260      .023   234.100    37.980    24.530
    89.050    34.640      .023   233.300    37.900    24.430
    89.100    34.200      .023   232.600    37.860    24.160
    89.150    33.750      .023   232.500    37.870    23.840
    89.200    33.230      .023   232.800    37.870    23.510
    89.250    32.650      .023   232.900    37.870    23.450
    89.300    32.180      .023   232.700    37.850    23.460
    89.350    31.790      .023   232.600    37.800    23.470
    89.400    31.510      .023   232.600    37.690    23.450
    89.450    31.130      .023   232.300    37.550    23.220
    89.500    30.810      .023   231.900    37.380    22.930
    89.550    30.540      .023   231.700    37.150    22.590
    89.600    30.310      .022   232.400    36.870    21.860
    89.650    30.020      .022   233.700    36.520    21.680
    89.700    29.880      .022   235.600    36.170    21.930
    89.750    29.740      .022   238.000    35.790    22.040
    89.800    29.610      .022   239.300    35.430    21.660
    89.850    29.540      .022   239.400    35.100    20.990
    89.900    29.500      .022   239.100    34.920    20.790
    89.950    29.500      .021   239.200    34.740    19.840
    90.000    29.530      .020   239.200    34.590    19.850
    90.050    29.570      .020   237.900    34.450    19.940
    90.100    29.710      .020   235.000    34.320    20.070
    90.150    29.830      .020   235.100    34.160    20.290
    90.200    29.990      .019   235.900    33.990    20.560
    90.250    30.110      .019   236.600    33.830    20.550
    90.300    30.230      .019   237.000    33.600    20.390
    90.350    30.370      .019   237.300    33.370    20.120
