~Version Information
 VERS.                2.0:  CWLS LOG ASCII STANDARD -VERSION 2.0
 WRAP.                 NO:  ONE LINE PER DEPTH STEP
~WELL INFORMATION BLOCK
#MNEM.UNIT       DATA		            DESCRIPTION OF MNEMONIC
#---------    -------------            ------------------------
 STRT.M      .000                        :START DEPTH
 STOP.M    99.850                        :STOP DEPTH
 STEP.M      .050                        :STEP
 NULL.    -999999.0                      :NULL VALUE
 COMP.       WML                         :COMPANY
 WELL.                          B62B0901 :WELL
 FLD .    Klimmen                        :FIELD
 CNTY.                                   :COUNTY
 STAT.                                   :STATE
 SRVC.                                   :SERVICE COMPANY
 DATE.     17-JAN-92                     :LOG DATE
 UWI .                                   :UNIQUE WELL ID
 LIC .                                   :LICENSE NUMBER
~Curve Information Block
#MNEM.UNIT      API CODE     Curve Description
#---------    -------------  ------------------------
DEPTH    .M         00 000 00 00          :  1  DEPTH
SN40     .OHM.M     00 000 00 00          :  2  SN40
SP       .V         00 000 00 00          :  3  SP
CAL      .MM        00 000 00 00          :  4  CAL
LN160    .OHM.M     00 000 00 00          :  5  LN160
GAMMA    .CPS       00 000 00 00          :  6  GAMMA
~Parameter Information Block
#MNEM.UNIT   Information     Description
#---------- ---------------  ------------------------
 FILE.                         :File Type
 FIID.                         :File Type Identifier
 VERS.                         :System Version
 SER .                         :System Serial Number
 TRUK.                         :Truck Calibration Number
 TOOL.                         :Tool Serial Number
 TIME.                         :Time    HrHrMinMin
 LAT .                         :Latitude
 LON .                         :Longitude
 LMF .            MV           :LOG Measured FROM
 DMF .                         :Driller Measured From
 PD  .                         :Permanent Data
 PDEV.                         :Elevation Permanent Data
 EKB .M                        :Elevation Kelly Bushing
 ELEV.DF                       :Elevation DF
 EGL .M                        :Elevation Ground Level
 DRDP.                         :Drillers Depth
 CASD.                         :Casing Diameter
 CASB.                         :Casing Bottom
 CASX.                         :Casing Type
 CAST.                         :Casing Thickness
 TNOC.                         :Time Circulation Stopped
 LOGU.                         :Logging Unit
 RECB.            Bergsma      :Recorded By
 OSR1.                         :Other Services
 OSR2.                         :Other Services
 OSR3.                         :Other Services
 BS  .MM                       :Bit Size
 MST .                         :Mean Surface Temperature
 TGRD.                         :Temperature Gradiant
 MAGN.                         :Magnetic Declination
 MDEN.                         :Density Matrix
 MATR.                         :Neutron Matrix
 DTMT.                         :Delta T Matrix
 DTFL.                         :Delta T Fluid
 MUDS.                         :Mud Sample Source
 MRS .                         :Mud Resistivity
 MTP .                         :Mud Temperature
 MFRS.                         :Resistivity Mud Filtrate
 MFTP.                         :Temperature Mud Filtrate
 MCRS.                         :Resistivity Mud Cake
 MCTP.                         :Temperature Mud Cake
 FTYP.                         :Fluid Type
 FD  .K/M3                     :Fluid Density
 DFV .S                        :Fluid Viscosity
 FPH .                         :Fuild PH
 ELCO.                         :Electron Cutoff
~Other Information
#MNEM.UNIT  Information      Description
#---------- ---------------  ------------------------
# --------------------------
## COMMENTS    Top_Depth   Bot_Depth  LithCode  Lat    Long   Elev_Gl
##    Type of LithCode   Lithologie - 1970
##                    .00         .30        7.00     
##                    .35        4.60       11.00     
##                   4.65       77.95         .00     
##                  78.00       88.95        7.00     
##                  89.00       99.05       10.00     
##                  99.10       99.10         .00     
##    last_layer   99.1
# --------------------------
~A DEPTH    SN40     SP       CAL      LN160    GAMMA    
# ...
    44.200    37.590      .024   242.400    42.110    10.760
    44.250    38.170      .024   241.700    42.190    10.610
    44.300    38.780      .024   242.800    42.280    10.530
    44.350    39.180      .024   243.900    42.370    10.550
    44.400    39.580      .024   244.500    42.460    10.690
    44.450    40.000      .024   243.300    42.550    10.920
    44.500    40.410      .024   241.500    42.630    11.160
    44.550    40.460      .024   241.700    42.730    11.480
    44.600    40.500      .024   241.900    42.830    11.670
    44.650    40.510      .024   242.600    42.940    11.690
    44.700    40.380      .024   244.200    43.080    11.660
    44.750    39.990      .024   247.100    43.250    11.610
    44.800    39.540      .024   249.200    43.630    11.600
    44.850    39.140      .024   248.800    44.120    11.800
    44.900    38.830      .024   247.100    44.640    11.970
    44.950    38.670      .024   245.300    45.100    12.410
    45.000    38.650      .024   245.200    45.590    12.730
    45.050    38.630      .024   244.700    46.000    13.360
    45.100    38.590      .024   244.900    46.410    13.490
    45.150    38.370      .024   245.200    46.740    13.510
    45.200    37.930      .024   245.500    47.080    13.480
    45.250    37.090      .024   245.800    47.330    13.360
    45.300    36.370      .024   245.800    47.480    13.240
    45.350    35.960      .024   245.700    47.540    13.310
    45.400    35.750      .024   245.600    47.530    13.540
    45.450    35.550      .024   245.700    47.500    14.040
    45.500    35.560      .024   245.900    47.490    14.590
    45.550    35.870      .024   246.300    47.510    14.700
    45.600    36.240      .024   247.100    47.530    14.460
    45.650    36.580      .024   248.000    47.520    13.930
    45.700    36.870      .024   249.000    47.490    13.720
    45.750    36.900      .024   250.600    47.440    13.490
    45.800    36.640      .024   251.100    47.310    13.350
    45.850    36.430      .024   248.300    47.170    13.180
    45.900    35.910      .024   245.800    47.020    12.840
    45.950    35.440      .024   244.900    46.850    12.490
    46.000    35.070      .024   243.500    46.630    12.340
    46.050    34.790      .024   243.200    46.450    11.980
    46.100    34.560      .024   243.500    46.230    11.750
    46.150    34.490      .024   244.100    46.010    11.440
    46.200    34.560      .024   243.400    45.940    11.460
    46.250    34.620      .024   242.700    45.940    11.610
    46.300    34.660      .024   242.500    45.970    11.820
    46.350    34.570      .024   243.200    45.980    12.170
    46.400    34.570      .024   244.000    45.980    12.930
    46.450    34.600      .024   244.400    45.880    13.480
    46.500    34.620      .024   246.000    45.770    13.700
    46.550    34.500      .024   246.200    45.670    14.020
    46.600    34.220      .023   245.700    45.570    14.290
    46.650    33.820      .023   248.400    45.500    14.520
    46.700    33.420      .023   248.800    45.440    14.670
    46.750    33.140      .023   247.600    45.430    14.590
    46.800    33.140      .023   245.600    45.440    14.580
    46.850    33.490      .023   244.500    45.510    14.680
    46.900    34.020      .023   242.700    45.590    14.760
    46.950    34.400      .023   241.500    45.700    14.880
    47.000    34.990      .023   241.400    45.790    15.080
    47.050    36.260      .023   240.600    45.960    15.100
    47.100    37.300      .023   240.700    46.140    14.640
    47.150    37.520      .023   241.400    46.330    14.400
    47.200    37.530      .023   242.200    46.510    14.150
    47.250    37.340      .023   242.900    46.710    13.880
    47.300    37.110      .023   242.800    46.890    13.710
    47.350    36.850      .023   243.600    47.070    13.590
    47.400    36.650      .023   244.200    47.240    13.180
    47.450    36.530      .023   244.100    47.420    12.740
    47.500    36.430      .023   243.600    47.550    12.750
    47.550    36.350      .023   243.000    47.800    13.030
    47.600    36.270      .023   243.100    48.060    13.290
    47.650    36.200      .023   244.600    48.290    13.620
    47.700    36.130      .023   245.800    48.410    13.980
    47.750    36.140      .023   247.300    48.480    14.120
    47.800    36.230      .022   248.600    48.500    14.210
    47.850    36.320      .022   250.500    48.430    14.300
    47.900    36.370      .022   251.500    48.280    14.440
    47.950    36.260      .022   252.600    47.950    14.530
    48.000    35.950      .022   252.600    47.510    14.480
    48.050    35.550      .022   251.300    47.120    14.260
    48.100    35.200      .022   249.400    46.700    14.260
    48.150    35.010      .022   247.300    46.050    14.370
    48.200    35.050      .022   246.500    45.390    14.710
    48.250    35.200      .022   245.300    45.020    14.960
    48.300    35.250      .022   244.100    44.590    15.550
    48.350    35.050      .022   244.400    44.390    15.890
    48.400    34.620      .022   247.800    44.000    16.120
    48.450    34.140      .022   248.600    43.570    16.130
    48.500    33.690      .022   247.700    43.280    16.100
    48.550    33.600      .022   246.200    43.030    15.900
    48.600    33.550      .022   244.800    42.810    15.700
    48.650    33.410      .022   244.800    42.670    15.420
    48.700    33.360      .022   249.200    42.600    15.190
    48.750    33.370      .022   251.300    42.610    14.990
    48.800    33.550      .022   249.800    42.640    14.850
    48.850    33.900      .022   247.700    42.670    14.710
    48.900    34.590      .022   245.300    42.700    14.660
    48.950    35.460      .022   244.900    42.720    14.630
    49.000    36.830      .022   247.400    42.730    14.190
    49.050    38.610      .022   247.300    42.730    13.980
    49.100    40.700      .022   246.400    42.690    13.940
    49.150    42.240      .022   244.300    42.620    13.770
    49.200    43.500      .022   240.700    42.530    13.240
    49.250    46.020      .023   240.700    42.390    12.730
    49.300    47.400      .023   240.700    42.250    12.600
    49.350    49.570      .023   240.300    42.080    12.460
    49.400    50.920      .023   239.800    41.900    12.440
    49.450    52.190      .023   239.400    41.720    12.590
    49.500    53.020      .023   239.400    41.570    12.770
    49.550    53.470      .023   239.900    41.560    13.070
    49.600    53.520      .023   241.200    41.700    13.050
    49.650    53.500      .023   242.900    41.860    12.700
    49.700    53.420      .023   242.800    42.340    12.230
    49.750    53.350      .023   241.700    42.810    11.950
    49.800    53.260      .023   240.400    43.340    11.870
    49.850    53.140      .023   240.500    43.850    11.900
    49.900    53.080      .023   241.000    44.390    11.970
    49.950    53.050      .023   241.600    45.030    12.100
    50.000    52.970      .023   241.800    45.470    12.190
    50.050    52.830      .023   241.900    45.900    12.250
    50.100    51.710      .023   240.700    46.130    12.380
    50.150    50.640      .023   240.100    46.240    12.470
    50.200    49.680      .023   239.800    46.310    12.810
    50.250    48.340      .023   239.700    46.350    13.240
    50.300    46.670      .023   240.300    46.390    13.870
    50.350    46.440      .023   241.300    46.420    13.890
    50.400    46.620      .023   242.400    46.500    14.050
    50.450    47.190      .023   243.300    46.580    14.470
    50.500    47.830      .023   244.300    46.640    14.700
    50.550    48.030      .023   245.000    46.800    14.630
    50.600    47.850      .023   245.400    46.940    14.670
    50.650    47.220      .023   245.500    47.300    14.950
    50.700    46.380      .023   245.600    47.690    15.310
    50.750    45.550      .022   245.700    48.300    15.590
