~Version Information Block
 VERS.                2.00:     CWLS LOG ASCII STANDARD - VERSION 2.000000
 WRAP.                  NO:     One Line Per Depth Step
#
~Well Information Block
#MNEM.UNIT                     Data                         Information
#----------   ------------------------------------------   ----------------
 STRT.M                                         0.0000:
 STOP.M                                        32.0000:
 STEP.M                                         0.0200:
 NULL.                                       -999.2500:
 COMP.                                                :     COMPANY
 WELL.                                        B62B0912:     WELL
 FLD .                                                :     FIELD
 CNTY.                                                :     COUNTY
 STAT.                                                :     STATE
 CTRY.                                                :     COUNTRY
 SRVC.                                                :     SERVICE COMPANY
 DATE.                                                :     DATE
 API .                                                :     API NUMBER
 UWI .                                                :     UWI NUMBER
#
~Curve Information Block
#MNEM.UNIT       API CODE      Curve Description
#----------    -------------   -------------------
 DEPT.M                    :   Depth in Meters
 CAL .CM                   :   Cal
 GAM(NAT) .CPS             :   GAM(NAT)
 SP  .MV                   :   SP
 SN40.OHM-M                :   SN40
 LN160.OHM-M               :   LN160
#
~Parameter Information Block
#MNEM.UNIT            Value               Description
#----------    --------------------    -------------------
 PDAT.                            :    Permanent Datum
 EPD .M                     0.0000:    Elevation Of Perm. Datum
 WSTA.                         LOC:    
 E   .M                     0.0000:    E (Stretch Coefficient Of The Cable)
 TD  .M                    32.0000:    Total Depth
#
~Other Information Block
<DescLogPlotStart>   NEURALOG PLOT DEFINITION
PLOTDEFVERSION: 3
LASFILE: D:\NeurLrest_23_04_'08en 20_05\nlg_1\B62B0912.las
DEPTHSCALE: 200.000000
RESOLUTION: 600
DEPTHLABELFREQ: 50.000000
HEAVYGRIDFREQ: 50.000000
MEDIUMGRIDFREQ: 25.000000
LIGHTGRIDFREQ: 5.000000
#
#   TRACK 1
#
STARTTRACK: 
 LEFTX: 0.500000 inch
 RIGHTX: 3.000000 inch
 SCALETYPE: LINEAR
 NUMCHARTDIVISIONS: 10
CURVE: SP    0.000000   50.000000  (0,0,255)      Solid             2     N    
ENDTRACK: 
#
#   TRACK 2
#
STARTTRACK: 
 LEFTX: 3.500000 inch
 RIGHTX: 6.000000 inch
 SCALETYPE: LINEAR
 NUMCHARTDIVISIONS: 10
CURVE: CAL   0.000000   100.000000 (0,131,131)    Solid             2     N    
ENDTRACK: 
#
#   TRACK 3
#
STARTTRACK: 
 LEFTX: 6.000000 inch
 RIGHTX: 11.000000 inch
 SCALETYPE: LINEAR
 NUMCHARTDIVISIONS: 10
CURVE: SN40  0.000000   100.000000 (255,0,255)    Solid             2     N    
CURVE: LN160  0.000000   100.000000 (255,0,0)      Dot               2     N    
ENDTRACK: 
#
#   TRACK 4
#
STARTTRACK: 
 LEFTX: 11.000000 inch
 RIGHTX: 16.000000 inch
 SCALETYPE: LINEAR
 NUMCHARTDIVISIONS: 10
CURVE: GAM(NAT)   0.000000   50.000000  (255,131,0)    Solid             2     N    
ENDTRACK: 
<DescLogPlotEnd>
~A  DEPTH        CAL               GAM(NAT)         SP                SN40            LN160  
# ...
      26.760      28.05779570      28.48471808      18.67750607      46.22394358      48.95999539
      26.780      28.05779570      27.94055525      18.66777229      46.30252101      49.01576578
      26.800      28.05779570      27.39639243      18.69959677      46.30252101      49.07153618
      26.820      28.05779570      26.85222960      18.69959677      46.30252101      49.12730657
      26.840      28.05779570      26.30806678      18.69959677      46.30252101      49.18307696
      26.860      28.05779570      25.76390395      18.72092872      46.25581933      49.23884736
      26.880      28.05779570      25.21974112      18.73421783      45.66386555      49.26050420
      26.900      28.05779570      24.98319328      18.78110909      45.66386555      49.26050420
      26.920      28.05779570      24.98319328      18.82800035      45.61672269      49.26050420
      26.940      28.05779570      24.98319328      18.83400538      45.46218487      49.31497899
      26.960      28.05779570      24.98319328      18.88818071      45.46218487      49.39521008
      26.980      28.05779570      24.98319328      18.89394487      45.46218487      49.46218487
      27.000      28.05779570      24.98319328      18.95655085      45.46218487      49.46218487
      27.020      28.05779570      24.98319328      19.01915684      45.46218487      49.49609244
      27.040      28.05779570      24.98319328      19.08176282      45.46218487      49.66386555
      27.060      28.05779570      24.98319328      19.15623916      45.46218487      49.66386555
      27.080      28.05779570      24.98319328      19.13642473      45.46218487      49.66386555
      27.100      28.05907015      24.77863107      19.18281738      45.46218487      49.66386555
      27.120      28.06395642      24.39085226      19.22970864      45.46218487      49.66386555
      27.140      28.06884269      24.00307346      19.20362903      45.46218487      49.66386555
      27.160      28.07372896      23.61529466      19.27534253      45.46218487      49.66386555
      27.180      28.07861524      23.22751586      19.33678026      45.46218487      49.71693277
      27.200      28.08350151      22.83973706      19.33803763      45.46218487      49.86554622
      27.220      28.08838778      22.45195825      19.43056278      45.46218487      49.86554622
      27.240      28.09327405      22.06417945      19.47745404      45.46218487      49.86554622
      27.260      28.09816032      21.69372730      19.57624436      45.46218487      49.86554622
      27.280      28.10304659      21.62184874      19.67204301      45.46218487      49.86554622
      27.300      28.10793287      21.62184874      19.85355966      45.46218487      49.86554622
      27.320      28.11281914      21.76768772      19.97647849      45.46218487      49.86554622
      27.340      28.11770541      21.99093401      20.04368280      45.61867647      49.86554622
      27.360      28.12259168      22.21418030      20.11088710      45.89915966      49.86554622
      27.380      28.12500000      22.43742658      20.20614377      45.89915966      49.86554622
      27.400      28.12500000      22.66067287      20.32301422      45.91659664      49.86554622
      27.420      28.12500000      22.88391916      20.43710978      45.99682773      49.86554622
      27.440      28.12500000      23.10716545      20.48400104      46.19504202      49.80655462
      27.460      28.12500000      23.33041173      20.61491935      46.50420168      49.66386555
      27.480      28.04344433      23.55365802      20.81299861      46.50420168      49.66386555
      27.500      27.84100763      23.77690431      20.99429847      46.94117647      49.66386555
      27.520      27.65456989      24.00015060      21.33305151      46.94117647      49.66386555
      27.540      27.65456989      24.22339689      21.92813476      46.94117647      49.66386555
      27.560      27.65456989      24.44664317      22.23603885      47.34453782      49.46218487
      27.580      27.65456989      24.66988946      22.96559573      47.34453782      49.46218487
      27.600      27.65456989      24.89313575      23.49202220      47.34453782      49.46218487
      27.620      27.65456989      25.11638204      24.07594086      47.40418067      49.46218487
      27.640      27.65456989      25.33962832      24.75192941      47.51802521      49.46218487
      27.660      27.65456989      25.56287461      25.41387010      47.78151261      49.26050420
      27.680      27.65456989      25.78612090      26.03475113      47.78151261      49.26050420
      27.700      27.65456989      25.82352941      26.32598422      47.91134454      49.26050420
      27.720      27.65730142      25.82352941      26.96310267      48.28718356      49.26050420
      27.740      28.12500000      25.20168067      27.43736993      48.43009519      49.26050420
      27.760      28.12500000      25.20168067      27.78208463      48.57300683      49.14697479
      27.780      28.12500000      25.20168067      28.06752948      48.71591846      49.02521008
      27.800      28.12500000      25.30252101      28.26504509      48.85883009      49.02521008
      27.820      28.12500000      25.30252101      28.36418228      49.00174173      48.82352941
      27.840      28.12500000      25.30252101      28.47782258      49.14465336      48.82352941
      27.860      28.12500000      25.30252101      28.44422043      49.28756499      48.82352941
      27.880      28.12500000      25.30252101      28.41718696      49.43047663      48.82352941
      27.900      28.12500000      25.38919568      28.37029570      49.57338826      48.82352941
      27.920      28.12500000      25.49826744      28.25620014      49.71629989      48.62184874
      27.940      28.52822581      25.60733919      28.17570673      49.85921153      48.62184874
      27.960      28.52822581      25.71641095      28.09719476      50.00212316      48.62184874
      27.980      28.52822581      25.82548271      27.90401058      50.12565126      48.62184874
      28.000      28.52822581      25.93455447      27.71082640      50.20168067      48.61764706
      28.020      28.52822581      25.94117647      27.51764221      50.35573529      48.58823529
      28.040      28.52822581      25.94117647      27.33747399      50.53441176      48.58823529
      28.060      28.64884669      26.26097045      27.14288502      50.61464286      48.58823529
      28.080      28.81009365      26.31796151      26.98998439      50.69487395      48.58823529
      28.100      29.80510753      26.77999458      26.83890479      50.80871849      48.58823529
      28.120      29.80510753      26.88235294      26.61121228      51.26394958      48.58823529
      28.140      29.96327610      26.88235294      26.39813129      51.74789916      48.58823529
      28.160      30.20833333      26.88235294      26.10273587      51.74789916      48.58823529
      28.180      30.20833333      26.88235294      25.88516736      52.38027311      48.58823529
      28.200      30.68439993      26.88235294      25.67551162      52.78991597      48.65525210
      28.220      31.01478495      26.88235294      25.48723118      52.78991597      48.73548319
      28.240      31.01478495      26.88235294      25.25975546      53.19327731      48.78991597
      28.260      32.69489247      27.27622662      25.10984651      53.19327731      48.78991597
      28.280      32.69489247      27.34165356      24.91599462      53.53894958      48.78991597
      28.300      32.45815990      27.38183790      24.26649757      53.83193277      48.78991597
      28.320      32.29166667      27.42202223      23.97513441      53.83193277      48.78991597
      28.340      32.29166667      27.46220656      23.63889612      53.97494748      48.99159664
      28.360      32.29166667      27.50239089      23.31434270      54.17552521      48.99159664
      28.380      32.29166667      27.50420168      23.01103451      54.37610294      48.99159664
