~Version Information
 VERS.                2.0:  CWLS LOG ASCII STANDARD -VERSION 2.0
 WRAP.                 NO:  ONE LINE PER DEPTH STEP
~WELL INFORMATION BLOCK
#MNEM.UNIT       DATA		            DESCRIPTION OF MNEMONIC
#---------    -------------            ------------------------
 STRT.M      .000                        :START DEPTH
 STOP.M    82.700                        :STOP DEPTH
 STEP.M      .050                        :STEP
 NULL.    -999999.0                      :NULL VALUE
 COMP.       WML                         :COMPANY
 WELL.                          B62B0902 :WELL
 FLD .    Voerendaal                     :FIELD
 CNTY.                                   :COUNTY
 STAT.                                   :STATE
 SRVC.                                   :SERVICE COMPANY
 DATE.     04-FEB-92                     :LOG DATE
 UWI .                                   :UNIQUE WELL ID
 LIC .                                   :LICENSE NUMBER
~Curve Information Block
#MNEM.UNIT      API CODE     Curve Description
#---------    -------------  ------------------------
DEPTH    .M         00 000 00 00          :  1  DEPTH
SN40     .OHM.M     00 000 00 00          :  2  SN40
SP       .V         00 000 00 00          :  3  SP
CAL      .MM        00 000 00 00          :  4  CAL
LN160    .OHM.M     00 000 00 00          :  5  LN160
GAMMA    .CPS       00 000 00 00          :  6  GAMMA
~Parameter Information Block
#MNEM.UNIT   Information     Description
#---------- ---------------  ------------------------
 FILE.                         :File Type
 FIID.                         :File Type Identifier
 VERS.                         :System Version
 SER .                         :System Serial Number
 TRUK.                         :Truck Calibration Number
 TOOL.                         :Tool Serial Number
 TIME.                         :Time    HrHrMinMin
 LAT .                         :Latitude
 LON .                         :Longitude
 LMF .            MV           :LOG Measured FROM
 DMF .                         :Driller Measured From
 PD  .                         :Permanent Data
 PDEV.                         :Elevation Permanent Data
 EKB .M                        :Elevation Kelly Bushing
 ELEV.DF                       :Elevation DF
 EGL .M                        :Elevation Ground Level
 DRDP.                         :Drillers Depth
 CASD.                         :Casing Diameter
 CASB.                         :Casing Bottom
 CASX.                         :Casing Type
 CAST.                         :Casing Thickness
 TNOC.                         :Time Circulation Stopped
 LOGU.                         :Logging Unit
 RECB.            Bergsma      :Recorded By
 OSR1.                         :Other Services
 OSR2.                         :Other Services
 OSR3.                         :Other Services
 BS  .MM                       :Bit Size
 MST .                         :Mean Surface Temperature
 TGRD.                         :Temperature Gradiant
 MAGN.                         :Magnetic Declination
 MDEN.                         :Density Matrix
 MATR.                         :Neutron Matrix
 DTMT.                         :Delta T Matrix
 DTFL.                         :Delta T Fluid
 MUDS.                         :Mud Sample Source
 MRS .                         :Mud Resistivity
 MTP .                         :Mud Temperature
 MFRS.                         :Resistivity Mud Filtrate
 MFTP.                         :Temperature Mud Filtrate
 MCRS.                         :Resistivity Mud Cake
 MCTP.                         :Temperature Mud Cake
 FTYP.                         :Fluid Type
 FD  .K/M3                     :Fluid Density
 DFV .S                        :Fluid Viscosity
 FPH .                         :Fuild PH
 ELCO.                         :Electron Cutoff
~Other Information
#MNEM.UNIT  Information      Description
#---------- ---------------  ------------------------
# --------------------------
## COMMENTS    Top_Depth   Bot_Depth  LithCode  Lat    Long   Elev_Gl
##    Type of LithCode   Lithologie - 1970
##                    .00       10.80       13.00     
##                  10.85       11.80       23.00     
##                  11.85       15.70        6.00     
##                  15.75       16.00       23.00     
##                  16.05       28.00        7.00     
##                  28.05       46.00        9.00     
##                  46.05       46.05         .00     
##    last_layer   46.05
# --------------------------
~A DEPTH    SN40     SP       CAL      LN160    GAMMA    
# ...
    25.250    49.790      .057   256.900    45.360    12.340
    25.300    49.350      .056   257.000    45.120    12.270
    25.350    49.000      .056   257.000    44.920    11.890
    25.400    48.520      .056   257.000    44.710    11.760
    25.450    48.110      .056   256.900    44.530    11.690
    25.500    47.800      .057   256.900    44.360    11.770
    25.550    47.260      .057   256.200    44.270    11.910
    25.600    46.760      .057   255.600    44.220    11.980
    25.650    46.190      .057   255.000    44.190    12.190
    25.700    45.870      .057   254.700    44.200    12.210
    25.750    45.500      .058   255.000    44.170    12.210
    25.800    45.080      .059   255.400    44.080    12.220
    25.850    45.000      .060   256.600    43.960    12.260
    25.900    44.920      .062   257.200    43.770    12.430
    25.950    44.790      .062   257.500    43.610    12.520
    26.000    44.330      .062   257.100    43.320    12.570
    26.050    43.920      .062   256.200    43.090    12.560
    26.100    43.600      .062   256.000    42.800    12.450
    26.150    43.420      .062   256.000    42.520    12.350
    26.200    43.270      .062   255.800    42.260    12.320
    26.250    43.140      .062   255.600    42.040    12.260
    26.300    43.020      .062   255.100    41.770    12.160
    26.350    42.820      .062   254.800    41.520    12.030
    26.400    42.460      .062   254.700    41.290    12.060
    26.450    41.990      .062   254.800    41.100    12.150
    26.500    41.700      .063   254.600    40.850    12.190
    26.550    41.440      .064   254.400    40.600    12.200
    26.600    41.190      .065   254.100    40.350    12.260
    26.650    40.950      .066   254.100    40.170    12.230
    26.700    40.780      .066   254.000    39.950    12.070
    26.750    40.410      .066   254.200    39.810    11.980
    26.800    40.220      .067   254.600    39.680    11.950
    26.850    40.050      .066   255.000    39.540    11.940
    26.900    39.890      .066   255.200    39.410    11.760
    26.950    39.730      .066   256.100    39.270    11.370
    27.000    39.540      .066   256.700    39.130    11.100
    27.050    39.310      .066   257.700    38.960    11.150
    27.100    39.040      .066   260.200    38.760    11.320
    27.150    38.810      .066   261.200    38.560    11.590
    27.200    38.590      .066   258.500    38.360    11.820
    27.250    38.380      .066   256.100    38.180    11.980
    27.300    38.150      .066   256.200    38.010    12.000
    27.350    37.940      .066   257.900    37.830    11.970
    27.400    37.750      .066   260.500    37.690    11.930
    27.450    37.570      .066   262.000    37.550    11.950
    27.500    37.440      .066   261.800    37.440    12.050
    27.550    37.230      .066   253.400    37.390    12.170
    27.600    36.960      .066   252.800    37.350    12.310
    27.650    36.690      .066   253.700    37.310    12.440
    27.700    36.400      .066   254.900    37.270    12.510
    27.750    36.140      .066   256.300    37.210    12.670
    27.800    35.910      .067   257.900    37.150    13.030
    27.850    35.750      .067   262.200    37.110    13.190
    27.900    35.610      .067   262.200    37.020    13.310
    27.950    35.460      .068   258.300    36.940    13.340
    28.000    35.350      .068   258.700    36.850    13.340
    28.050    35.190      .069   259.600    36.760    13.500
    28.100    35.050      .069   260.000    36.670    13.540
    28.150    34.880      .069   260.000    36.580    13.550
    28.200    34.750      .068   259.900    36.470    13.560
    28.250    34.530      .068   260.000    36.330    13.570
    28.300    34.390      .068   260.300    36.200    13.580
    28.350    34.270      .068   260.000    36.070    13.500
    28.400    34.130      .068   260.400    35.970    13.240
    28.450    34.000      .068   262.500    35.900    13.000
    28.500    33.920      .068   263.200    35.840    12.960
    28.550    33.800      .068   262.000    35.820    13.040
    28.600    33.630      .067   260.600    35.790    13.190
    28.650    33.530      .067   260.400    35.760    13.250
    28.700    33.380      .067   260.000    35.730    13.200
    28.750    33.220      .067   259.600    35.670    13.120
    28.800    33.120      .067   260.100    35.610    13.030
    28.850    33.100      .067   261.700    35.540    13.050
    28.900    33.110      .067   262.900    35.450    13.170
    28.950    33.040      .067   263.000    35.360    13.440
    29.000    32.980      .067   261.800    35.290    13.500
    29.050    32.900      .067   259.500    35.200    13.590
    29.100    32.830      .067   259.100    35.120    13.850
    29.150    32.750      .066   259.900    35.040    14.060
    29.200    32.660      .066   260.900    34.960    14.130
    29.250    32.570      .066   261.200    34.880    14.350
    29.300    32.480      .066   261.000    34.810    14.580
    29.350    32.400      .066   260.400    34.750    14.650
    29.400    32.370      .066   259.700    34.670    14.660
    29.450    32.340      .066   258.900    34.600    14.610
    29.500    32.300      .067   259.000    34.520    14.560
    29.550    32.250      .067   259.400    34.450    14.540
    29.600    32.230      .066   259.700    34.380    14.560
    29.650    32.220      .066   259.800    34.310    14.600
    29.700    32.220      .066   259.700    34.260    14.790
    29.750    32.220      .066   260.000    34.210    15.050
    29.800    32.230      .066   260.400    34.160    15.760
    29.850    32.250      .066   260.700    34.090    16.040
    29.900    32.250      .066   260.600    34.020    16.130
    29.950    32.210      .066   261.100    33.950    16.270
    30.000    32.160      .066   261.900    33.870    16.360
    30.050    32.080      .066   261.900    33.780    16.420
    30.100    32.040      .066   260.200    33.710    16.470
    30.150    32.020      .065   254.500    33.640    16.470
    30.200    32.000      .065   258.100    33.570    16.450
    30.250    31.980      .065   258.700    33.510    16.410
    30.300    32.030      .065   259.000    33.460    16.400
    30.350    32.080      .065   259.300    33.470    16.470
    30.400    32.140      .065   259.600    33.470    16.560
    30.450    32.150      .065   259.800    33.480    16.630
    30.500    32.160      .065   260.100    33.490    16.660
    30.550    32.170      .065   260.500    33.500    16.620
    30.600    32.160      .065   261.200    33.510    16.540
    30.650    32.150      .065   261.800    33.520    16.660
    30.700    32.120      .065   263.400    33.520    16.760
    30.750    32.100      .065   263.800    33.500    16.740
    30.800    32.060      .064   264.100    33.490    16.580
    30.850    32.020      .064   264.200    33.480    16.350
    30.900    31.960      .064   264.100    33.470    16.240
    30.950    31.880      .064   263.900    33.460    16.210
    31.000    31.810      .064   264.100    33.450    16.170
    31.050    31.690      .064   264.000    33.450    15.920
    31.100    31.550      .064   263.300    33.440    15.540
    31.150    31.410      .064   263.200    33.440    15.340
    31.200    31.210      .064   263.400    33.430    15.360
    31.250    31.080      .064   262.600    33.440    15.590
    31.300    30.940      .064   262.300    33.440    15.960
    31.350    30.810      .064   260.900    33.440    17.070
    31.400    30.660      .064   259.600    33.450    17.580
    31.450    30.560      .064   259.000    33.450    17.930
    31.500    30.460      .064   260.400    33.450    18.280
    31.550    30.380      .064   261.700    33.460    18.950
    31.600    30.310      .064   261.200    33.460    19.080
    31.650    30.250      .063   257.900    33.450    19.190
    31.700    30.190      .063   257.700    33.440    19.200
    31.750    30.130      .063   257.500    33.430    19.130
    31.800    30.080      .063   257.000    33.410    18.120
