~Version Information
 VERS.                2.0:  CWLS LOG ASCII STANDARD -VERSION 2.0
 WRAP.                 NO:  ONE LINE PER DEPTH STEP
~WELL INFORMATION BLOCK
#MNEM.UNIT       DATA		            DESCRIPTION OF MNEMONIC
#---------    -------------            ------------------------
 STRT.M      .000                        :START DEPTH
 STOP.M    99.850                        :STOP DEPTH
 STEP.M      .050                        :STEP
 NULL.    -999999.0                      :NULL VALUE
 COMP.       WML                         :COMPANY
 WELL.                          B62B0901 :WELL
 FLD .    Klimmen                        :FIELD
 CNTY.                                   :COUNTY
 STAT.                                   :STATE
 SRVC.                                   :SERVICE COMPANY
 DATE.     17-JAN-92                     :LOG DATE
 UWI .                                   :UNIQUE WELL ID
 LIC .                                   :LICENSE NUMBER
~Curve Information Block
#MNEM.UNIT      API CODE     Curve Description
#---------    -------------  ------------------------
DEPTH    .M         00 000 00 00          :  1  DEPTH
SN40     .OHM.M     00 000 00 00          :  2  SN40
SP       .V         00 000 00 00          :  3  SP
CAL      .MM        00 000 00 00          :  4  CAL
LN160    .OHM.M     00 000 00 00          :  5  LN160
GAMMA    .CPS       00 000 00 00          :  6  GAMMA
~Parameter Information Block
#MNEM.UNIT   Information     Description
#---------- ---------------  ------------------------
 FILE.                         :File Type
 FIID.                         :File Type Identifier
 VERS.                         :System Version
 SER .                         :System Serial Number
 TRUK.                         :Truck Calibration Number
 TOOL.                         :Tool Serial Number
 TIME.                         :Time    HrHrMinMin
 LAT .                         :Latitude
 LON .                         :Longitude
 LMF .            MV           :LOG Measured FROM
 DMF .                         :Driller Measured From
 PD  .                         :Permanent Data
 PDEV.                         :Elevation Permanent Data
 EKB .M                        :Elevation Kelly Bushing
 ELEV.DF                       :Elevation DF
 EGL .M                        :Elevation Ground Level
 DRDP.                         :Drillers Depth
 CASD.                         :Casing Diameter
 CASB.                         :Casing Bottom
 CASX.                         :Casing Type
 CAST.                         :Casing Thickness
 TNOC.                         :Time Circulation Stopped
 LOGU.                         :Logging Unit
 RECB.            Bergsma      :Recorded By
 OSR1.                         :Other Services
 OSR2.                         :Other Services
 OSR3.                         :Other Services
 BS  .MM                       :Bit Size
 MST .                         :Mean Surface Temperature
 TGRD.                         :Temperature Gradiant
 MAGN.                         :Magnetic Declination
 MDEN.                         :Density Matrix
 MATR.                         :Neutron Matrix
 DTMT.                         :Delta T Matrix
 DTFL.                         :Delta T Fluid
 MUDS.                         :Mud Sample Source
 MRS .                         :Mud Resistivity
 MTP .                         :Mud Temperature
 MFRS.                         :Resistivity Mud Filtrate
 MFTP.                         :Temperature Mud Filtrate
 MCRS.                         :Resistivity Mud Cake
 MCTP.                         :Temperature Mud Cake
 FTYP.                         :Fluid Type
 FD  .K/M3                     :Fluid Density
 DFV .S                        :Fluid Viscosity
 FPH .                         :Fuild PH
 ELCO.                         :Electron Cutoff
~Other Information
#MNEM.UNIT  Information      Description
#---------- ---------------  ------------------------
# --------------------------
## COMMENTS    Top_Depth   Bot_Depth  LithCode  Lat    Long   Elev_Gl
##    Type of LithCode   Lithologie - 1970
##                    .00         .30        7.00     
##                    .35        4.60       11.00     
##                   4.65       77.95         .00     
##                  78.00       88.95        7.00     
##                  89.00       99.05       10.00     
##                  99.10       99.10         .00     
##    last_layer   99.1
# --------------------------
~A DEPTH    SN40     SP       CAL      LN160    GAMMA    
# ...
    31.250 -999999.0  -999999.0    249.400 -999999.0     16.690
    31.300 -999999.0  -999999.0    249.500 -999999.0     16.370
    31.350 -999999.0  -999999.0    252.800 -999999.0     16.210
    31.400 -999999.0  -999999.0    256.000 -999999.0     16.530
    31.450 -999999.0  -999999.0    257.300 -999999.0     17.140
    31.500 -999999.0  -999999.0    256.900 -999999.0     17.710
    31.550 -999999.0  -999999.0    251.300 -999999.0     17.890
    31.600 -999999.0  -999999.0    247.800 -999999.0     17.980
    31.650 -999999.0  -999999.0    246.400 -999999.0     18.100
    31.700 -999999.0  -999999.0    246.600 -999999.0     18.280
    31.750 -999999.0  -999999.0    246.900 -999999.0     18.480
    31.800 -999999.0  -999999.0    246.800 -999999.0     18.520
    31.850 -999999.0  -999999.0    247.000 -999999.0     18.560
    31.900 -999999.0  -999999.0    247.300 -999999.0     18.640
    31.950 -999999.0  -999999.0    247.400 -999999.0     18.900
    32.000 -999999.0  -999999.0    247.000 -999999.0     18.980
    32.050 -999999.0  -999999.0    245.900 -999999.0     18.910
    32.100 -999999.0  -999999.0    244.700 -999999.0     19.140
    32.150 -999999.0  -999999.0    244.800 -999999.0     19.250
    32.200 -999999.0  -999999.0    245.900 -999999.0     18.970
    32.250 -999999.0  -999999.0    247.500 -999999.0     18.440
    32.300 -999999.0  -999999.0    249.700 -999999.0     18.190
    32.350 -999999.0  -999999.0    251.400 -999999.0     18.250
    32.400 -999999.0  -999999.0    250.800 -999999.0     18.350
    32.450 -999999.0  -999999.0    251.200 -999999.0     18.510
    32.500 -999999.0  -999999.0    246.900 -999999.0     18.720
    32.550 -999999.0  -999999.0    245.000 -999999.0     18.850
    32.600 -999999.0  -999999.0    244.200 -999999.0     18.990
    32.650 -999999.0  -999999.0    245.900 -999999.0     19.160
    32.700 -999999.0  -999999.0    249.100 -999999.0     20.220
    32.750 -999999.0  -999999.0    249.800 -999999.0     21.210
    32.800 -999999.0  -999999.0    249.900 -999999.0     21.400
    32.850 -999999.0  -999999.0    250.300 -999999.0     21.350
    32.900 -999999.0  -999999.0    250.700 -999999.0     21.180
    32.950 -999999.0  -999999.0    250.400 -999999.0     20.910
    33.000 -999999.0  -999999.0    249.400 -999999.0     19.790
    33.050 -999999.0  -999999.0    249.300 -999999.0     18.680
    33.100 -999999.0  -999999.0    252.700 -999999.0     18.250
    33.150 -999999.0  -999999.0    257.800 -999999.0     17.850
    33.200 -999999.0  -999999.0    258.700 -999999.0     17.220
    33.250 -999999.0  -999999.0    256.500 -999999.0     16.870
    33.300 -999999.0  -999999.0    253.600 -999999.0     16.370
    33.350 -999999.0  -999999.0    251.300 -999999.0     16.110
    33.400 -999999.0  -999999.0    245.200 -999999.0     16.260
    33.450 -999999.0  -999999.0    243.800 -999999.0     16.590
    33.500 -999999.0  -999999.0    244.500 -999999.0     16.960
    33.550 -999999.0  -999999.0    246.100 -999999.0     16.880
    33.600 -999999.0  -999999.0    245.500 -999999.0     17.200
    33.650 -999999.0  -999999.0    245.400 -999999.0     17.700
    33.700 -999999.0  -999999.0    247.600 -999999.0     18.370
    33.750 -999999.0  -999999.0    251.200 -999999.0     18.570
    33.800 -999999.0  -999999.0    252.900 -999999.0     18.760
    33.850 -999999.0  -999999.0    256.300 -999999.0     18.950
    33.900 -999999.0  -999999.0    257.800 -999999.0     19.050
    33.950 -999999.0  -999999.0    255.500 -999999.0     19.050
    34.000 -999999.0  -999999.0    253.000 -999999.0     19.010
    34.050 -999999.0  -999999.0    245.300 -999999.0     18.970
    34.100 -999999.0  -999999.0    243.100 -999999.0     18.970
    34.150 -999999.0  -999999.0    243.100 -999999.0     19.200
    34.200 -999999.0  -999999.0    243.100 -999999.0     19.370
    34.250 -999999.0  -999999.0    243.100 -999999.0     19.320
    34.300 -999999.0  -999999.0    242.900 -999999.0     19.270
    34.350 -999999.0  -999999.0    242.600 -999999.0     19.310
    34.400 -999999.0  -999999.0    242.200 -999999.0     19.430
    34.450 -999999.0  -999999.0    241.900 -999999.0     19.520
    34.500 -999999.0  -999999.0    241.900 -999999.0     19.470
    34.550 -999999.0  -999999.0    242.200 -999999.0     19.240
    34.600 -999999.0  -999999.0    242.600 -999999.0     19.050
    34.650 -999999.0  -999999.0    242.900 -999999.0     18.330
    34.700 -999999.0  -999999.0    243.300 -999999.0     18.020
    34.750 -999999.0  -999999.0    243.400 -999999.0     16.250
    34.800 -999999.0  -999999.0    243.600 -999999.0     15.660
    34.850 -999999.0  -999999.0    243.600 -999999.0     14.660
    34.900 -999999.0  -999999.0    243.700 -999999.0     14.020
    34.950 -999999.0  -999999.0    243.900 -999999.0     13.400
    35.000 -999999.0  -999999.0    244.500 -999999.0     12.500
    35.050 -999999.0  -999999.0    245.500 -999999.0     12.360
    35.100 -999999.0  -999999.0    246.000 -999999.0     12.330
    35.150 -999999.0  -999999.0    245.700 -999999.0     12.380
    35.200    68.060 -999999.0    246.000 -999999.0     12.440
    35.250    67.870 -999999.0    246.300 -999999.0     12.520
    35.300    67.090 -999999.0    246.700 -999999.0     12.460
    35.350    66.820 -999999.0    246.900 -999999.0     12.280
    35.400    65.120 -999999.0    246.900 -999999.0     12.180
    35.450    61.640 -999999.0    246.700 -999999.0     12.190
    35.500    60.440 -999999.0    245.000 -999999.0     12.350
    35.550    59.840 -999999.0    244.200 -999999.0     12.510
    35.600    59.650 -999999.0    244.200 -999999.0     12.610
    35.650    59.640 -999999.0    244.300    55.300    12.760
    35.700    61.150 -999999.0    244.800    54.540    12.900
    35.750    61.790 -999999.0    245.400    52.940    13.020
    35.800    61.620 -999999.0    246.300    50.300    13.110
    35.850    61.350 -999999.0    247.500    48.840    13.210
    35.900    60.960 -999999.0    248.400    48.170    13.260
    35.950    60.280 -999999.0    248.800    47.510    13.330
    36.000    59.690 -999999.0    248.900    47.260    13.690
    36.050    58.740 -999999.0    248.800    47.150    13.980
    36.100    57.580 -999999.0    248.500    47.140    14.160
    36.150    55.480 -999999.0    247.300    47.200    14.190
    36.200    51.970 -999999.0    245.900    47.270    14.040
    36.250    50.750 -999999.0    244.600    47.360    13.760
    36.300    49.260 -999999.0    244.600    47.450    13.120
    36.350    48.150 -999999.0    244.700    47.510    12.880
    36.400    44.710 -999999.0    244.700    47.520    12.860
    36.450    43.660 -999999.0    246.100    47.470    12.940
    36.500    42.780 -999999.0    248.400    47.410    13.040
    36.550    41.940 -999999.0    249.200    47.340    13.160
    36.600    41.450 -999999.0    247.700    47.270    13.300
    36.650    40.990 -999999.0    245.400    47.230    13.540
    36.700    40.600 -999999.0    244.400    47.190    13.730
    36.750    40.310 -999999.0    248.100    47.190    14.450
    36.800    40.080      .025   250.000    47.200    15.280
    36.850    39.090      .025   251.100    47.250    15.820
    36.900    38.490      .025   252.200    47.350    16.330
    36.950    37.970      .026   253.100    47.500    17.640
    37.000    37.400      .026   253.300    47.820    18.780
    37.050    36.670      .026   249.500    48.100    19.220
    37.100    36.160      .026   245.600    48.480    19.660
    37.150    35.450      .026   244.900    49.260    20.080
    37.200    34.990      .026   245.100    49.990    20.160
    37.250    34.650      .026   245.500    50.330    20.450
    37.300    34.390      .026   245.800    50.520    21.300
    37.350    34.190      .026   246.100    50.650    21.870
    37.400    34.050      .026   246.300    50.710    22.230
    37.450    33.870      .026   246.600    50.640    22.420
    37.500    33.660      .025   246.800    50.480    22.650
    37.550    33.520      .025   247.100    49.990    23.000
