~Version Information
 VERS.                2.0:  CWLS LOG ASCII STANDARD -VERSION 2.0
 WRAP.                 NO:  ONE LINE PER DEPTH STEP
~WELL INFORMATION BLOCK
#MNEM.UNIT       DATA		            DESCRIPTION OF MNEMONIC
#---------    -------------            ------------------------
 STRT.M      .450                        :START DEPTH
 STOP.M   #######                        :STOP DEPTH
 STEP.M      .050                        :STEP
 NULL.    -999999.0                      :NULL VALUE
 COMP.       SCHIFOOD                    :COMPANY
 WELL.                          B62B0897 :WELL
 FLD .    Heerlen                        :FIELD
 CNTY.                                   :COUNTY
 STAT.                                   :STATE
 SRVC.                                   :SERVICE COMPANY
 DATE.     10-DEC-90                     :LOG DATE
 UWI .                                   :UNIQUE WELL ID
 LIC .                                   :LICENSE NUMBER
~Curve Information Block
#MNEM.UNIT      API CODE     Curve Description
#---------    -------------  ------------------------
DEPTH    .M         00 000 00 00          :  1  DEPTH
SN40     .OHM.M     00 000 00 00          :  2  SN40
SP       .V         00 000 00 00          :  3  SP
CAL      .MM        00 000 00 00          :  4  CAL
LN160    .OHM.M     00 000 00 00          :  5  LN160
GAMMA    .CPS       00 000 00 00          :  6  GAMMA
~Parameter Information Block
#MNEM.UNIT   Information     Description
#---------- ---------------  ------------------------
 FILE.                         :File Type
 FIID.                         :File Type Identifier
 VERS.                         :System Version
 SER .                         :System Serial Number
 TRUK.                         :Truck Calibration Number
 TOOL.                         :Tool Serial Number
 TIME.                         :Time    HrHrMinMin
 LAT .                         :Latitude
 LON .                         :Longitude
 LMF .            MV           :LOG Measured FROM
 DMF .                         :Driller Measured From
 PD  .                         :Permanent Data
 PDEV.                         :Elevation Permanent Data
 EKB .M                        :Elevation Kelly Bushing
 ELEV.DF                       :Elevation DF
 EGL .M                        :Elevation Ground Level
 DRDP.                         :Drillers Depth
 CASD.                         :Casing Diameter
 CASB.                         :Casing Bottom
 CASX.                         :Casing Type
 CAST.                         :Casing Thickness
 TNOC.                         :Time Circulation Stopped
 LOGU.                         :Logging Unit
 RECB.            Bergsma      :Recorded By
 OSR1.                         :Other Services
 OSR2.                         :Other Services
 OSR3.                         :Other Services
 BS  .MM                       :Bit Size
 MST .                         :Mean Surface Temperature
 TGRD.                         :Temperature Gradiant
 MAGN.                         :Magnetic Declination
 MDEN.                         :Density Matrix
 MATR.                         :Neutron Matrix
 DTMT.                         :Delta T Matrix
 DTFL.                         :Delta T Fluid
 MUDS.                         :Mud Sample Source
 MRS .                         :Mud Resistivity
 MTP .                         :Mud Temperature
 MFRS.                         :Resistivity Mud Filtrate
 MFTP.                         :Temperature Mud Filtrate
 MCRS.                         :Resistivity Mud Cake
 MCTP.                         :Temperature Mud Cake
 FTYP.                         :Fluid Type
 FD  .K/M3                     :Fluid Density
 DFV .S                        :Fluid Viscosity
 FPH .                         :Fuild PH
 ELCO.                         :Electron Cutoff
~Other Information
#MNEM.UNIT  Information      Description
#---------- ---------------  ------------------------
# --------------------------
## COMMENTS    Top_Depth   Bot_Depth  LithCode  Lat    Long   Elev_Gl
##    Type of LithCode   Lithologie - 1970
##                    .00         .00         .00     
##                    .45        6.00         .00     
##                   6.05        8.10        2.00     
##                   8.15       15.30       23.00     
##                  15.35       18.50       22.00     
##                  18.55       20.80       11.00     
##                  20.85       22.35       12.00     
##                  22.40       23.40       11.00     
##                  23.45       25.30       12.00     
##                  25.35       26.25       11.00     
##                  26.30       27.80       12.00     
##                  27.85       35.10       11.00     
##                  35.15       47.80       12.00     
##                  47.85       50.40        6.00     
##                  50.45       52.00       23.00     
##                  52.05       53.20       11.00     
##                  53.25       54.60       12.00     
##                  54.65       55.50       11.00     
##                  55.55       56.50       12.00     
##                  56.55       57.25       11.00     
##                  57.30       58.60       12.00     
##                  58.65       64.40       11.00     
##                  64.45       71.10        9.00     
##                  71.15       74.20        7.00     
##                  74.25       75.90        9.00     
##                  75.95       78.90        7.00     
##                  78.95       93.30        9.00     
##                  93.35       95.20       10.00     
##                  95.25       97.60        9.00     
##                  97.65       99.95       10.00     
##                 100.00      100.00         .00     
##                 100.05      126.75     #######     
##    last_layer   126.75
# --------------------------
~A DEPTH    SN40     SP       CAL      LN160    GAMMA    
# ...
   112.250    46.340      .030   458.900    61.450    10.360
   112.300    46.120      .030   457.600    61.170    10.370
   112.350    45.960      .030   456.900    61.050    10.800
   112.400    45.680      .030   453.900    61.000    11.380
   112.450    45.440      .030   451.500    60.960    11.960
   112.500    45.180      .030   451.600    60.980    12.470
   112.550    44.840      .030   454.100    61.000    12.770
   112.600    44.380      .030   456.300    61.100    12.780
   112.650    44.000      .031   455.600    61.180    12.860
   112.700    43.550      .031   454.000    61.370    12.990
   112.750    43.110      .031   453.900    61.530    13.300
   112.800    42.660      .032   454.600    61.730    13.610
   112.850    42.220      .032   456.100    61.900    13.930
   112.900    41.770      .032   455.400    62.130    13.610
   112.950    41.280      .032   453.200    62.450    13.300
   113.000    40.770      .032   450.500    62.760    12.980
   113.050    40.260      .032   447.700    63.080    12.670
   113.100    39.950      .032   446.900    63.310    12.600
   113.150    39.800      .032   447.200    63.400    12.780
   113.200    39.720      .032   449.000    63.380    12.780
   113.250    39.660      .032   450.700    63.340    12.420
   113.300    39.690      .032   452.100    63.170    12.230
   113.350    39.710      .031   452.900    63.000    12.070
   113.400    39.800      .031   452.900    62.770    11.810
   113.450    39.940      .031   453.300    62.500    11.740
   113.500    40.110      .031   453.700    62.270    11.820
   113.550    40.290      .031   452.800    62.050    11.930
   113.600    40.450      .031   451.000    61.900    11.960
   113.650    40.790      .031   449.700    61.750    11.830
   113.700    41.280      .030   450.300    61.690    11.750
   113.750    41.710      .030   452.200    61.590    11.710
   113.800    42.320      .030   454.100    61.470    11.680
   113.850    43.170      .030   455.900    61.230    11.630
   113.900    43.830      .030   457.900    60.750    11.580
   113.950    44.480      .030   457.900    60.470    11.520
   114.000    45.140      .030   456.700    60.180    11.360
   114.050    45.790      .030   455.500    60.010    10.870
   114.100    46.450      .030   454.900    59.910    10.670
   114.150    47.160      .030   455.100    59.790    10.560
   114.200    47.970      .030   456.100    59.780    10.480
   114.250    48.780      .030   457.900    59.740    10.410
   114.300    49.590      .029   459.700    59.710    10.310
   114.350    50.410      .029   460.500    59.690    10.150
   114.400    51.040      .029   460.600    59.700     9.950
   114.450    51.430      .029   456.700    59.740     9.880
   114.500    51.920      .028   454.200    59.830     9.830
   114.550    52.280      .028   453.600    59.940     9.750
   114.600    52.470      .028   453.000    60.050     9.640
   114.650    52.590      .028   453.700    60.210     9.490
   114.700    52.720      .028   455.100    60.360     9.410
   114.750    53.020      .028   457.800    60.710     9.350
   114.800    53.340      .028   458.900    61.140     9.250
   114.850    53.530      .028   458.900    61.570     9.110
   114.900    53.570      .028   458.600    62.250     8.980
   114.950    53.490      .028   458.600    63.460     8.940
   115.000    53.290      .028   458.800    64.060     8.990
   115.050    52.880      .028   458.900    64.880     9.110
   115.100    52.490      .028   459.100    65.450     9.250
   115.150    52.220      .028   458.700    66.010     9.400
   115.200    52.060      .028   458.300    66.740     9.550
   115.250    51.980      .028   458.000    67.120     9.710
   115.300    51.980      .028   457.400    67.730     9.860
   115.350    52.060      .028   456.700    68.190    10.020
   115.400    52.420      .028   455.700    68.460    10.170
   115.450    52.840      .028   455.200    68.600    10.310
   115.500    53.360      .028   454.700    68.610    10.420
   115.550    53.760      .027   454.300    68.550    10.400
   115.600    54.020      .027   455.200    68.440    10.330
   115.650    54.350      .027   456.100    68.250    10.050
   115.700    54.780      .027   456.600    67.960     9.800
   115.750    55.020      .027   456.500    67.540     9.610
   115.800    55.320      .027   456.400    67.080     9.540
   115.850    55.440      .027   456.700    66.600     9.620
   115.900    55.580      .027   457.000    65.900     9.740
   115.950    55.900      .027   457.200    65.150    10.090
   116.000    56.200      .027   457.200    64.780    10.430
   116.050    56.520      .027   456.900    64.490    10.780
   116.100    56.690      .027   456.400    64.350    11.120
   116.150    56.770      .027   455.900    64.250    11.220
   116.200    56.790      .027   455.900    64.080    11.080
   116.250    56.730      .027   456.700    63.840    10.860
   116.300    56.560      .027   457.400    63.380    10.740
   116.350    56.230      .027   458.600    62.910    10.660
   116.400    55.730      .027   459.700    62.490    10.520
   116.450    55.130      .027   459.200    62.170    10.490
   116.500    54.470      .027   458.500    61.980    10.460
   116.550    53.980      .027   457.100    61.870    10.430
   116.600    53.570      .027   455.900    61.790    10.450
   116.650    53.090      .027   456.600    61.740    10.450
   116.700    52.650      .027   456.600    61.690    10.500
   116.750    52.260      .027   455.200    61.660    10.620
   116.800    51.830      .027   453.300    61.660    10.780
   116.850    51.380      .027   451.700    61.660    10.880
   116.900    50.930      .027   450.600    61.670    10.980
   116.950    50.420      .027   450.000    61.710    10.920
   117.000    49.880      .027   449.700    61.800    10.750
   117.050    49.030      .027   449.700    61.890    10.590
   117.100    48.630      .028   450.100    62.030    10.400
   117.150    48.270      .028   450.800    62.310    10.270
   117.200    48.060      .028   452.300    62.700    10.300
   117.250    47.870      .028   453.700    62.920    10.420
   117.300    47.690      .028   456.600    63.150    10.550
   117.350    47.520      .028   457.900    63.350    10.850
   117.400    47.360      .028   459.400    63.500    11.350
   117.450    47.130      .028   459.400    63.540    11.630
   117.500    46.660      .029   458.900    63.560    11.770
   117.550    46.260      .029   458.200    63.550    11.930
   117.600    45.900      .029   454.400    63.440    12.080
   117.650    45.450      .029   450.300    63.300    12.370
   117.700    45.040      .029   451.100    63.150    12.480
   117.750    44.760      .030   452.900    62.740    12.420
   117.800    44.440      .030   454.800    62.340    12.320
   117.850    44.320      .030   456.400    61.900    12.300
   117.900    44.250      .031   457.200    61.640    12.390
   117.950    44.210      .031   457.800    61.380    12.360
   118.000    44.160      .031   457.800    61.160    12.190
   118.050    44.050      .031   458.200    60.860    12.040
   118.100    43.900      .030   457.300    60.520    11.940
   118.150    43.770      .030   456.700    60.260    11.850
   118.200    43.690      .030   456.200    60.070    11.900
   118.250    43.670      .030   456.100    59.890    11.970
   118.300    43.720      .030   456.000    59.750    12.070
   118.350    43.830      .029   456.200    59.640    12.140
   118.400    43.960      .029   456.600    59.570    12.180
   118.450    44.050      .029   457.000    59.490    12.200
   118.500    44.110      .029   457.400    59.420    12.240
   118.550    44.160      .029   456.100    59.390    12.210
   118.600    44.190      .029   455.400    59.350    11.970
   118.650    44.190      .028   455.700    59.330    11.710
   118.700    44.200      .028   455.900    59.320    11.460
   118.750    44.200      .028   455.600    59.340    11.290
   118.800    44.240      .028   455.000    59.360    11.290
