~Version Information
 VERS.                2.0:  CWLS LOG ASCII STANDARD -VERSION 2.0
 WRAP.                 NO:  ONE LINE PER DEPTH STEP
~WELL INFORMATION BLOCK
#MNEM.UNIT       DATA		            DESCRIPTION OF MNEMONIC
#---------    -------------            ------------------------
 STRT.M      .000                        :START DEPTH
 STOP.M   #######                        :STOP DEPTH
 STEP.M      .050                        :STEP
 NULL.    -999999.0                      :NULL VALUE
 COMP.       SCHIFOOD                    :COMPANY
 WELL.                          B62B0896 :WELL
 FLD .    Hoensbroek                     :FIELD
 CNTY.                                   :COUNTY
 STAT.                                   :STATE
 SRVC.                                   :SERVICE COMPANY
 DATE.     17-JUL-90                     :LOG DATE
 UWI .                                   :UNIQUE WELL ID
 LIC .                                   :LICENSE NUMBER
~Curve Information Block
#MNEM.UNIT      API CODE     Curve Description
#---------    -------------  ------------------------
DEPTH    .M         00 000 00 00          :  1  DEPTH
SN40     .OHM.M     00 000 00 00          :  2  SN40
SP       .V         00 000 00 00          :  3  SP
CAL      .MM        00 000 00 00          :  4  CAL
LN160    .OHM.M     00 000 00 00          :  5  LN160
GAMMA    .CPS       00 000 00 00          :  6  GAMMA
~Parameter Information Block
#MNEM.UNIT   Information     Description
#---------- ---------------  ------------------------
 FILE.                         :File Type
 FIID.                         :File Type Identifier
 VERS.                         :System Version
 SER .                         :System Serial Number
 TRUK.                         :Truck Calibration Number
 TOOL.                         :Tool Serial Number
 TIME.                         :Time    HrHrMinMin
 LAT .                         :Latitude
 LON .                         :Longitude
 LMF .            MV           :LOG Measured FROM
 DMF .                         :Driller Measured From
 PD  .                         :Permanent Data
 PDEV.                         :Elevation Permanent Data
 EKB .M                        :Elevation Kelly Bushing
 ELEV.DF                       :Elevation DF
 EGL .M                        :Elevation Ground Level
 DRDP.                         :Drillers Depth
 CASD.                         :Casing Diameter
 CASB.                         :Casing Bottom
 CASX.                         :Casing Type
 CAST.                         :Casing Thickness
 TNOC.                         :Time Circulation Stopped
 LOGU.                         :Logging Unit
 RECB.            Bergsma      :Recorded By
 OSR1.                         :Other Services
 OSR2.                         :Other Services
 OSR3.                         :Other Services
 BS  .MM                       :Bit Size
 MST .                         :Mean Surface Temperature
 TGRD.                         :Temperature Gradiant
 MAGN.                         :Magnetic Declination
 MDEN.                         :Density Matrix
 MATR.                         :Neutron Matrix
 DTMT.                         :Delta T Matrix
 DTFL.                         :Delta T Fluid
 MUDS.                         :Mud Sample Source
 MRS .            6            :Mud Resistivity
 MTP .            19           :Mud Temperature
 MFRS.                         :Resistivity Mud Filtrate
 MFTP.                         :Temperature Mud Filtrate
 MCRS.                         :Resistivity Mud Cake
 MCTP.                         :Temperature Mud Cake
 FTYP.                         :Fluid Type
 FD  .K/M3                     :Fluid Density
 DFV .S                        :Fluid Viscosity
 FPH .                         :Fuild PH
 ELCO.                         :Electron Cutoff
~Other Information
#MNEM.UNIT  Information      Description
#---------- ---------------  ------------------------
# --------------------------
## COMMENTS    Top_Depth   Bot_Depth  LithCode  Lat    Long   Elev_Gl
##    Type of LithCode   Lithologie - 1970
##                    .00        6.00         .00     
##                   6.05        8.00        2.00     
##                   8.05       11.50       22.00     
##                  11.55       15.20       23.00     
##                  15.25       19.00       22.00     
##                  19.05       20.25       11.00     
##                  20.30       22.10       12.00     
##                  22.15       23.70       11.00     
##                  23.75       25.15       12.00     
##                  25.20       26.10       11.00     
##                  26.15       27.20       12.00     
##                  27.25       35.00       11.00     
##                  35.05       47.55       12.00     
##                  47.60       51.00        7.00     
##                  51.05       52.25       11.00     
##                  52.30       54.00        7.00     
##                  54.05       55.10       11.00     
##                  55.15       58.00       12.00     
##                  58.05       62.60       11.00     
##                  62.65       67.20        8.00     
##                  67.25       70.05        9.00     
##                  70.10       74.00        7.00     
##                  74.05       75.40        8.00     
##                  75.45       80.00        7.00     
##                  80.05       92.40        9.00     
##                  92.45       94.50       10.00     
##                  94.55       96.90        8.00     
##                  96.95       99.30       10.00     
##                  99.35       99.35         .00     
##    last_layer   99.35
# --------------------------
~A DEPTH    SN40     SP       CAL      LN160    GAMMA    
# ...
    39.400    16.930      .075   592.600    23.620    25.060
    39.450    16.780      .075   591.200    23.630    25.210
    39.500    16.640      .075   589.600    23.650    25.350
    39.550    16.490      .075   588.700    23.660    25.470
    39.600    16.360      .074   588.100    23.680    25.520
    39.650    16.300      .074   587.400    23.700    25.500
    39.700    16.290      .074   586.500    23.700    25.440
    39.750    16.270      .074   585.500    23.700    25.380
    39.800    16.260      .074   583.800    23.700    25.210
    39.850    16.240      .074   582.500    23.700    25.060
    39.900    16.240      .074   580.900    23.690    25.030
    39.950    16.250      .074   575.700    23.670    25.020
    40.000    16.270      .074   572.300    23.650    24.960
    40.050    16.290      .074   570.300    23.630    24.900
    40.100    16.320      .074   574.100    23.610    24.920
    40.150    16.350      .074   578.100    23.590    25.000
    40.200    16.380      .074   574.200    23.550    25.100
    40.250    16.410      .074   570.300    23.520    25.160
    40.300    16.460      .074   569.700    23.480    25.170
    40.350    16.510      .074   578.000    23.440    25.140
    40.400    16.560      .074   586.400    23.410    25.040
    40.450    16.600      .074   594.700    23.360    24.860
    40.500    16.640      .074   596.700    23.310    24.740
    40.550    16.670      .074   595.900    23.240    24.470
    40.600    16.700      .074   595.400    23.160    24.310
    40.650    16.730      .074   595.800    23.090    24.210
    40.700    16.760      .074   596.900    23.020    24.160
    40.750    16.790      .074   598.600    22.960    24.190
    40.800    16.820      .074   601.200    22.890    24.210
    40.850    16.850      .074   601.700    22.830    24.150
    40.900    16.870      .073   601.300    22.770    24.060
    40.950    16.880      .073   600.600    22.710    23.800
    41.000    16.890      .073   600.000    22.650    23.620
    41.050    16.890      .073   600.300    22.620    23.350
    41.100    16.890      .073   601.700    22.590    23.220
    41.150    16.870      .073   604.300    22.580    23.290
    41.200    16.850      .073   604.800    22.570    23.410
    41.250    16.800      .073   606.100    22.580    23.580
    41.300    16.730      .072   607.800    22.590    23.670
    41.350    16.660      .072   609.600    22.610    23.680
    41.400    16.590      .072   610.900    22.650    23.670
    41.450    16.510      .072   611.400    22.700    23.660
    41.500    16.420      .072   610.600    22.760    23.590
    41.550    16.350      .072   609.000    22.820    23.500
    41.600    16.230      .072   606.800    22.900    23.430
    41.650    16.170      .072   603.500    22.990    23.380
    41.700    16.120      .072   602.900    23.060    23.370
    41.750    16.090      .073   602.800    23.140    23.440
    41.800    16.080      .073   602.500    23.250    23.590
    41.850    16.070      .073   601.900    23.360    23.790
    41.900    16.080      .074   601.400    23.460    23.950
    41.950    16.090      .075   599.800    23.550    24.030
    42.000    16.090      .075   598.800    23.640    24.070
    42.050    16.110      .076   598.400    23.710    24.090
    42.100    16.130      .076   599.000    23.790    24.150
    42.150    16.150      .076   600.900    23.850    24.210
    42.200    16.190      .076   603.100    23.910    24.350
    42.250    16.220      .076   600.500    23.980    24.580
    42.300    16.260      .076   599.600    24.050    24.500
    42.350    16.340      .076   602.000    24.110    24.280
    42.400    16.420      .076   604.600    24.170    24.090
    42.450    16.510      .076   607.100    24.230    23.960
    42.500    16.610      .076   610.400    24.290    23.890
    42.550    16.690      .076   613.000    24.350    23.830
    42.600    16.830      .076   613.600    24.390    23.400
    42.650    16.950      .076   613.000    24.440    23.420
    42.700    17.050      .076   611.800    24.500    23.440
    42.750    17.150      .076   608.000    24.550    23.450
    42.800    17.240      .076   610.100    24.610    23.430
    42.850    17.350      .076   612.300    24.660    23.380
    42.900    17.430      .076   613.800    24.710    23.330
    42.950    17.510      .076   613.800    24.750    23.280
    43.000    17.580      .076   613.800    24.790    23.230
    43.050    17.650      .076   613.800    24.820    23.210
    43.100    17.710      .076   613.700    24.850    23.220
    43.150    17.750      .076   613.600    24.900    23.240
    43.200    17.770      .076   613.500    24.950    23.320
    43.250    17.790      .076   613.500    25.000    23.420
    43.300    17.820      .076   613.000    25.050    23.570
    43.350    17.840      .076   612.600    25.100    23.770
    43.400    17.870      .076   612.200    25.140    23.850
    43.450    17.900      .076   611.800    25.180    23.860
    43.500    17.930      .076   611.900    25.200    23.850
    43.550    17.970      .076   612.500    25.270    23.840
    43.600    18.000      .076   613.500    25.310    23.780
    43.650    18.030      .076   613.700    25.350    23.630
    43.700    18.050      .076   613.400    25.390    23.600
    43.750    18.070      .076   613.000    25.430    23.660
    43.800    18.100      .076   612.600    25.480    23.670
    43.850    18.120      .076   612.200    25.540    23.660
    43.900    18.150      .076   611.700    25.590    23.630
    43.950    18.180      .076   611.400    25.640    23.590
    44.000    18.210      .076   611.200    25.690    23.500
    44.050    18.240      .076   611.400    25.750    23.510
    44.100    18.270      .076   611.500    25.800    23.760
    44.150    18.300      .076   611.900    25.860    23.760
    44.200    18.330      .076   612.100    25.920    23.700
    44.250    18.360      .076   612.200    25.970    23.650
    44.300    18.400      .076   611.800    26.050    23.600
    44.350    18.430      .076   611.200    26.120    23.640
    44.400    18.460      .076   610.500    26.190    23.640
    44.450    18.500      .076   609.100    26.270    23.630
    44.500    18.530      .076   608.100    26.340    23.600
    44.550    18.560      .076   606.800    26.410    23.550
    44.600    18.600      .076   606.900    26.490    23.500
    44.650    18.640      .076   608.500    26.570    23.480
    44.700    18.670      .076   610.200    26.670    23.580
    44.750    18.710      .076   611.100    26.770    23.670
    44.800    18.750      .076   611.300    26.860    23.720
    44.850    18.790      .076   611.000    26.960    23.730
    44.900    18.840      .076   610.800    27.120    23.730
    44.950    18.880      .076   610.500    27.290    23.730
    45.000    18.920      .076   610.200    27.450    23.750
    45.050    18.960      .076   609.800    27.620    23.870
    45.100    19.010      .076   609.400    27.790    24.090
    45.150    19.050      .076   608.900    27.950    24.270
    45.200    19.110      .076   608.500    28.120    24.360
    45.250    19.160      .076   608.200    28.280    24.360
    45.300    19.200      .076   607.900    28.480    24.320
    45.350    19.270      .076   607.700    28.700    24.270
    45.400    19.340      .075   607.400    28.910    24.280
    45.450    19.400      .075   607.300    29.130    24.340
    45.500    19.480      .075   607.200    29.340    24.480
    45.550    19.580      .075   607.000    29.560    24.630
    45.600    19.670      .075   606.900    29.770    24.720
    45.650    19.780      .075   606.700    30.030    24.700
    45.700    19.880      .075   606.300    30.210    24.560
    45.750    19.980      .075   605.600    30.390    24.190
    45.800    20.090      .075   604.800    30.570    23.860
    45.850    20.210      .075   604.300    30.750    23.580
    45.900    20.320      .075   604.800    30.930    23.360
    45.950    20.430      .075   605.200    31.110    23.040
