~Version Information
 VERS.                2.0:  CWLS LOG ASCII STANDARD -VERSION 2.0
 WRAP.                 NO:  ONE LINE PER DEPTH STEP
~WELL INFORMATION BLOCK
#MNEM.UNIT       DATA		            DESCRIPTION OF MNEMONIC
#---------    -------------            ------------------------
 STRT.M      .000                        :START DEPTH
 STOP.M   #######                        :STOP DEPTH
 STEP.M      .050                        :STEP
 NULL.    -999999.0                      :NULL VALUE
 COMP.       SCHIFOOD                    :COMPANY
 WELL.                          B62B0896 :WELL
 FLD .    Hoensbroek                     :FIELD
 CNTY.                                   :COUNTY
 STAT.                                   :STATE
 SRVC.                                   :SERVICE COMPANY
 DATE.     17-JUL-90                     :LOG DATE
 UWI .                                   :UNIQUE WELL ID
 LIC .                                   :LICENSE NUMBER
~Curve Information Block
#MNEM.UNIT      API CODE     Curve Description
#---------    -------------  ------------------------
DEPTH    .M         00 000 00 00          :  1  DEPTH
SN40     .OHM.M     00 000 00 00          :  2  SN40
SP       .V         00 000 00 00          :  3  SP
CAL      .MM        00 000 00 00          :  4  CAL
LN160    .OHM.M     00 000 00 00          :  5  LN160
GAMMA    .CPS       00 000 00 00          :  6  GAMMA
~Parameter Information Block
#MNEM.UNIT   Information     Description
#---------- ---------------  ------------------------
 FILE.                         :File Type
 FIID.                         :File Type Identifier
 VERS.                         :System Version
 SER .                         :System Serial Number
 TRUK.                         :Truck Calibration Number
 TOOL.                         :Tool Serial Number
 TIME.                         :Time    HrHrMinMin
 LAT .                         :Latitude
 LON .                         :Longitude
 LMF .            MV           :LOG Measured FROM
 DMF .                         :Driller Measured From
 PD  .                         :Permanent Data
 PDEV.                         :Elevation Permanent Data
 EKB .M                        :Elevation Kelly Bushing
 ELEV.DF                       :Elevation DF
 EGL .M                        :Elevation Ground Level
 DRDP.                         :Drillers Depth
 CASD.                         :Casing Diameter
 CASB.                         :Casing Bottom
 CASX.                         :Casing Type
 CAST.                         :Casing Thickness
 TNOC.                         :Time Circulation Stopped
 LOGU.                         :Logging Unit
 RECB.            Bergsma      :Recorded By
 OSR1.                         :Other Services
 OSR2.                         :Other Services
 OSR3.                         :Other Services
 BS  .MM                       :Bit Size
 MST .                         :Mean Surface Temperature
 TGRD.                         :Temperature Gradiant
 MAGN.                         :Magnetic Declination
 MDEN.                         :Density Matrix
 MATR.                         :Neutron Matrix
 DTMT.                         :Delta T Matrix
 DTFL.                         :Delta T Fluid
 MUDS.                         :Mud Sample Source
 MRS .            6            :Mud Resistivity
 MTP .            19           :Mud Temperature
 MFRS.                         :Resistivity Mud Filtrate
 MFTP.                         :Temperature Mud Filtrate
 MCRS.                         :Resistivity Mud Cake
 MCTP.                         :Temperature Mud Cake
 FTYP.                         :Fluid Type
 FD  .K/M3                     :Fluid Density
 DFV .S                        :Fluid Viscosity
 FPH .                         :Fuild PH
 ELCO.                         :Electron Cutoff
~Other Information
#MNEM.UNIT  Information      Description
#---------- ---------------  ------------------------
# --------------------------
## COMMENTS    Top_Depth   Bot_Depth  LithCode  Lat    Long   Elev_Gl
##    Type of LithCode   Lithologie - 1970
##                    .00        6.00         .00     
##                   6.05        8.00        2.00     
##                   8.05       11.50       22.00     
##                  11.55       15.20       23.00     
##                  15.25       19.00       22.00     
##                  19.05       20.25       11.00     
##                  20.30       22.10       12.00     
##                  22.15       23.70       11.00     
##                  23.75       25.15       12.00     
##                  25.20       26.10       11.00     
##                  26.15       27.20       12.00     
##                  27.25       35.00       11.00     
##                  35.05       47.55       12.00     
##                  47.60       51.00        7.00     
##                  51.05       52.25       11.00     
##                  52.30       54.00        7.00     
##                  54.05       55.10       11.00     
##                  55.15       58.00       12.00     
##                  58.05       62.60       11.00     
##                  62.65       67.20        8.00     
##                  67.25       70.05        9.00     
##                  70.10       74.00        7.00     
##                  74.05       75.40        8.00     
##                  75.45       80.00        7.00     
##                  80.05       92.40        9.00     
##                  92.45       94.50       10.00     
##                  94.55       96.90        8.00     
##                  96.95       99.30       10.00     
##                  99.35       99.35         .00     
##    last_layer   99.35
# --------------------------
~A DEPTH    SN40     SP       CAL      LN160    GAMMA    
# ...
    13.000    27.650      .061   590.000    44.940    23.770
    13.050    27.660      .061   589.400    44.910    23.680
    13.100    27.660      .061   588.000    44.890    23.610
    13.150    27.690      .061   585.800    44.870    23.600
    13.200    27.710      .061   577.700    44.860    23.520
    13.250    27.730      .061   586.400    44.860    23.360
    13.300    27.750      .061   593.800    44.860    22.970
    13.350    27.770      .061   584.300    44.860    22.820
    13.400    27.800      .061   574.800    44.880    22.790
    13.450    27.840      .061   573.100    44.900    22.760
    13.500    27.870      .061   582.300    44.920    22.790
    13.550    27.900      .061   591.500    44.970    22.890
    13.600    27.940      .062   596.000    45.030    23.020
    13.650    27.970      .062   595.500    45.110    23.190
    13.700    27.990      .062   595.000    45.200    23.150
    13.750    28.030      .062   589.700    45.300    23.090
    13.800    28.060      .062   579.500    45.420    23.130
    13.850    28.080      .063   582.800    45.560    23.160
    13.900    28.110      .063   586.200    45.660    23.170
    13.950    28.160      .063   589.000    45.760    23.160
    14.000    28.210      .063   585.000    45.920    23.130
    14.050    28.260      .063   581.900    46.050    23.060
    14.100    28.330      .063   587.000    46.180    22.980
    14.150    28.390      .063   592.200    46.310    22.910
    14.200    28.450      .063   596.800    46.420    22.810
    14.250    28.490      .063   603.100    46.590    22.620
    14.300    28.520      .063   606.300    46.760    22.500
    14.350    28.570      .063   607.900    46.950    22.390
    14.400    28.630      .063   607.300    47.130    22.320
    14.450    28.690      .063   605.600    47.260    22.290
    14.500    28.760      .063   604.000    47.480    22.290
    14.550    28.830      .063   604.300    47.670    22.320
    14.600    28.900      .063   605.500    47.820    22.380
    14.650    28.970      .062   597.200    48.020    22.510
    14.700    29.050      .062   565.700    48.160    22.630
    14.750    29.110      .062   553.400    48.290    22.710
    14.800    29.230      .062   563.600    48.430    22.740
    14.850    29.340      .062   573.700    48.580    22.790
    14.900    29.450      .062   583.900    48.790    22.900
    14.950    29.570      .062   594.000    48.870    23.010
    15.000    29.680      .062   604.100    48.970    23.110
    15.050    29.800      .062   584.300    49.070    23.050
    15.100    29.910      .062   547.300    49.190    22.910
    15.150    30.050      .062   559.600    49.280    22.680
    15.200    30.160      .062   571.900    49.360    22.480
    15.250    30.280      .061   584.200    49.450    22.350
    15.300    30.410      .061   596.500    49.530    22.250
    15.350    30.510      .061   608.800    49.610    22.210
    15.400    30.620      .061   614.800    49.680    22.220
    15.450    30.710      .061   613.800    49.760    22.210
    15.500    30.790      .061   612.600    49.820    22.170
    15.550    30.890      .061   610.200    49.870    22.030
    15.600    30.990      .061   608.900    49.900    21.910
    15.650    31.090      .061   608.100    49.900    21.720
    15.700    31.180      .061   607.700    49.900    21.490
    15.750    31.280      .061   607.300    49.900    21.320
    15.800    31.350      .061   606.800    49.900    21.300
    15.850    31.440      .061   606.400    49.880    21.250
    15.900    31.520      .061   605.800    49.860    21.170
    15.950    31.580      .061   600.400    49.840    21.010
    16.000    31.630      .061   594.300    49.820    20.870
    16.050    31.680      .060   594.000    49.800    20.790
    16.100    31.710      .060   594.200    49.790    20.690
    16.150    31.730      .060   591.600    49.790    20.740
    16.200    31.740      .060   591.700    49.780    20.750
    16.250    31.740      .060   595.400    49.770    20.760
    16.300    31.740      .060   600.400    49.760    20.780
    16.350    31.740      .060   602.400    49.760    20.800
    16.400    31.730      .060   596.100    49.740    20.840
    16.450    31.730      .060   589.000    49.730    20.940
    16.500    31.730      .060   592.800    49.720    21.140
    16.550    31.710      .060   599.200    49.690    21.370
    16.600    31.700      .060   605.500    49.690    21.460
    16.650    31.690      .060   597.500    49.690    21.530
    16.700    31.670      .060   582.700    49.690    21.570
    16.750    31.660      .060   579.200    49.670    21.640
    16.800    31.620      .060   587.100    49.630    21.760
    16.850    31.590      .060   594.900    49.570    21.990
    16.900    31.560      .060   594.100    49.510    22.150
    16.950    31.520      .060   580.200    49.440    22.210
    17.000    31.470      .060   584.900    49.350    22.210
    17.050    31.430      .060   589.300    49.260    22.170
    17.100    31.380      .060   593.700    49.140    22.100
    17.150    31.330      .060   598.800    49.020    22.020
    17.200    31.290      .060   591.000    48.870    21.950
    17.250    31.210      .060   583.100    48.660    21.900
    17.300    31.130      .060   581.500    48.410    21.890
    17.350    31.050      .060   589.900    48.200    21.880
    17.400    30.960      .060   598.300    47.980    21.870
    17.450    30.880      .060   606.700    47.770    21.870
    17.500    30.790      .060   601.200    47.590    21.810
    17.550    30.690      .060   585.600    47.310    21.750
    17.600    30.580      .060   575.600    47.090    21.670
    17.650    30.430      .060   582.400    46.860    21.640
    17.700    30.260      .060   589.200    46.630    21.610
    17.750    30.070      .060   596.000    46.410    21.590
    17.800    29.900      .060   603.700    46.180    21.600
    17.850    29.760      .060   602.100    45.960    21.640
    17.900    29.570      .060   604.100    45.670    21.710
    17.950    29.400      .060   605.700    45.380    21.770
    18.000    29.220      .060   594.400    45.090    21.840
    18.050    29.010      .060   583.000    44.800    21.930
    18.100    28.860      .060   573.900    44.520    22.030
    18.150    28.690      .060   587.500    44.230    22.250
    18.200    28.500      .060   601.500    43.940    22.460
    18.250    28.310      .061   593.500    43.650    22.720
    18.300    28.050      .061   586.700    43.360    22.950
    18.350    27.870      .061   595.600    43.050    23.080
    18.400    27.710      .061   604.900    42.710    23.110
    18.450    27.500      .061   597.200    42.370    23.120
    18.500    27.340      .061   599.400    42.030    23.120
    18.550    27.150      .061   601.200    41.700    23.120
    18.600    26.890      .061   594.900    41.360    23.120
    18.650    26.700      .061   594.300    41.020    23.120
    18.700    26.550      .061   599.600    40.680    23.150
    18.750    26.270      .061   605.000    40.340    23.230
    18.800    26.070      .062   607.500    40.000    23.340
    18.850    25.760      .062   605.700    39.750    23.380
    18.900    25.490      .062   604.500    39.540    23.430
    18.950    25.280      .062   604.600    39.320    23.470
    19.000    25.060      .062   604.700    39.110    23.520
    19.050    24.750      .062   604.600    38.900    24.230
    19.100    24.560      .062   604.500    38.680    24.590
    19.150    24.350      .062   604.500    38.490    24.680
    19.200    24.110      .063   604.900    38.310    24.720
    19.250    23.920      .063   605.700    38.130    24.730
    19.300    23.620      .063   606.500    37.940    24.740
    19.350    23.360      .063   607.000    37.820    24.760
    19.400    23.090      .063   607.400    37.720    24.840
    19.450    22.870      .063   607.900    37.630    24.980
    19.500    22.650      .063   608.300    37.490    24.980
    19.550    22.450      .063   608.800    37.330    24.830
