~Version Information
 VERS.                2.0:  CWLS LOG ASCII STANDARD -VERSION 2.0
 WRAP.                 NO:  ONE LINE PER DEPTH STEP
~WELL INFORMATION BLOCK
#MNEM.UNIT       DATA		            DESCRIPTION OF MNEMONIC
#---------    -------------            ------------------------
 STRT.M      .150                        :START DEPTH
 STOP.M   #######                        :STOP DEPTH
 STEP.M      .050                        :STEP
 NULL.    -999999.0                      :NULL VALUE
 COMP.       SOFTDR                      :COMPANY
 WELL.                          B62B0927 :WELL
 FLD .    Heerlen                        :FIELD
 CNTY.                                   :COUNTY
 STAT.                                   :STATE
 SRVC.                                   :SERVICE COMPANY
 DATE.     29-MAY-97                     :LOG DATE
 UWI .                                   :UNIQUE WELL ID
 LIC .                                   :LICENSE NUMBER
~Curve Information Block
#MNEM.UNIT      API CODE     Curve Description
#---------    -------------  ------------------------
DEPTH    .M         00 000 00 00          :  1  DEPTH
GAM(NAT) .CPS       00 000 00 00          :  2  GAM(NAT)
SP       .V         00 000 00 00          :  3  SP
RES(16N) .OHM.M     00 000 00 00          :  4  RES(16N)
RES(64N) .OHM.M     00 000 00 00          :  5  RES(64N)
RES      .OHM       00 000 00 00          :  6  RES
~Parameter Information Block
#MNEM.UNIT   Information     Description
#---------- ---------------  ------------------------
 FILE.                         :File Type
 FIID.                         :File Type Identifier
 VERS.                         :System Version
 SER .                         :System Serial Number
 TRUK.                         :Truck Calibration Number
 TOOL.                         :Tool Serial Number
 TIME.                         :Time    HrHrMinMin
 LAT .                         :Latitude
 LON .                         :Longitude
 LMF .            MV           :LOG Measured FROM
 DMF .                         :Driller Measured From
 PD  .                         :Permanent Data
 PDEV.                         :Elevation Permanent Data
 EKB .M                        :Elevation Kelly Bushing
 ELEV.DF                       :Elevation DF
 EGL .M                        :Elevation Ground Level
 DRDP.                         :Drillers Depth
 CASD.                         :Casing Diameter
 CASB.                         :Casing Bottom
 CASX.                         :Casing Type
 CAST.                         :Casing Thickness
 TNOC.                         :Time Circulation Stopped
 LOGU.                         :Logging Unit
 RECB.            Bergsma      :Recorded By
 OSR1.                         :Other Services
 OSR2.                         :Other Services
 OSR3.                         :Other Services
 BS  .MM                       :Bit Size
 MST .                         :Mean Surface Temperature
 TGRD.                         :Temperature Gradiant
 MAGN.                         :Magnetic Declination
 MDEN.                         :Density Matrix
 MATR.                         :Neutron Matrix
 DTMT.                         :Delta T Matrix
 DTFL.                         :Delta T Fluid
 MUDS.                         :Mud Sample Source
 MRS .                         :Mud Resistivity
 MTP .                         :Mud Temperature
 MFRS.                         :Resistivity Mud Filtrate
 MFTP.                         :Temperature Mud Filtrate
 MCRS.                         :Resistivity Mud Cake
 MCTP.                         :Temperature Mud Cake
 FTYP.                         :Fluid Type
 FD  .K/M3                     :Fluid Density
 DFV .S                        :Fluid Viscosity
 FPH .                         :Fuild PH
 ELCO.                         :Electron Cutoff
~Other Information
#MNEM.UNIT  Information      Description
#---------- ---------------  ------------------------
# --------------------------
## COMMENTS    Top_Depth   Bot_Depth  LithCode  Lat    Long   Elev_Gl
##    Type of LithCode   Lithologie - 1970
##                    .15        3.55       62.00     
##                   3.55        5.50        2.00     
##                   5.50        8.70       26.00     
##                   8.70       15.10       63.00     
##                  15.10       19.15       26.00     
##                  19.15       20.70       43.00     
##                  20.70       22.60       26.00     
##                  22.60       30.05       63.00     
##                  30.05       30.85       26.00     
##                  30.85       52.70       63.00     
##                  52.70       54.00       26.00     
##                  54.00       58.15       63.00     
##                  58.15       59.85       26.00     
##                  59.85       66.75       63.00     
##                  66.75       70.35       26.00     
##                  70.35       72.25       63.00     
##                  72.25       73.10       26.00     
##                  73.10       74.40       63.00     
##                  74.40       75.15       26.00     
##                  75.15       75.95       63.00     
##                  75.95       76.75       26.00     
##                  76.75       77.40       63.00     
##                  77.40       78.20       26.00     
##                  78.20       79.70       63.00     
##                  79.70       80.75       26.00     
##                  80.75       81.70       58.00     
##                  81.70       83.15       26.00     
##                  83.15       84.95       58.00     
##                  84.95       87.35       22.00     
##                  87.35       88.60       23.00     
##                  88.60       89.30       58.00     
##                  89.30       91.10       23.00     
##                  91.10       92.35       58.00     
##                  92.35       94.30       23.00     
##                  94.30       99.05       26.00     
##                  99.05      100.50       23.00     
##                 100.50      103.10       26.00     
##                 103.10      105.80       40.00     
##                 105.80      107.05       43.00     
##                 107.05      110.35       57.00     
##                 110.35      112.35       15.00     
##                 112.35      116.10       63.00     
##                 116.10      120.45       32.00     
##                 120.45      121.95       63.00     
##                 121.95      122.70       12.00     
##                 122.70      124.70       15.00     
##                 124.70      127.95       19.00     
##                 127.95      129.55       58.00     
##                 129.55      130.60       38.00     
##                 130.60      132.70       57.00     
##                 132.70      133.60       59.00     
##                 133.60      135.20       57.00     
##                 135.20      135.85       59.00     
##                 135.85      136.50       57.00     
##                 136.50      137.30       58.00     
##    last_layer   137.3
##    Type of LithCode   Lithologie - 1970
##                   1.90        2.15       87.00     
##                   2.15        3.90       84.00     
##                   3.90        4.25       85.00     
##                   4.25       21.95         .00     
##                  21.95       22.35       87.00     
##                  22.35       24.95       84.00     
##                  24.95       25.30       85.00     
##                  25.30       37.95         .00     
##                  37.95       38.25       87.00     
##                  38.25       40.95       84.00     
##                  40.95       41.20       85.00     
##                  41.20       42.00         .00     
##                  42.00       44.95       74.00     
##                  44.95       46.95         .00     
##                  46.95       47.25       87.00     
##                  47.25       50.90       84.00     
##                  50.90       51.20       85.00     
##                  51.20       59.95         .00     
##                  59.95       60.35       87.00     
##                  60.35       62.95       84.00     
##                  62.95       63.25       85.00     
##                  63.25       76.90         .00     
##                  76.90       77.15       87.00     
##                  77.15       80.00       84.00     
##                  80.00       80.35       85.00     
##                  80.35      106.95         .00     
##                 106.95      107.25       87.00     
##                 107.25      115.45       84.00     
##                 115.45      115.80       85.00     
##                 115.80      116.40         .00     
##                 116.40      117.40       77.00     
##                 117.40      119.40       80.00     
##                 119.40      120.45       77.00     
##                 120.45      121.90         .00     
##                 121.90      122.35       87.00     
##                 122.35      127.90       84.00     
##                 127.90      128.30       85.00     
##                 128.30      130.95         .00     
##                 130.95      131.25       87.00     
##                 131.25      133.95       84.00     
##                 133.95      134.15       85.00     
##    last_layer   134.15
# --------------------------
~A DEPTH    GAM(NAT) SP       RES(16N) RES(64N) RES      
# ...
    33.050    39.400      .045    26.200    28.000   210.200
    33.100    44.200      .046    26.000    28.000   210.900
    33.150    66.600      .046    25.600    28.000   211.800
    33.200    42.300      .046    25.200    28.000   209.800
    33.250    46.600      .046    25.100    28.000   207.000
    33.300    39.700      .046    25.200    28.000   205.300
    33.350    36.400      .047    25.100    28.000   203.800
    33.400    51.600      .047    24.800    28.000   203.000
    33.450    43.200      .048    24.500    28.000   202.900
    33.500    60.300      .048    24.200    28.000   202.300
    33.550    43.000      .048    23.900    28.000   200.600
    33.600    48.100      .048    23.700    28.000   200.200
    33.650    50.200      .048    23.400    28.000   201.200
    33.700    50.900      .048    23.300    28.100   201.900
    33.750    38.200      .049    23.500    28.200   201.400
    33.800    34.800      .048    23.600    28.100   199.900
    33.850    35.400      .048    23.800    28.100   199.700
    33.900    50.500      .049    23.700    28.000   200.600
    33.950    41.700      .049    23.500    28.000   200.100
    34.000    44.800      .049    23.300    27.800   199.000
    34.050    48.200      .048    23.100    27.600   199.600
    34.100    42.800      .048    22.900    27.400   199.500
    34.150    44.000      .048    22.700    27.200   199.600
    34.200    39.100      .048    22.800    27.100   201.700
    34.250    35.800      .048    22.800    27.000   202.300
    34.300    42.600      .047    23.100    26.900   201.100
    34.350    19.800      .047    23.400    26.900   201.300
    34.400    37.900      .047    23.600    26.900   202.200
    34.450    42.900      .047    23.700    27.000   202.600
    34.500    35.100      .047    23.800    27.000   203.000
    34.550    35.600      .047    23.800    27.100   202.700
    34.600    34.900      .047    23.600    27.100   201.700
    34.650    52.700      .047    23.300    27.000   200.700
    34.700    33.800      .048    22.900    26.900   200.000
    34.750    58.100      .046    22.600    26.800   202.500
    34.800    23.600      .045    22.300    26.700   207.700
    34.850    34.700      .045    22.100    26.600   210.900
    34.900    32.000      .045    22.200    26.600   212.600
    34.950    49.500      .045    22.600    26.600   213.100
    35.000    43.500      .045    23.000    26.600   212.000
    35.050    46.000      .046    23.400    26.600   209.600
    35.100    61.700      .046    23.800    26.600   206.400
    35.150    38.600      .047    24.100    26.500   203.400
    35.200    43.000      .047    24.300    26.500   201.400
    35.250    58.300      .047    24.200    26.400   200.700
    35.300    58.000      .047    24.000    26.300   200.600
    35.350    48.900      .047    23.700    26.300   200.500
    35.400    53.700      .047    23.400    26.200   201.100
    35.450    43.100      .048    23.200    26.100   202.000
    35.500    58.900      .048    22.900    26.000   203.500
    35.550    63.500      .047    22.800    25.800   204.700
    35.600    46.500      .046    23.000    25.700   205.400
    35.650    45.600      .046    23.200    25.500   205.200
    35.700    70.200      .046    23.400    25.400   205.300
    35.750    49.200      .046    23.800    25.300   205.900
    35.800    34.100      .046    24.200    25.200   205.300
    35.850    60.500      .045    24.500    25.200   205.200
    35.900    50.900      .045    24.800    25.200   207.200
    35.950    47.500      .046    24.900    25.200   209.500
    36.000    51.800      .046    25.100    25.100   210.500
    36.050    52.700      .046    25.400    25.100   210.200
    36.100    46.200      .046    25.400    25.100   209.300
    36.150    29.300      .046    25.300    25.100   209.300
    36.200    42.000      .046    24.900    25.000   209.400
    36.250    35.400      .046    24.400    25.000   208.600
    36.300    39.100      .046    23.500    25.000   208.700
    36.350    37.700      .047    23.000    25.100   211.900
    36.400    39.700      .047    22.700    25.100   214.400
    36.450    63.300      .048    22.500    25.000   214.900
    36.500    54.300      .048    22.600    25.000   216.800
    36.550    56.400      .046    22.900    24.900   218.200
    36.600    38.500      .048    23.300    24.700   213.100
    36.650    42.600      .049    23.800    24.500   205.800
    36.700    55.000      .050    24.400    24.400   203.000
    36.750    49.300      .050    24.400    24.300   202.300
    36.800    40.600      .049    24.100    24.200   201.500
    36.850    66.800      .049    23.800    24.200   201.000
    36.900    54.900      .048    23.600    24.200   201.400
    36.950    55.200      .048    23.400    24.100   201.700
    37.000    53.900      .047    23.300    24.200   202.100
    37.050    74.700      .047    23.200    24.200   202.800
    37.100    50.900      .047    23.000    24.300   203.200
    37.150    44.900      .047    22.800    24.400   203.600
    37.200    54.100      .047    22.400    24.500   204.200
    37.250    63.600      .047    22.200    24.700   205.300
    37.300    29.200      .049    21.900    24.800   207.700
    37.350    45.300      .049    21.700    24.900   210.800
    37.400    27.800      .048    21.400    24.900   213.300
    37.450    50.700      .048    21.300    24.800   214.100
    37.500    62.000      .048    21.300    24.800   211.700
    37.550    58.000      .048    21.300    24.800   209.700
    37.600    41.200      .048    21.500    24.700   207.600
    37.650    55.300      .049    21.500    24.700   205.200
    37.700    53.000      .050    21.500    24.600   203.500
    37.750    77.900      .051    21.400    24.600   202.300
    37.800   107.600      .051    21.300    24.600   200.700
    37.850    64.700      .052    21.000    24.700   198.500
    37.900    74.500      .052    20.600    24.700   197.100
    37.950    68.300      .052    20.200    24.700   196.600
    38.000    50.400      .051    19.600    24.800   197.500
    38.050    47.500      .051    19.200    24.900   197.900
    38.100    51.000      .051    19.000    25.000   198.200
    38.150    56.800      .051    18.900    25.100   198.300
    38.200    62.000      .051    19.000    25.300   198.300
    38.250    80.500      .052    19.000    25.400   197.400
    38.300    66.800      .053    19.000    25.500   195.100
    38.350    67.900      .053    19.000    25.500   192.100
    38.400    58.800      .053    19.000    25.500   191.600
    38.450    42.400      .053    19.000    25.500   191.900
    38.500    63.200      .052    18.800    25.400   191.900
    38.550    52.300      .051    18.700    25.300   191.300
    38.600    56.300      .051    18.600    25.100   190.900
    38.650    61.900      .050    18.600    25.000   190.400
    38.700    56.600      .050    18.600    24.900   190.600
    38.750    61.000      .050    18.700    24.900   191.300
    38.800    61.700      .050    18.900    24.800   192.500
    38.850    66.700      .050    19.100    24.800   193.300
    38.900    67.300      .050    19.200    24.700   193.300
    38.950    60.800      .050    19.300    24.700   193.700
    39.000    63.400      .051    19.500    24.700   194.000
    39.050    54.900      .051    19.400    24.600   194.300
    39.100    41.900      .051    19.400    24.500   194.900
    39.150    62.300      .051    19.300    24.400   195.800
    39.200    65.700      .052    19.200    24.300   197.400
    39.250    48.700      .053    19.400    24.200   199.500
    39.300    70.700      .054    19.400    24.100   201.700
    39.350    64.000      .053    19.700    24.100   202.700
    39.400    40.200      .053    19.800    24.000   202.200
    39.450    42.500      .052    20.100    24.000   199.600
    39.500    57.800      .052    20.400    24.000   198.300
    39.550    60.900      .051    20.700    24.000   197.600
    39.600    50.800      .051    20.700    24.000   196.700
