~Version Information Block
 VERS.                2.00:     CWLS LOG ASCII STANDARD - VERSION 2.000000
 WRAP.                  NO:     One Line Per Depth Step
#
~Well Information Block
#MNEM.UNIT                     Data                         Information
#----------   ------------------------------------------   ----------------
 STRT.M                                         0.0000:
 STOP.M                                       171.0000:
 STEP.M                                         0.0200:
 NULL.                                       -999.2500:
 COMP.                                                :     COMPANY
 WELL.                                        B62B0838:     WELL
 FLD .                                                :     FIELD
 CNTY.                                                :     COUNTY
 STAT.                                                :     STATE
 CTRY.                                                :     COUNTRY
 SRVC.                                                :     SERVICE COMPANY
 DATE.                                                :     DATE
 API .                                                :     API NUMBER
 UWI .                                                :     UWI NUMBER
#
~Curve Information Block
#MNEM.UNIT       API CODE      Curve Description
#----------    -------------   -------------------
 DEPT.M                    :   Depth in Meters
 SN20.OHM-M                :   SN20
 LN100.OHM-M               :   LN100
 CALI.CM                   :   Calr
 GAM(NAT) .CPS             :   GAM(NAT)
#
~Parameter Information Block
#MNEM.UNIT            Value               Description
#----------    --------------------    -------------------
 PDAT.                            :    Permanent Datum
 EPD .M                     0.0000:    Elevation Of Perm. Datum
 WSTA.                         LOC:    
 E   .M                     0.0000:    E (Stretch Coefficient Of The Cable)
 TD  .M                   171.0000:    Total Depth
#
~Other Information Block
<DescLogPlotStart>   NEURALOG PLOT DEFINITION
PLOTDEFVERSION: 3
LASFILE: V:\a4\j4\p44009\boorgatmetingen\SCANS TE VERWERKEN IN DINO\wlg\B62B083
DEPTHSCALE: 200.000000
RESOLUTION: 600
DEPTHLABELFREQ: 50.000000
HEAVYGRIDFREQ: 50.000000
MEDIUMGRIDFREQ: 25.000000
LIGHTGRIDFREQ: 5.000000
#
#   TRACK 1
#
STARTTRACK: 
 LEFTX: 13.760000 inch
 RIGHTX: 15.010000 inch
 SCALETYPE: LINEAR
 NUMCHARTDIVISIONS: 10
CURVE: CALI  30.000000  50.000000  (0,0,255)      Solid             2     N    
ENDTRACK: 
#
#   TRACK 2
#
STARTTRACK: 
 LEFTX: 16.551667 inch
 RIGHTX: 21.551667 inch
 SCALETYPE: LINEAR
 NUMCHARTDIVISIONS: 10
CURVE: GAM(NAT)   0.000000   50.000000  (0,131,131)    Solid             2     N    
ENDTRACK: 
#
#   TRACK 3
#
STARTTRACK: 
 LEFTX: 15.343333 inch
 RIGHTX: 21.240000 inch
 SCALETYPE: LINEAR
 NUMCHARTDIVISIONS: 10
CURVE: SN20  0.000000   100.000000 (255,0,255)    Solid             2     Y    
CURVE: LN100  0.000000   100.000000 (255,0,0)      Dot               2     Y    
ENDTRACK: 
<DescLogPlotEnd>
~Other Information
#MNEM.UNIT  Information      Description
#---------- ---------------  ------------------------
# --------------------------
## COMMENTS    Top_Depth   Bot_Depth  LithCode  Lat    Long   Elev_Gl 
##	0.0	31.2	0.0
##	31.25	97.0	25.0
##	97.05	97.5	11.0
##	97.55	104.0	12.0
##	104.05	110.1	11.0
##	110.15	111.7	12.0
##	111.75	113.1	11.0
##	113.15	116.6	12.0
##	116.65	124.1	11.0
##	124.15	125.9	12.0
##	125.95	139.0	11.0
##	139.05	140.0	10.0
##	140.05	145.5	11.0
##	145.55	146.3	10.0
##	146.35	148.0	12.0
##	148.05	149.4	10.0
##	149.45	150.0	11.0
##	150.05	151.9	10.0
##	151.95	152.6	11.0
##	152.65	155.0	10.0
##	155.05	160.9	14.0
##	160.95	163.2	11.0
##	163.25	164.0	10.0
##	164.05	167.8	11.0
##	167.85	170.0	10.0
##	170.05	171.95	11.0
# --------------------------
~A  DEPTH         SN20             LN100            CALI             GAM(NAT)  
# ...
      23.480       6.96721311       0.86206897      50.54232804      12.40650098
      23.500       6.95473373       0.86206897      50.54232804      12.56286500
      23.520       6.93894856       0.86206897      50.54232804      12.63932744
      23.540       6.93894856       0.86206897      50.54232804      12.65640852
      23.560       6.93894856       0.86206897      50.88624339      12.65640852
      23.580       6.96721311       0.86206897      50.88624339      12.63766620
      23.600       6.93894856       0.86206897      50.88624339      12.59754335
      23.620       6.93894856       0.86206897      50.88624339      12.55988664
      23.640       6.93894856       0.86206897      50.88624339      12.58877240
      23.660       6.93894856       0.86206897      50.67993440      12.63949949
      23.680       6.93894856       0.86206897      50.54232804      12.67239596
      23.700       6.93894856       0.86206897      50.54232804      12.71882361
      23.720       6.93894856       0.86206897      50.54232804      12.81121810
      23.740       6.93894856       0.86206897      50.54232804      12.84086329
      23.760       6.93894856       0.86206897      50.54232804      12.80195077
      23.780       6.93894856       0.86206897      50.54232804      12.65051904
      23.800       6.93894856       0.86206897      50.54232804      12.48731823
      23.820       6.93894856       0.86206897      50.54232804      12.35920711
      23.840       6.93894856       0.86206897      50.54232804      12.20136380
      23.860       6.93894856       0.86206897      50.54232804      12.06459249
      23.880       6.93894856       0.86206897      50.38359788      12.12894173
      23.900       6.93894856       0.86206897      50.38359788      12.27001248
      23.920       6.89449221       0.86206897      50.38359788      12.44415175
      23.940       6.91040136       0.86206897      50.38359788      12.55191072
      23.960       7.01103309       0.86206897      50.38359788      12.55495435
      23.980       7.05200678       0.86206897      50.38359788      12.50712454
      24.000       7.05200678       0.86206897      50.38359788      12.57290165
      24.020       7.05200678       0.86206897      50.43303629      12.44823365
      24.040       7.05200678       0.86206897      50.54232804      12.35559194
      24.060       7.05200678       0.86206897      50.54232804      12.26750085
      24.080       7.05200678       0.86206897      50.54232804      12.28204459
      24.100       7.05200678       0.86206897      50.54232804      12.36229029
      24.120       7.05200678       0.86206897      50.54232804      12.62648844
      24.140       7.05200678       0.86206897      50.38359788      12.86425313
      24.160       7.05200678       0.86206897      50.38359788      12.53740258
      24.180       7.05200678       0.86206897      50.38359788      12.48731823
      24.200       7.05200678       0.86206897      50.38359788      12.48731823
      24.220       7.05200678       0.86206897      50.38359788      12.52186407
      24.240       7.05200678       0.86206897      50.38359788      12.84829337
      24.260       7.05200678       0.86206897      50.38359788      12.67089294
      24.280       7.05200678       0.86206897      50.38359788      12.45350017
      24.300       7.08027134       0.89033352      50.38359788      12.34305751
      24.320       7.08027134       0.89033352      50.38359788      12.26750085
      24.340       7.08027134       0.89033352      50.38359788      12.21208472
      24.360       7.08027134       0.89033352      50.38359788      12.23876143
      24.380       7.08027134       0.89033352      50.38359788      12.30170850
      24.400       7.08027134       0.89033352      50.38359788      12.37212917
      24.420       7.08027134       0.89033352      50.38359788      12.51976577
      24.440       7.08027134       0.89033352      50.38359788      12.69726707
      24.460       7.08027134       0.89033352      50.38359788      12.89362539
      24.480       7.08027134       0.89033352      50.38359788      13.00388018
      24.500       7.08027134       0.89033352      50.38359788      12.94386202
      24.520       7.08027134       0.89033352      50.38359788      12.81649649
      24.540       7.08027134       0.89033352      50.38359788      12.60467283
      24.560       7.08027134       0.89033352      50.70105820      12.32232565
      24.580       7.08027134       0.89033352      50.70105820      12.20814719
      24.600       7.08027134       0.89033352      50.70105820      11.98004735
      24.620       7.08027134       0.89033352      50.70105820      11.97163634
      24.640       7.08027134       0.89033352      50.70105820      11.97785412
      24.660       7.08027134       0.89033352      50.70105820      11.96771265
      24.680       7.08027134       0.89033352      50.70105820      11.83949672
      24.700       7.08027134       0.89033352      50.70105820      11.60842445
      24.720       7.08027134       0.89033352      50.70105820      11.50371109
      24.740       7.08027134       0.89033352      50.70105820      11.39271864
      24.760       7.08027134       0.89033352      50.70105820      11.37132229
      24.780       7.08027134       0.89033352      50.70105820      11.42138488
      24.800       7.08027134       0.89033352      50.72363006      11.59067492
      24.820       7.08027134       0.89033352      50.72751323      11.70406232
      24.840       7.08027134       0.89033352      50.72751323      11.85146753
      24.860       7.08027134       0.89033352      50.72751323      11.97909411
      24.880       7.08027134       0.89033352      50.72751323      12.09956155
      24.900       7.08027134       0.89033352      50.72751323      12.18295570
      24.920       7.08027134       0.89033352      50.72751323      12.18142696
      24.940       7.08027134       0.89033352      50.72751323      12.04892544
      24.960       7.08027134       0.89033352      50.72751323      11.83866413
      24.980       7.08027134       0.89033352      50.72751323      11.72641190
      25.000       7.08027134       0.89033352      50.72751323      11.65877579
      25.020       7.08027134       0.89033352      50.72751323      11.67568482
      25.040       7.08027134       0.89033352      50.72751323      11.52933371
      25.060       7.08027134       0.89033352      50.72751323      11.47106183
      25.080       7.08027134       0.89033352      50.72751323      11.45462744
      25.100       7.08027134       0.89033352      50.72751323      11.42204937
      25.120       7.08027134       0.89033352      50.72751323      11.25279493
      25.140       7.08027134       0.89033352      50.72751323      11.23605005
      25.160       7.08027134       0.89033352      50.72751323      11.30290104
      25.180       7.08027134       0.89033352      50.72751323      11.43685021
      25.200       7.08027134       0.89033352      50.72751323      11.58473204
      25.220       7.08027134       0.89033352      50.72751323      11.72726032
      25.240       7.08027134       0.89033352      50.72751323      11.87954443
      25.260       7.08027134       0.89033352      50.72751323      12.08156678
      25.280       7.08027134       0.89033352      50.72751323      12.31504785
      25.300       7.08027134       0.89033352      50.72751323      12.45941339
      25.320       7.08027134       0.89033352      50.72751323      12.57186338
      25.340       7.08027134       0.89033352      50.72751323      12.70176427
      25.360       7.08027134       0.89033352      50.72751323      12.81649056
      25.380       7.08027134       0.89033352      50.72751323      12.89313493
      25.400       7.08027134       0.89033352      50.72751323      13.11560239
      25.420       7.08027134       0.89033352      50.72751323      13.26912649
      25.440       7.08027134       0.89033352      50.72751323      13.31586067
