~Version Information
 VERS.                2.0:  CWLS LOG ASCII STANDARD -VERSION 2.0
 WRAP.                 NO:  ONE LINE PER DEPTH STEP
~WELL INFORMATION BLOCK
#MNEM.UNIT       DATA		            DESCRIPTION OF MNEMONIC
#---------    -------------            ------------------------
 STRT.M      .450                        :START DEPTH
 STOP.M   #######                        :STOP DEPTH
 STEP.M      .050                        :STEP
 NULL.    -999999.0                      :NULL VALUE
 COMP.       SCHIFOOD                    :COMPANY
 WELL.                          B62B0897 :WELL
 FLD .    Heerlen                        :FIELD
 CNTY.                                   :COUNTY
 STAT.                                   :STATE
 SRVC.                                   :SERVICE COMPANY
 DATE.     10-DEC-90                     :LOG DATE
 UWI .                                   :UNIQUE WELL ID
 LIC .                                   :LICENSE NUMBER
~Curve Information Block
#MNEM.UNIT      API CODE     Curve Description
#---------    -------------  ------------------------
DEPTH    .M         00 000 00 00          :  1  DEPTH
SN40     .OHM.M     00 000 00 00          :  2  SN40
SP       .V         00 000 00 00          :  3  SP
CAL      .MM        00 000 00 00          :  4  CAL
LN160    .OHM.M     00 000 00 00          :  5  LN160
GAMMA    .CPS       00 000 00 00          :  6  GAMMA
~Parameter Information Block
#MNEM.UNIT   Information     Description
#---------- ---------------  ------------------------
 FILE.                         :File Type
 FIID.                         :File Type Identifier
 VERS.                         :System Version
 SER .                         :System Serial Number
 TRUK.                         :Truck Calibration Number
 TOOL.                         :Tool Serial Number
 TIME.                         :Time    HrHrMinMin
 LAT .                         :Latitude
 LON .                         :Longitude
 LMF .            MV           :LOG Measured FROM
 DMF .                         :Driller Measured From
 PD  .                         :Permanent Data
 PDEV.                         :Elevation Permanent Data
 EKB .M                        :Elevation Kelly Bushing
 ELEV.DF                       :Elevation DF
 EGL .M                        :Elevation Ground Level
 DRDP.                         :Drillers Depth
 CASD.                         :Casing Diameter
 CASB.                         :Casing Bottom
 CASX.                         :Casing Type
 CAST.                         :Casing Thickness
 TNOC.                         :Time Circulation Stopped
 LOGU.                         :Logging Unit
 RECB.            Bergsma      :Recorded By
 OSR1.                         :Other Services
 OSR2.                         :Other Services
 OSR3.                         :Other Services
 BS  .MM                       :Bit Size
 MST .                         :Mean Surface Temperature
 TGRD.                         :Temperature Gradiant
 MAGN.                         :Magnetic Declination
 MDEN.                         :Density Matrix
 MATR.                         :Neutron Matrix
 DTMT.                         :Delta T Matrix
 DTFL.                         :Delta T Fluid
 MUDS.                         :Mud Sample Source
 MRS .                         :Mud Resistivity
 MTP .                         :Mud Temperature
 MFRS.                         :Resistivity Mud Filtrate
 MFTP.                         :Temperature Mud Filtrate
 MCRS.                         :Resistivity Mud Cake
 MCTP.                         :Temperature Mud Cake
 FTYP.                         :Fluid Type
 FD  .K/M3                     :Fluid Density
 DFV .S                        :Fluid Viscosity
 FPH .                         :Fuild PH
 ELCO.                         :Electron Cutoff
~Other Information
#MNEM.UNIT  Information      Description
#---------- ---------------  ------------------------
# --------------------------
## COMMENTS    Top_Depth   Bot_Depth  LithCode  Lat    Long   Elev_Gl
##    Type of LithCode   Lithologie - 1970
##                    .00         .00         .00     
##                    .45        6.00         .00     
##                   6.05        8.10        2.00     
##                   8.15       15.30       23.00     
##                  15.35       18.50       22.00     
##                  18.55       20.80       11.00     
##                  20.85       22.35       12.00     
##                  22.40       23.40       11.00     
##                  23.45       25.30       12.00     
##                  25.35       26.25       11.00     
##                  26.30       27.80       12.00     
##                  27.85       35.10       11.00     
##                  35.15       47.80       12.00     
##                  47.85       50.40        6.00     
##                  50.45       52.00       23.00     
##                  52.05       53.20       11.00     
##                  53.25       54.60       12.00     
##                  54.65       55.50       11.00     
##                  55.55       56.50       12.00     
##                  56.55       57.25       11.00     
##                  57.30       58.60       12.00     
##                  58.65       64.40       11.00     
##                  64.45       71.10        9.00     
##                  71.15       74.20        7.00     
##                  74.25       75.90        9.00     
##                  75.95       78.90        7.00     
##                  78.95       93.30        9.00     
##                  93.35       95.20       10.00     
##                  95.25       97.60        9.00     
##                  97.65       99.95       10.00     
##                 100.00      100.00         .00     
##                 100.05      126.75     #######     
##    last_layer   126.75
# --------------------------
~A DEPTH    SN40     SP       CAL      LN160    GAMMA    
# ...
    19.850    23.860      .069   589.600    36.830    13.200
    19.900    23.740      .069   584.900    36.690    13.210
    19.950    23.620      .069   583.800    36.570    13.230
    20.000    23.520      .069   583.600    36.410    13.240
    20.050    23.440      .069   583.100    36.270    13.250
    20.100    23.350      .069   582.500    36.140    13.290
    20.150    23.340      .069   581.600    35.970    13.380
    20.200    23.330      .069   580.400    35.770    13.550
    20.250    23.330      .069   578.400    35.610    13.850
    20.300    23.420      .069   579.300    35.380    14.150
    20.350    23.490      .069   580.300    35.140    14.440
    20.400    23.650      .068   581.100    34.960    13.940
    20.450    23.840      .068   580.300    34.800    13.790
    20.500    24.050      .068   579.100    34.650    13.710
    20.550    24.270      .068   578.300    34.510    13.660
    20.600    24.470      .067   576.100    34.350    13.630
    20.650    24.690      .067   574.500    34.250    13.560
    20.700    24.900      .067   573.300    34.160    13.300
    20.750    25.090      .067   574.700    34.050    13.030
    20.800    25.280      .067   576.400    33.960    12.760
    20.850    25.470      .066   576.500    33.880    12.490
    20.900    25.670      .066   573.200    33.800    12.220
    20.950    25.870      .066   570.300    33.720    12.080
    21.000    26.040      .066   568.300    33.640    12.250
    21.050    26.170      .066   567.400    33.560    12.410
    21.100    26.270      .066   570.800    33.520    12.580
    21.150    26.360      .066   572.500    33.470    12.600
    21.200    26.420      .066   572.800    33.420    12.200
    21.250    26.450      .066   569.600    33.380    12.020
    21.300    26.470      .066   565.700    33.310    11.920
    21.350    26.490      .066   560.000    33.250    11.840
    21.400    26.510      .066   559.500    33.180    11.730
    21.450    26.510      .066   561.400    33.120    11.860
    21.500    26.490      .066   563.000    33.050    12.020
    21.550    26.470      .066   565.200    32.970    12.120
    21.600    26.430      .066   563.700    32.880    11.740
    21.650    26.380      .066   561.600    32.770    11.630
    21.700    26.340      .066   559.700    32.640    11.550
    21.750    26.270      .066   558.100    32.450    11.490
    21.800    26.190      .066   555.700    32.220    11.490
    21.850    26.120      .066   559.100    32.010    11.500
    21.900    25.960      .066   560.400    31.730    11.520
    21.950    25.790      .066   560.500    31.490    11.590
    22.000    25.610      .067   556.800    31.270    11.700
    22.050    25.440      .067   555.900    31.080    11.890
    22.100    25.150      .067   556.300    30.930    12.180
    22.150    24.910      .067   562.400    30.810    12.240
    22.200    24.700      .067   567.500    30.710    12.260
    22.250    24.310      .067   570.600    30.630    12.380
    22.300    24.100      .067   571.300    30.580    12.750
    22.350    23.890      .067   572.700    30.570    13.290
    22.400    23.610      .068   574.000    30.560    13.740
    22.450    23.300      .068   571.700    30.550    13.960
    22.500    23.000      .068   569.600    30.550    14.190
    22.550    22.670      .068   568.300    30.550    14.410
    22.600    22.280      .069   566.800    30.540    14.630
    22.650    21.900      .069   562.000    30.530    14.890
    22.700    21.710      .069   563.500    30.520    14.440
    22.750    21.520      .069   566.100    30.500    13.980
    22.800    21.340      .069   569.200    30.490    13.530
    22.850    21.170      .069   571.000    30.490    13.090
    22.900    20.930      .069   568.000    30.490    13.060
    22.950    20.760      .069   561.700    30.470    13.240
    23.000    20.640      .069   558.300    30.440    13.620
    23.050    20.580      .069   559.900    30.390    13.990
    23.100    20.560      .069   561.900    30.340    14.060
    23.150    20.590      .069   564.800    30.300    14.130
    23.200    20.650      .068   566.100    30.240    13.640
    23.250    20.790      .068   563.200    30.190    13.330
    23.300    21.010      .068   561.000    30.130    12.840
    23.350    21.290      .068   561.500    30.070    12.770
    23.400    21.540      .068   566.100    30.000    12.750
    23.450    21.800      .068   568.100    29.940    12.740
    23.500    22.070      .067   565.200    29.880    12.750
    23.550    22.360      .067   561.700    29.790    12.700
    23.600    22.660      .067   561.100    29.700    12.570
    23.650    22.960      .067   561.100    29.600    12.420
    23.700    23.240      .067   560.500    29.490    12.310
    23.750    23.500      .066   560.900    29.370    12.190
    23.800    23.730      .066   563.400    29.290    12.260
    23.850    23.950      .066   564.400    29.220    12.460
    23.900    24.090      .066   564.400    29.140    12.580
    23.950    24.210      .066   561.900    29.060    12.730
    24.000    24.360      .066   562.600    28.990    12.800
    24.050    24.430      .066   566.000    28.920    12.880
    24.100    24.500      .066   569.400    28.880    12.830
    24.150    24.560      .065   564.800    28.850    12.860
    24.200    24.600      .065   557.400    28.810    12.900
    24.250    24.630      .065   561.300    28.790    12.860
    24.300    24.630      .065   565.200    28.770    12.800
    24.350    24.640      .065   565.900    28.760    12.830
    24.400    24.640      .065   558.700    28.760    12.960
    24.450    24.640      .065   551.500    28.750    13.150
    24.500    24.620      .065   544.400    28.730    13.390
    24.550    24.600      .065   547.200    28.710    13.390
    24.600    24.550      .065   555.400    28.690    13.310
    24.650    24.490      .065   563.500    28.670    13.250
    24.700    24.410      .065   568.300    28.640    13.290
    24.750    24.320      .065   564.400    28.610    13.390
    24.800    24.240      .066   560.500    28.580    13.530
    24.850    24.130      .066   557.600    28.550    13.610
    24.900    24.010      .066   564.800    28.530    13.490
    24.950    23.870      .066   567.700    28.530    13.430
    25.000    23.660      .066   564.000    28.520    13.410
    25.050    23.380      .067   560.300    28.510    13.500
    25.100    23.170      .067   561.700    28.500    13.630
    25.150    22.940      .068   572.700    28.470    13.850
    25.200    22.670      .068   564.500    28.440    13.960
    25.250    22.390      .068   555.700    28.460    14.060
    25.300    22.110      .069   560.100    28.470    14.230
    25.350    21.720      .069   564.400    28.460    14.540
    25.400    21.480      .070   568.700    28.450    14.750
    25.450    21.130      .070   573.800    28.440    14.760
    25.500    20.840      .070   559.300    28.430    14.790
    25.550    20.610      .070   544.700    28.420    14.600
    25.600    20.380      .070   542.900    28.360    14.410
    25.650    20.210      .070   548.000    28.260    14.330
    25.700    20.030      .070   553.300    28.140    14.290
    25.750    19.910      .070   557.400    28.020    14.340
    25.800    19.870      .070   561.400    27.880    14.460
    25.850    19.840      .069   565.500    27.700    14.670
    25.900    19.820      .069   569.600    27.510    15.020
    25.950    19.830      .069   564.500    27.330    15.190
    26.000    19.890      .069   559.400    27.140    15.260
    26.050    19.960      .069   554.300    26.960    15.090
    26.100    20.050      .069   547.900    26.770    14.710
    26.150    20.150      .069   555.900    26.590    14.330
    26.200    20.320      .068   563.800    26.490    13.950
    26.250    20.480      .068   571.800    26.420    13.560
    26.300    20.650      .068   579.800    26.300    13.300
    26.350    20.780      .068   586.000    26.200    13.170
    26.400    20.900      .068   578.300    26.040    13.190
