~Version Information Block
 VERS.                2.00:     CWLS LOG ASCII STANDARD - VERSION 2.000000
 WRAP.                  NO:     One Line Per Depth Step
#
~Well Information Block
#MNEM.UNIT                     Data                         Information
#----------   ------------------------------------------   ----------------
 STRT.M                                         0.0000:
 STOP.M                                       171.0000:
 STEP.M                                         0.0200:
 NULL.                                       -999.2500:
 COMP.                                                :     COMPANY
 WELL.                                        B62B0838:     WELL
 FLD .                                                :     FIELD
 CNTY.                                                :     COUNTY
 STAT.                                                :     STATE
 CTRY.                                                :     COUNTRY
 SRVC.                                                :     SERVICE COMPANY
 DATE.                                                :     DATE
 API .                                                :     API NUMBER
 UWI .                                                :     UWI NUMBER
#
~Curve Information Block
#MNEM.UNIT       API CODE      Curve Description
#----------    -------------   -------------------
 DEPT.M                    :   Depth in Meters
 SN20.OHM-M                :   SN20
 LN100.OHM-M               :   LN100
 CALI.CM                   :   Calr
 GAM(NAT) .CPS             :   GAM(NAT)
#
~Parameter Information Block
#MNEM.UNIT            Value               Description
#----------    --------------------    -------------------
 PDAT.                            :    Permanent Datum
 EPD .M                     0.0000:    Elevation Of Perm. Datum
 WSTA.                         LOC:    
 E   .M                     0.0000:    E (Stretch Coefficient Of The Cable)
 TD  .M                   171.0000:    Total Depth
#
~Other Information Block
<DescLogPlotStart>   NEURALOG PLOT DEFINITION
PLOTDEFVERSION: 3
LASFILE: V:\a4\j4\p44009\boorgatmetingen\SCANS TE VERWERKEN IN DINO\wlg\B62B083
DEPTHSCALE: 200.000000
RESOLUTION: 600
DEPTHLABELFREQ: 50.000000
HEAVYGRIDFREQ: 50.000000
MEDIUMGRIDFREQ: 25.000000
LIGHTGRIDFREQ: 5.000000
#
#   TRACK 1
#
STARTTRACK: 
 LEFTX: 13.760000 inch
 RIGHTX: 15.010000 inch
 SCALETYPE: LINEAR
 NUMCHARTDIVISIONS: 10
CURVE: CALI  30.000000  50.000000  (0,0,255)      Solid             2     N    
ENDTRACK: 
#
#   TRACK 2
#
STARTTRACK: 
 LEFTX: 16.551667 inch
 RIGHTX: 21.551667 inch
 SCALETYPE: LINEAR
 NUMCHARTDIVISIONS: 10
CURVE: GAM(NAT)   0.000000   50.000000  (0,131,131)    Solid             2     N    
ENDTRACK: 
#
#   TRACK 3
#
STARTTRACK: 
 LEFTX: 15.343333 inch
 RIGHTX: 21.240000 inch
 SCALETYPE: LINEAR
 NUMCHARTDIVISIONS: 10
CURVE: SN20  0.000000   100.000000 (255,0,255)    Solid             2     Y    
CURVE: LN100  0.000000   100.000000 (255,0,0)      Dot               2     Y    
ENDTRACK: 
<DescLogPlotEnd>
~Other Information
#MNEM.UNIT  Information      Description
#---------- ---------------  ------------------------
# --------------------------
## COMMENTS    Top_Depth   Bot_Depth  LithCode  Lat    Long   Elev_Gl 
##	0.0	31.2	0.0
##	31.25	97.0	25.0
##	97.05	97.5	11.0
##	97.55	104.0	12.0
##	104.05	110.1	11.0
##	110.15	111.7	12.0
##	111.75	113.1	11.0
##	113.15	116.6	12.0
##	116.65	124.1	11.0
##	124.15	125.9	12.0
##	125.95	139.0	11.0
##	139.05	140.0	10.0
##	140.05	145.5	11.0
##	145.55	146.3	10.0
##	146.35	148.0	12.0
##	148.05	149.4	10.0
##	149.45	150.0	11.0
##	150.05	151.9	10.0
##	151.95	152.6	11.0
##	152.65	155.0	10.0
##	155.05	160.9	14.0
##	160.95	163.2	11.0
##	163.25	164.0	10.0
##	164.05	167.8	11.0
##	167.85	170.0	10.0
##	170.05	171.95	11.0
# --------------------------
~A  DEPTH         SN20             LN100            CALI             GAM(NAT)  
# ...
      80.900      30.85486054      33.56151498      38.74338624      16.60497343
      80.920      30.97206216      33.61051170      38.87566138      16.59428811
      80.940      31.08926378      33.65950843      38.87566138      16.49656183
      80.960      31.20646540      33.70850516      38.87566138      16.37877017
      80.980      31.32366703      33.75750188      38.81045515      16.29184985
      81.000      31.44086865      33.80649861      38.75382902      16.27271595
      81.020      31.55807027      33.85549533      38.71750982      16.83293879
      81.040      31.67527189      33.90449206      38.69047619      16.83293879
      81.060      31.79247351      33.95348879      38.69047619      16.66158209
      81.080      31.90967514      34.00248551      38.69303506      16.52857626
      81.100      32.02687676      34.05148224      38.71693122      16.52063594
      81.120      32.14407838      34.10047897      38.71693122      16.48317700
      81.140      32.26128000      34.14947569      38.71693122      16.27000457
      81.160      32.37848163      34.19847242      38.71693122      16.12674059
      81.180      32.49568325      34.24746914      38.74235589      16.03953153
      81.200      32.61288487      34.29646587      38.76984127      15.96207928
      81.220      32.73008649      34.34546260      38.76984127      15.75164888
      81.240      32.84728811      34.39445932      38.82485844      15.54650576
      81.260      32.96448974      34.44345605      38.84920635      15.48021644
      81.280      32.99886942      34.49245277      38.87566138      15.44935103
      81.300      32.99886942      34.54144950      38.87566138      15.20967196
      81.320      33.04919603      34.58168457      38.90211640      15.25314696
      81.340      33.13305581      34.58168457      38.90211640      15.21156657
      81.360      33.21691559      34.58168457      38.90211640      15.19276294
      81.380      33.30077537      34.58168457      38.90211640      15.18110065
      81.400      33.38463516      34.58168457      38.92857143      15.17902806
      81.420      33.46849494      34.92085924      38.92857143      15.25085287
      81.440      33.55235472      34.92085924      38.92857143      15.33846142
      81.460      33.63621450      34.92085924      38.97668864      15.37876226
      81.480      33.70548332      34.92085924      38.98148148      15.38813045
      81.500      33.70548332      34.92085924      39.00793651      15.37999830
      81.520      33.67380388      34.89370543      39.00793651      15.38889977
      81.540      33.46428253      34.75127191      39.02573099      15.72892156
      81.560      33.39719470      34.75127191      39.03439153      16.06281655
      81.580      33.33804409      34.75127191      39.03439153      16.47267165
      81.600      33.33804409      34.75127191      39.06084656      16.87307549
      81.620      33.33330358      34.75127191      39.06518766      17.35130832
      81.640      33.12884340      34.75127191      39.08730159      17.54936744
      81.660      33.08366309      34.75127191      39.08730159      17.82447241
      81.680      33.02337459      34.75127191      39.09478016      18.03861785
      81.700      32.96334864      34.75127191      39.12286890      17.72442040
      81.720      32.90332269      34.75127191      39.13945976      17.57549437
      81.740      32.84329674      34.75127191      39.14021164      17.49906753
      81.760      32.78327079      34.75127191      39.16666667      17.41548353
      81.780      32.72324484      34.75127191      39.16666667      17.23626957
      81.800      32.66321890      34.75127191      39.16666667      17.20560984
      81.820      32.60319295      34.75127191      39.16666667      17.25203749
      81.840      32.54316700      34.41209723      39.14021164      17.27257355
      81.860      32.48314105      34.41209723      39.12332065      17.10959622
      81.880      32.42311510      34.41209723      38.71693122      17.00183725
      81.900      32.36308915      34.41209723      38.71693122      17.07100012
      81.920      32.30306320      34.41209723      38.71693122      16.99792147
      81.940      32.24303725      34.41161663      38.71693122      17.00642345
      81.960      32.18301131      34.18479589      38.71693122      17.12039229
      81.980      32.12298536      33.95797515      38.71693122      17.26626678
      82.000      32.06295941      33.73115440      38.74996132      17.32330064
      82.020      32.00293346      33.50433366      38.78628052      17.29588428
      82.040      31.94290751      33.27751292      38.82259971      17.27267046
      82.060      31.88288156      33.05069218      38.84920635      17.23704086
      82.080      31.82285561      32.82387144      38.87566138      17.22184647
      82.100      31.76282966      32.59705069      38.87566138      17.26547374
      82.120      31.70280372      32.37022995      38.87566138      17.61751973
      82.140      31.64277777      32.14340921      38.87566138      17.73885339
      82.160      31.58079696      31.91658847      38.87566138      18.17266591
      82.180      31.48016522      31.68976773      38.87566138      18.33468012
      82.200      31.37953349      31.46294698      38.87566138      18.53805125
      82.220      31.27890175      31.23612624      38.87566138      18.59739700
      82.240      31.17827001      31.00930550      38.87566138      18.69293203
      82.260      31.07763827      30.78248476      38.87566138      18.69293203
      82.280      30.97700654      30.55566402      38.87566138      18.65012944
      82.300      30.87637480      30.32884328      38.87566138      18.81563620
      82.320      30.77574306      30.10202253      38.87566138      18.92965844
      82.340      30.67511132      29.87520179      38.87566138      18.97340635
      82.360      30.57447959      29.64838105      38.87566138      19.09739996
      82.380      30.47384785      29.42156031      38.87566138      19.21709414
      82.400      30.37321611      29.19473957      38.87566138      19.26087765
      82.420      30.27258437      28.96791882      38.87566138      19.30298805
      82.440      30.17195263      28.74109808      38.87566138      19.36438068
      82.460      30.07132090      28.51427734      38.87566138      19.57426821
      82.480      29.97068916      28.33330097      38.87566138      19.70747379
      82.500      29.87005742      28.20618720      38.87566138      19.78475102
      82.520      29.76942568      28.07907342      38.74489310      19.85772881
      82.540      29.66879395      27.95195965      38.74338624      19.94420020
      82.560      29.56816221      27.82484588      38.71693122      19.95584667
      82.580      29.46753047      27.69773210      38.71530060      19.89347311
      82.600      29.18675735      27.57061833      38.70197098      19.89347311
      82.620      28.90283209      27.44350455      38.71693122      19.89347311
      82.640      28.61890683      27.37422272      38.71693122      19.89347311
      82.660      28.33498157      27.37422272      38.71693122      19.92332596
      82.680      28.05105631      27.37422272      38.71693122      19.99492729
      82.700      27.76713105      27.37422272      38.71693122      20.11639543
      82.720      27.48320579      27.37422272      38.71693122      20.42345945
      82.740      27.19928053      27.37422272      38.68929732      20.47214757
      82.760      26.91535527      27.43983286      38.65297812      20.60085989
      82.780      26.63143001      27.50692068      38.61665893      20.66419656
      82.800      26.34750475      27.00678349      38.58465608      20.71925671
      82.820      26.06357949      27.00678349      38.55820106      20.69604289
      82.840      25.77965423      27.05111295      38.55820106      20.54988164
      82.860      25.49572897      27.18012800      38.55820106      20.58365816
