~Version Information
 VERS.                2.0:  CWLS LOG ASCII STANDARD -VERSION 2.0
 WRAP.                 NO:  ONE LINE PER DEPTH STEP
~WELL INFORMATION BLOCK
#MNEM.UNIT       DATA		            DESCRIPTION OF MNEMONIC
#---------    -------------            ------------------------
 STRT.M      .000                        :START DEPTH
 STOP.M    68.050                        :STOP DEPTH
 STEP.M      .050                        :STEP
 NULL.    -999999.0                      :NULL VALUE
 COMP.       WML                         :COMPANY
 WELL.                          B62B0903 :WELL
 FLD .    Nuth                           :FIELD
 CNTY.                                   :COUNTY
 STAT.                                   :STATE
 SRVC.                                   :SERVICE COMPANY
 DATE.     13-APR-92                     :LOG DATE
 UWI .                                   :UNIQUE WELL ID
 LIC .                                   :LICENSE NUMBER
~Curve Information Block
#MNEM.UNIT      API CODE     Curve Description
#---------    -------------  ------------------------
DEPTH    .M         00 000 00 00          :  1  DEPTH
GAMMA    .CPS       00 000 00 00          :  2  GAMMA
SN40     .OHM.M     00 000 00 00          :  3  SN40
CAL      .MM        00 000 00 00          :  4  CAL
SP       .V         00 000 00 00          :  5  SP
LN160    .OHM.M     00 000 00 00          :  6  LN160
~Parameter Information Block
#MNEM.UNIT   Information     Description
#---------- ---------------  ------------------------
 FILE.                         :File Type
 FIID.                         :File Type Identifier
 VERS.                         :System Version
 SER .                         :System Serial Number
 TRUK.                         :Truck Calibration Number
 TOOL.                         :Tool Serial Number
 TIME.                         :Time    HrHrMinMin
 LAT .                         :Latitude
 LON .                         :Longitude
 LMF .            MV           :LOG Measured FROM
 DMF .                         :Driller Measured From
 PD  .                         :Permanent Data
 PDEV.                         :Elevation Permanent Data
 EKB .M                        :Elevation Kelly Bushing
 ELEV.DF                       :Elevation DF
 EGL .M                        :Elevation Ground Level
 DRDP.                         :Drillers Depth
 CASD.                         :Casing Diameter
 CASB.                         :Casing Bottom
 CASX.                         :Casing Type
 CAST.                         :Casing Thickness
 TNOC.                         :Time Circulation Stopped
 LOGU.                         :Logging Unit
 RECB.            Bergsma      :Recorded By
 OSR1.                         :Other Services
 OSR2.                         :Other Services
 OSR3.                         :Other Services
 BS  .MM                       :Bit Size
 MST .                         :Mean Surface Temperature
 TGRD.                         :Temperature Gradiant
 MAGN.                         :Magnetic Declination
 MDEN.                         :Density Matrix
 MATR.                         :Neutron Matrix
 DTMT.                         :Delta T Matrix
 DTFL.                         :Delta T Fluid
 MUDS.                         :Mud Sample Source
 MRS .                         :Mud Resistivity
 MTP .                         :Mud Temperature
 MFRS.                         :Resistivity Mud Filtrate
 MFTP.                         :Temperature Mud Filtrate
 MCRS.                         :Resistivity Mud Cake
 MCTP.                         :Temperature Mud Cake
 FTYP.                         :Fluid Type
 FD  .K/M3                     :Fluid Density
 DFV .S                        :Fluid Viscosity
 FPH .                         :Fuild PH
 ELCO.                         :Electron Cutoff
~Other Information
#MNEM.UNIT  Information      Description
#---------- ---------------  ------------------------
# --------------------------
## COMMENTS    Top_Depth   Bot_Depth  LithCode  Lat    Long   Elev_Gl
##    Type of LithCode   Lithologie - 1970
##                    .00        5.00         .00     
##                   5.05        6.80       10.00     
##                   6.85        8.00       11.00     
##                   8.05       11.00       10.00     
##                  11.05       15.00       12.00     
##                  15.05       17.00       10.00     
##                  17.05       18.40       12.00     
##                  18.45       23.00       10.00     
##                  23.05       25.40       12.00     
##                  25.45       28.00        6.00     
##                  28.05       28.35       19.00     
##                  28.40       30.00       11.00     
##                  30.05       31.00       12.00     
##                  31.05       34.00       11.00     
##                  34.05       38.90        6.00     
##                  38.95       40.80       23.00     
##                  40.85       47.45        6.00     
##                  47.50       52.00       21.00     
##                  52.05       60.00       22.00     
##                  60.05       68.00       23.00     
##                  68.05       68.05         .00     
##    last_layer   68.05
# --------------------------
~A DEPTH    GAMMA    SN40     CAL      SP       LN160    
# ...
    59.350    19.460    23.340   471.100      .010    29.160
    59.400    19.630    23.250   470.700      .010    29.110
    59.450    19.840    23.120   476.900      .010    29.060
    59.500    20.010    23.000   476.200      .010    29.010
    59.550    20.110    22.880   481.700      .011    28.980
    59.600    20.220    22.760   480.500      .011    28.930
    59.650    20.150    22.640   475.300      .011    28.880
    59.700    19.980    22.530   478.800      .011    28.830
    59.750    19.630    22.410   478.400      .011    28.790
    59.800    18.720    22.290   476.100      .011    28.750
    59.850    18.570    22.170   478.200      .011    28.700
    59.900    18.570    22.060   474.400      .011    28.660
    59.950    18.520    21.960   475.700      .011    28.640
    60.000    18.120    21.840   479.500      .011    28.620
    60.050    17.830    21.740   477.300      .011    28.600
    60.100    17.530    21.640   480.300      .011    28.540
    60.150    17.270    21.530   483.800      .011    28.490
    60.200    17.000    21.430   483.000      .011    28.440
    60.250    16.760    21.320   483.500      .012    28.400
    60.300    16.700    21.210   487.200      .012    28.360
    60.350    16.890    21.080   483.300      .012    28.340
    60.400    17.150    20.980   480.000      .012    28.310
    60.450    17.470    20.870   482.500      .012    28.290
    60.500    17.620    20.750   477.400      .012    28.270
    60.550    17.830    20.670   481.500      .012    28.270
    60.600    18.140    20.600   485.000      .012    28.280
    60.650    18.520    20.530   478.700      .012    28.280
    60.700    18.890    20.500   481.500      .012    28.290
    60.750    18.910    20.460   486.100      .012    28.280
    60.800    18.600    20.460   487.100      .012    28.280
    60.850    18.320    20.460   477.800      .012    28.280
    60.900    18.160    20.460   479.400      .012    28.270
    60.950    18.160    20.490   479.500      .012    28.260
    61.000    18.220    20.520   480.000      .012    28.250
    61.050    18.290    20.560   483.900      .012    28.230
    61.100    18.180    20.600   487.700      .012    28.220
    61.150    18.090    20.640   472.600      .012    28.200
    61.200    17.890    20.690   478.400      .012    28.180
    61.250    17.620    20.740   481.700      .012    28.150
    61.300    17.170    20.780   487.500      .012    28.120
    61.350    16.350    20.830   482.100      .011    28.090
    61.400    16.120    20.880   484.400      .011    28.060
    61.450    15.830    20.960   488.400      .011    28.020
    61.500    15.840    21.030   478.900      .011    27.980
    61.550    16.010    21.100   475.500      .011    27.940
    61.600    16.290    21.190   476.300      .011    27.890
    61.650    16.760    21.300   478.900      .011    27.830
    61.700    17.020    21.400   481.100      .011    27.780
    61.750    17.100    21.510   469.100      .011    27.720
    61.800    17.210    21.610   471.200      .011    27.660
    61.850    17.380    21.730   474.800      .011    27.600
    61.900    17.600    21.820   479.100      .011    27.520
    61.950    17.540    21.920   471.900      .011    27.440
    62.000    17.320    22.020   477.000      .011    27.370
    62.050    17.060    22.100   480.200      .011    27.290
    62.100    16.830    22.190   472.100      .012    27.230
    62.150    16.860    22.270   477.900      .012    27.170
    62.200    16.230    22.350   481.100      .012    27.120
    62.250    15.940    22.440   482.900      .012    27.060
    62.300    15.730    22.510   478.000      .012    27.010
    62.350    15.690    22.580   478.900      .012    26.960
    62.400    16.010    22.650   482.100      .012    26.910
    62.450    16.350    22.710   477.500      .012    26.860
    62.500    16.370    22.750   467.000      .012    26.800
    62.550    16.440    22.800   473.400      .012    26.730
    62.600    16.730    22.830   477.800      .012    26.660
    62.650    17.350    22.850   478.600      .012    26.590
    62.700    17.580    22.860   482.000      .012    26.530
    62.750    17.900    22.860   476.500      .012    26.460
    62.800    18.020    22.860   476.500      .013    26.390
    62.850    17.990    22.840   479.300      .013    26.320
    62.900    17.420    22.830   477.100      .013    26.270
    62.950    17.110    22.800   480.600      .013    26.220
    63.000    17.100    22.770   483.900      .013    26.180
    63.050    17.260    22.720   472.500      .013    26.130
    63.100    17.290    22.680   471.300      .014    26.110
    63.150    17.080    22.610   477.200      .014    26.080
    63.200    16.600    22.540   472.900      .014    26.050
    63.250    16.100    22.410   473.800      .014    26.030
    63.300    16.110    22.310   480.300      .014    26.010
    63.350    16.300    22.100   474.300      .014    25.990
    63.400    16.500    21.910   477.300      .014    25.970
    63.450    16.590    21.730   476.800      .014    25.960
    63.500    16.400    21.550   468.800      .014    25.950
    63.550    16.150    21.380   475.000      .014    25.940
    63.600    15.850    21.220   477.500      .014    25.940
    63.650    15.540    21.090   473.800      .014    25.960
    63.700    15.590    20.910   474.900      .014    25.970
    63.750    15.790    20.690   480.900      .015    25.990
    63.800    15.620    20.500   479.500      .015    26.030
    63.850    15.230    20.280   474.600      .015    26.070
    63.900    14.910    20.060   482.300      .015    26.110
    63.950    15.340    19.840   473.200      .015    26.140
    64.000    15.790    19.660   478.400      .015    26.160
    64.050    15.990    19.480   485.900      .015    26.190
    64.100    15.940    19.320   477.700      .016    26.210
    64.150    16.090    19.170   479.300      .016    26.220
    64.200    16.540    19.030   480.000      .016    26.240
    64.250    16.790    18.900   476.100      .016    26.260
    64.300    16.540    18.800   486.900      .016    26.250
    64.350    16.590    18.700   490.500      .016    26.250
    64.400    16.830    18.610   465.300      .016    26.240
    64.450    16.920    18.530   482.800      .016    26.230
    64.500    17.050    18.480   487.500      .016    26.200
    64.550    17.270    18.420   473.000      .016    26.170
    64.600    17.550    18.410   472.600      .016    26.140
    64.650    17.490    18.390   483.100      .016    26.080
    64.700    17.270    18.400   482.800      .016    26.020
    64.750    17.320    18.400   476.400      .016    25.960
    64.800    17.370    18.420   473.500      .016    25.890
    64.850    17.090    18.450   484.200      .016    25.820
    64.900    17.320    18.500   493.000      .015    25.740
    64.950    18.230    18.550   471.800      .015    25.670
    65.000    18.790    18.590   468.200      .015    25.560
    65.050    19.140    18.650   480.700      .015    25.450
    65.100    18.940    18.720   482.200      .015    25.340
    65.150    18.720    18.780   477.100      .015    25.210
    65.200    18.800    18.850   482.800      .015    25.110
    65.250    18.920    18.920   490.700      .015    25.010
    65.300    18.130    19.010   486.400      .015    24.900
    65.350    17.760    19.090   477.700      .014    24.780
    65.400    17.580    19.170   483.200      .014    24.700
    65.450    17.310    19.180   489.600      .014    24.630
    65.500    17.310    19.190   473.900      .014    24.550
    65.550    17.880    19.190   479.300      .014    24.480
    65.600    18.150    19.190   485.900      .014    24.410
    65.650    19.090    19.180   479.200      .014    24.340
    65.700    19.330    19.180   473.900      .014    24.280
    65.750    19.640    19.170   478.400      .014    24.220
    65.800    19.660    19.160   485.200      .014    24.180
    65.850    19.580    19.150   489.600      .014    24.140
    65.900    19.380    19.140   486.400      .014    24.130
