~Version Information
 VERS.                2.0:  CWLS LOG ASCII STANDARD -VERSION 2.0
 WRAP.                 NO:  ONE LINE PER DEPTH STEP
~WELL INFORMATION BLOCK
#MNEM.UNIT       DATA		            DESCRIPTION OF MNEMONIC
#---------    -------------            ------------------------
 STRT.M      .450                        :START DEPTH
 STOP.M   #######                        :STOP DEPTH
 STEP.M      .050                        :STEP
 NULL.    -999999.0                      :NULL VALUE
 COMP.       SCHIFOOD                    :COMPANY
 WELL.                          B62B0899 :WELL
 FLD .    Heerlen                        :FIELD
 CNTY.                                   :COUNTY
 STAT.                                   :STATE
 SRVC.                                   :SERVICE COMPANY
 DATE.     23-JAN-91                     :LOG DATE
 UWI .                                   :UNIQUE WELL ID
 LIC .                                   :LICENSE NUMBER
~Curve Information Block
#MNEM.UNIT      API CODE     Curve Description
#---------    -------------  ------------------------
DEPTH    .M         00 000 00 00          :  1  DEPTH
SN40     .OHM.M     00 000 00 00          :  2  SN40
SP       .V         00 000 00 00          :  3  SP
CAL      .MM        00 000 00 00          :  4  CAL
LN160    .OHM.M     00 000 00 00          :  5  LN160
GAMMA    .CPS       00 000 00 00          :  6  GAMMA
~Parameter Information Block
#MNEM.UNIT   Information     Description
#---------- ---------------  ------------------------
 FILE.                         :File Type
 FIID.                         :File Type Identifier
 VERS.                         :System Version
 SER .                         :System Serial Number
 TRUK.                         :Truck Calibration Number
 TOOL.                         :Tool Serial Number
 TIME.                         :Time    HrHrMinMin
 LAT .                         :Latitude
 LON .                         :Longitude
 LMF .            MV           :LOG Measured FROM
 DMF .                         :Driller Measured From
 PD  .                         :Permanent Data
 PDEV.                         :Elevation Permanent Data
 EKB .M                        :Elevation Kelly Bushing
 ELEV.DF                       :Elevation DF
 EGL .M                        :Elevation Ground Level
 DRDP.                         :Drillers Depth
 CASD.                         :Casing Diameter
 CASB.                         :Casing Bottom
 CASX.                         :Casing Type
 CAST.                         :Casing Thickness
 TNOC.                         :Time Circulation Stopped
 LOGU.                         :Logging Unit
 RECB.            Veenendaal   :Recorded By
 OSR1.                         :Other Services
 OSR2.                         :Other Services
 OSR3.                         :Other Services
 BS  .MM                       :Bit Size
 MST .                         :Mean Surface Temperature
 TGRD.                         :Temperature Gradiant
 MAGN.                         :Magnetic Declination
 MDEN.                         :Density Matrix
 MATR.                         :Neutron Matrix
 DTMT.                         :Delta T Matrix
 DTFL.                         :Delta T Fluid
 MUDS.                         :Mud Sample Source
 MRS .                         :Mud Resistivity
 MTP .                         :Mud Temperature
 MFRS.                         :Resistivity Mud Filtrate
 MFTP.                         :Temperature Mud Filtrate
 MCRS.                         :Resistivity Mud Cake
 MCTP.                         :Temperature Mud Cake
 FTYP.                         :Fluid Type
 FD  .K/M3                     :Fluid Density
 DFV .S                        :Fluid Viscosity
 FPH .                         :Fuild PH
 ELCO.                         :Electron Cutoff
~Other Information
#MNEM.UNIT  Information      Description
#---------- ---------------  ------------------------
# --------------------------
## COMMENTS    Top_Depth   Bot_Depth  LithCode  Lat    Long   Elev_Gl
##    Type of LithCode   Lithologie - 1970
##                    .00         .00         .00     
##                    .45        5.75         .00     
##                   5.80        7.15       13.00     
##                   7.20        8.50        2.00     
##                   8.55       10.20       23.00     
##                  10.25       11.30       11.00     
##                  11.35       15.15       23.00     
##                  15.20       18.40       21.00     
##                  18.45       27.30       12.00     
##                  27.35       39.00       11.00     
##                  39.05       47.15       12.00     
##                  47.20       49.00       10.00     
##                  49.05       51.00        7.00     
##                  51.05       54.00       10.00     
##                  54.05       55.80        9.00     
##                  55.85       57.00       20.00     
##                  57.05       58.00        9.00     
##                  58.05       60.00       20.00     
##                  60.05       63.20       11.00     
##                  63.25       67.00        8.00     
##                  67.05       70.20        9.00     
##                  70.25       74.00        7.00     
##                  74.05       75.70        9.00     
##                  75.75       78.00        7.00     
##                  78.05       84.00        8.00     
##                  84.05       92.00        9.00     
##                  92.05       94.10       10.00     
##                  94.15       97.50        9.00     
##                  97.55      100.55       10.00     
##                 100.60      100.60         .00     
##                 100.65      126.40     #######     
##    last_layer   126.4
# --------------------------
~A DEPTH    SN40     SP       CAL      LN160    GAMMA    
# ...
    99.100    17.190      .064   544.700    27.700    10.960
    99.150    17.360      .064   543.000    27.910    10.910
    99.200    17.560      .063   542.400    28.120    10.820
    99.250    17.780      .063   542.000    28.320    10.970
    99.300    18.030      .063   541.700    28.530    10.950
    99.350    18.240      .063   541.600    28.690    10.890
    99.400    18.510      .063   541.600    28.800    10.850
    99.450    18.910      .063   541.500    29.020    10.670
    99.500    19.390      .063   541.100    29.260    10.060
    99.550    20.050      .062   538.700    29.540     9.860
    99.600    20.440      .062   535.900    29.860     9.940
    99.650    21.080      .062   533.000    30.170     9.810
    99.700    21.500      .062   530.300    30.500     9.650
    99.750    22.300      .062   525.600    30.740     9.570
    99.800    23.320      .061   520.800    31.110     9.480
    99.850    24.340      .061   520.400    31.420     9.250
    99.900    25.360      .061   522.300    31.700     9.040
    99.950    26.380      .061   524.300    32.120     8.680
   100.000    27.370      .061   526.200    32.560     8.330
   100.050    29.200      .061   516.000    33.030     8.360
   100.100    31.040      .061   488.700    33.460     8.560
   100.150    32.870      .061   467.400    33.900     8.550
   100.200    34.700      .061   463.500    34.340     8.400
   100.250    36.540      .061   461.300    34.740     8.350
   100.300    38.370      .061   458.400    35.070     8.220
   100.350    40.240      .062   456.200    36.120     8.040
   100.400    42.160      .062   455.500    37.170     7.620
   100.450    44.070      .063   455.700    38.210     7.090
   100.500    46.140      .063   456.300    39.260     6.890
   100.550    47.440      .063   457.000    40.310     6.620
   100.600    48.750      .063   457.900    41.360     6.490
   100.650    50.050      .063   457.600    42.420     6.320
   100.700    51.350      .063   456.900    44.290     6.070
   100.750    52.600      .063   455.200    46.170     6.010
   100.800    53.130      .063   454.400    48.040     5.960
   100.850    54.060      .063   454.000    49.920     6.040
   100.900    55.320      .063   454.500    51.790     6.270
   100.950    56.220      .063   456.500    54.090     6.490
   101.000    56.690      .063   456.600    55.540     6.720
   101.050    57.440      .063   455.600    56.990     6.740
   101.100    57.890      .063   454.500    58.450     6.540
   101.150    58.250      .063   453.800    59.900     6.380
   101.200    58.420      .064   453.700    61.350     6.330
   101.250    58.520      .063   454.300    62.800     6.360
   101.300    58.500      .063   454.800    64.250     6.490
   101.350    58.450      .063   455.000    65.700     6.640
   101.400    58.360      .063   454.400    66.940     6.820
   101.450    58.310      .063   453.900    68.030     6.940
   101.500    58.320      .063   453.400    69.120     7.060
   101.550    58.360      .063   452.600    70.210     7.070
   101.600    58.420      .063   452.100    71.300     7.100
   101.650    58.450      .063   451.200    72.390     6.110
   101.700    58.440      .063   451.000    73.480     5.900
   101.750    58.380      .063   450.900    74.340     5.900
   101.800    58.250      .063   450.900    74.980     6.020
   101.850    58.060      .063   451.000    75.540     6.260
   101.900    57.890      .063   451.400    76.160     6.410
   101.950    57.610      .063   451.900    76.770     6.560
   102.000    57.470      .063   453.200    77.810     6.630
   102.050    57.430      .063   454.100    78.280     6.360
   102.100    57.420      .063   454.700    79.790     6.100
   102.150    57.450      .062   454.500    80.490     6.070
   102.200    57.500      .062   454.300    81.130     6.030
   102.250    57.590      .062   454.700    81.530     5.950
   102.300    57.700      .062   455.200    81.740     5.770
   102.350    57.810      .062   455.200    82.160     5.310
   102.400    57.910      .062   454.600    82.480     4.630
   102.450    58.000      .062   453.900    82.640     4.520
   102.500    58.070      .062   453.600    82.750     4.800
   102.550    58.140      .062   453.500    82.830     5.070
   102.600    58.190      .063   453.500    82.900     5.350
   102.650    58.200      .063   453.500    82.930     5.620
   102.700    58.200      .064   453.500    82.950     5.900
   102.750    58.180      .064   453.700    83.020     6.170
   102.800    58.170      .064   453.900    83.110     6.060
   102.850    58.140      .065   454.000    83.250     5.860
   102.900    58.080      .065   454.000    83.440     5.530
   102.950    58.030      .066   453.500    83.700     5.190
   103.000    57.990      .067   452.800    83.960     4.740
   103.050    57.900      .068   452.600    84.230     4.690
   103.100    57.830      .069   452.600    84.560     4.900
   103.150    57.770      .070   453.200    84.910     5.170
   103.200    57.740      .071   453.100    85.160     5.170
   103.250    57.710      .071   452.400    85.590     5.030
   103.300    57.700      .071   451.200    85.940     4.870
   103.350    57.710      .071   451.100    86.090     4.890
   103.400    57.740      .071   451.200    86.190     5.040
   103.450    57.770      .071   452.600    86.200     5.150
   103.500    57.820      .071   453.800    86.200     5.220
   103.550    58.010      .071   454.200    86.200     5.240
   103.600    58.230      .071   453.600    86.210     5.250
   103.650    58.650      .071   452.900    86.220     5.310
   103.700    58.940      .071   452.200    86.230     5.420
   103.750    59.380      .071   451.900    86.230     5.780
   103.800    59.680      .071   451.700    86.250     6.130
   103.850    60.170      .071   451.600    86.320     6.490
   103.900    60.400      .071   451.500    86.400     6.900
   103.950    60.650      .070   451.400    86.510     7.140
   104.000    60.760      .070   451.300    86.600     7.130
   104.050    60.860      .069   451.200    86.750     6.850
   104.100    60.920      .068   451.100    86.880     6.680
   104.150    60.930      .068   451.100    87.050     6.330
   104.200    60.920      .068   451.300    87.190     6.010
   104.250    60.890      .068   451.700    87.370     5.840
   104.300    60.790      .068   452.400    87.410     5.750
   104.350    60.650      .067   452.800    87.440     5.640
   104.400    60.550      .067   452.800    87.470     5.560
   104.450    60.450      .066   452.600    87.470     5.540
   104.500    60.410      .066   452.100    87.470     5.700
   104.550    60.440      .066   451.500    87.460     6.050
   104.600    60.560      .065   451.200    87.450     6.390
   104.650    60.730      .065   451.300    87.440     6.740
   104.700    60.880      .064   451.500    87.420     7.160
   104.750    61.010      .064   451.900    87.400     7.130
   104.800    61.080      .064   452.300    87.370     6.990
   104.850    61.050      .064   452.900    87.350     6.750
   104.900    60.940      .064   453.300    87.320     6.680
   104.950    60.810      .065   453.400    87.310     7.050
   105.000    60.820      .065   453.500    87.300     7.420
   105.050    60.870      .065   453.400    87.260     7.800
   105.100    60.870      .065   453.300    87.210     7.220
   105.150    60.750      .066   453.200    87.170     7.010
   105.200    60.700      .066   452.800    87.120     6.870
   105.250    60.690      .066   452.400    87.070     6.450
   105.300    60.730      .066   451.900    87.050     6.190
   105.350    60.790      .066   451.500    87.030     6.150
   105.400    60.880      .066   451.300    87.050     6.240
   105.450    60.970      .066   451.200    87.060     6.240
   105.500    61.030      .066   451.100    87.110     6.250
   105.550    60.980      .065   451.300    87.150     6.310
   105.600    60.770      .064   451.700    87.130     6.480
   105.650    60.580      .063   452.000    87.120     6.590
