~Version Information
 VERS.                2.0:  CWLS LOG ASCII STANDARD -VERSION 2.0
 WRAP.                 NO:  ONE LINE PER DEPTH STEP
~WELL INFORMATION BLOCK
#MNEM.UNIT       DATA		            DESCRIPTION OF MNEMONIC
#---------    -------------            ------------------------
 STRT.M      .000                        :START DEPTH
 STOP.M    68.050                        :STOP DEPTH
 STEP.M      .050                        :STEP
 NULL.    -999999.0                      :NULL VALUE
 COMP.       WML                         :COMPANY
 WELL.                          B62B0903 :WELL
 FLD .    Nuth                           :FIELD
 CNTY.                                   :COUNTY
 STAT.                                   :STATE
 SRVC.                                   :SERVICE COMPANY
 DATE.     13-APR-92                     :LOG DATE
 UWI .                                   :UNIQUE WELL ID
 LIC .                                   :LICENSE NUMBER
~Curve Information Block
#MNEM.UNIT      API CODE     Curve Description
#---------    -------------  ------------------------
DEPTH    .M         00 000 00 00          :  1  DEPTH
GAMMA    .CPS       00 000 00 00          :  2  GAMMA
SN40     .OHM.M     00 000 00 00          :  3  SN40
CAL      .MM        00 000 00 00          :  4  CAL
SP       .V         00 000 00 00          :  5  SP
LN160    .OHM.M     00 000 00 00          :  6  LN160
~Parameter Information Block
#MNEM.UNIT   Information     Description
#---------- ---------------  ------------------------
 FILE.                         :File Type
 FIID.                         :File Type Identifier
 VERS.                         :System Version
 SER .                         :System Serial Number
 TRUK.                         :Truck Calibration Number
 TOOL.                         :Tool Serial Number
 TIME.                         :Time    HrHrMinMin
 LAT .                         :Latitude
 LON .                         :Longitude
 LMF .            MV           :LOG Measured FROM
 DMF .                         :Driller Measured From
 PD  .                         :Permanent Data
 PDEV.                         :Elevation Permanent Data
 EKB .M                        :Elevation Kelly Bushing
 ELEV.DF                       :Elevation DF
 EGL .M                        :Elevation Ground Level
 DRDP.                         :Drillers Depth
 CASD.                         :Casing Diameter
 CASB.                         :Casing Bottom
 CASX.                         :Casing Type
 CAST.                         :Casing Thickness
 TNOC.                         :Time Circulation Stopped
 LOGU.                         :Logging Unit
 RECB.            Bergsma      :Recorded By
 OSR1.                         :Other Services
 OSR2.                         :Other Services
 OSR3.                         :Other Services
 BS  .MM                       :Bit Size
 MST .                         :Mean Surface Temperature
 TGRD.                         :Temperature Gradiant
 MAGN.                         :Magnetic Declination
 MDEN.                         :Density Matrix
 MATR.                         :Neutron Matrix
 DTMT.                         :Delta T Matrix
 DTFL.                         :Delta T Fluid
 MUDS.                         :Mud Sample Source
 MRS .                         :Mud Resistivity
 MTP .                         :Mud Temperature
 MFRS.                         :Resistivity Mud Filtrate
 MFTP.                         :Temperature Mud Filtrate
 MCRS.                         :Resistivity Mud Cake
 MCTP.                         :Temperature Mud Cake
 FTYP.                         :Fluid Type
 FD  .K/M3                     :Fluid Density
 DFV .S                        :Fluid Viscosity
 FPH .                         :Fuild PH
 ELCO.                         :Electron Cutoff
~Other Information
#MNEM.UNIT  Information      Description
#---------- ---------------  ------------------------
# --------------------------
## COMMENTS    Top_Depth   Bot_Depth  LithCode  Lat    Long   Elev_Gl
##    Type of LithCode   Lithologie - 1970
##                    .00        5.00         .00     
##                   5.05        6.80       10.00     
##                   6.85        8.00       11.00     
##                   8.05       11.00       10.00     
##                  11.05       15.00       12.00     
##                  15.05       17.00       10.00     
##                  17.05       18.40       12.00     
##                  18.45       23.00       10.00     
##                  23.05       25.40       12.00     
##                  25.45       28.00        6.00     
##                  28.05       28.35       19.00     
##                  28.40       30.00       11.00     
##                  30.05       31.00       12.00     
##                  31.05       34.00       11.00     
##                  34.05       38.90        6.00     
##                  38.95       40.80       23.00     
##                  40.85       47.45        6.00     
##                  47.50       52.00       21.00     
##                  52.05       60.00       22.00     
##                  60.05       68.00       23.00     
##                  68.05       68.05         .00     
##    last_layer   68.05
# --------------------------
~A DEPTH    GAMMA    SN40     CAL      SP       LN160    
# ...
    26.350     8.890    47.690   496.300      .017    55.910
    26.400     8.760    47.690   494.800      .017    55.920
    26.450     8.640    47.630   498.000      .017    55.820
    26.500     8.490    47.560   501.800      .017    55.670
    26.550     8.310    47.510   501.100      .017    55.480
    26.600     8.240    47.520   499.500      .017    55.200
    26.650     8.210    47.660   498.700      .016    54.830
    26.700     8.140    47.830   498.100      .016    54.330
    26.750     8.020    48.010   497.100      .017    53.760
    26.800     7.890    48.120   496.300      .017    53.350
    26.850     7.820    48.110   490.800      .017    52.630
    26.900     7.830    48.040   492.700      .017    51.570
    26.950     7.820    47.910   493.500      .017    50.550
    27.000     7.680    47.740   493.900      .017    49.270
    27.050     7.660    47.480   497.000      .017    48.150
    27.100     7.740    47.130   497.900      .017    47.360
    27.150     7.920    46.700   496.100      .017    46.000
    27.200     7.870    46.040   491.900      .017    44.840
    27.250     7.910    45.510   490.300      .017    42.880
    27.300     7.970    44.760   490.100      .017    41.950
    27.350     8.060    44.110   489.800      .017    41.110
    27.400     8.170    43.000   488.500      .017    40.530
    27.450     8.230    42.000   488.600      .017    39.310
    27.500     8.260    40.870   492.300      .017    38.120
    27.550     8.030    40.020   492.800      .017    37.420
    27.600     7.940    39.220   489.500      .017    36.530
    27.650     7.990    38.420   492.600      .017    35.750
    27.700     8.100    37.260   493.900      .017    35.110
    27.750     8.270    36.060   495.200      .018    34.550
    27.800     8.500    34.770   499.800      .018    34.040
    27.850     9.340    34.040   498.900      .018    33.330
    27.900    10.030    32.740   493.500      .018    32.650
    27.950    10.310    31.480   494.300      .018    32.020
    28.000    10.820    30.560   495.500      .018    31.420
    28.050    11.070    29.760   498.200      .019    30.810
    28.100    11.290    28.920   499.600      .019    30.350
    28.150    11.630    27.250   498.900      .019    29.800
    28.200    11.940    25.790   499.100      .019    29.340
    28.250    11.980    25.040   504.900      .019    28.810
    28.300    12.010    23.470   505.100      .019    28.260
    28.350    12.380    22.960   506.200      .019    27.840
    28.400    13.080    21.760   510.100      .019    27.390
    28.450    13.700    21.190   508.000      .019    26.870
    28.500    13.900    20.610   507.500      .019    26.390
    28.550    13.960    20.000   505.800      .020    25.960
    28.600    14.010    19.410   505.900      .020    25.760
    28.650    14.050    18.900   509.100      .020    25.620
    28.700    14.210    18.380   508.100      .020    25.550
    28.750    14.440    17.810   502.900      .020    25.500
    28.800    14.640    17.260   502.700      .020    25.460
    28.850    14.880    16.720   501.900      .021    25.430
    28.900    15.720    16.190   478.100      .021    25.400
    28.950    16.090    15.670   476.000      .021    25.370
    29.000    16.320    15.150   478.600      .021    25.330
    29.050    16.690    14.660   480.100      .021    25.310
    29.100    17.080    14.220   481.000      .021    25.290
    29.150    17.300    13.740   483.100      .021    25.240
    29.200    17.530    13.360   489.400      .021    25.160
    29.250    17.560    13.090   494.100      .021    25.050
    29.300    17.530    12.860   496.100      .021    24.950
    29.350    17.580    12.710   492.900      .021    24.750
    29.400    17.810    12.600   492.500      .021    24.500
    29.450    18.090    12.540   467.700      .021    24.060
    29.500    18.210    12.510   459.600      .021    23.720
    29.550    17.960    12.550   465.700      .021    23.330
    29.600    17.680    12.670   471.900      .021    22.860
    29.650    17.370    12.800   477.500      .021    22.310
    29.700    17.290    12.910   479.100      .021    21.770
    29.750    17.180    13.140   481.900      .020    21.260
    29.800    16.960    13.370   484.100      .020    20.800
    29.850    16.710    13.610   487.600      .020    20.330
    29.900    16.390    13.830   488.200      .020    19.870
    29.950    16.190    14.090   486.900      .020    19.480
    30.000    15.940    14.360   484.500      .020    19.070
    30.050    15.760    14.620   488.600      .020    18.650
    30.100    15.750    14.860   491.800      .020    18.240
    30.150    15.790    15.090   491.900      .019    17.900
    30.200    16.040    15.240   487.200      .019    17.730
    30.250    17.060    15.130   493.400      .019    17.630
    30.300    17.400    14.960   493.200      .019    17.570
    30.350    19.540    14.620   481.600      .019    17.530
    30.400    19.720    14.370   483.500      .019    17.510
    30.450    19.900    14.180   480.600      .019    17.520
    30.500    20.020    13.970   488.200      .019    17.530
    30.550    20.150    13.870   490.400      .019    17.570
    30.600    20.280    13.840   490.900      .019    17.620
    30.650    20.500    13.810   485.400      .019    17.680
    30.700    20.680    13.750   487.600      .019    17.860
    30.750    21.050    13.590   487.000      .019    18.010
    30.800    21.990    13.300   491.000      .020    18.220
    30.850    22.490    12.960   496.400      .020    18.390
    30.900    23.130    12.640   501.000      .020    18.640
    30.950    23.390    12.290   503.200      .020    18.890
    31.000    23.550    12.060   503.100      .020    19.200
    31.050    23.690    11.830   499.600      .020    19.530
    31.100    24.310    11.610   471.300      .020    19.960
    31.150    24.490    11.390   458.300      .020    20.370
    31.200    24.550    11.200   456.500      .020    20.830
    31.250    24.580    11.110   456.700      .020    21.330
    31.300    24.600    11.080   457.500      .020    21.740
    31.350    24.590    11.080   458.900      .020    22.150
    31.400    24.550    11.110   466.300      .020    22.580
    31.450    24.330    11.180   470.600      .020    23.010
    31.500    24.050    11.250   471.600      .020    23.470
    31.550    23.920    11.320   472.800      .020    23.650
    31.600    23.670    11.400   477.000      .020    23.820
    31.650    23.330    11.450   482.800      .020    23.950
    31.700    23.060    11.500   485.500      .020    24.080
    31.750    23.350    11.520   483.500      .020    24.170
    31.800    23.770    11.570   460.300      .020    24.260
    31.850    23.860    11.650   467.200      .020    24.340
    31.900    23.950    11.760   468.800      .020    24.410
    31.950    24.060    11.900   469.600      .020    24.470
    32.000    24.200    12.090   475.400      .020    24.550
    32.050    24.740    12.320   472.700      .020    24.630
    32.100    25.070    12.520   470.900      .020    24.740
    32.150    25.350    12.770   474.100      .020    24.830
    32.200    25.680    13.010   476.100      .020    25.010
    32.250    25.470    13.220   473.000      .019    25.200
    32.300    25.290    13.500   478.100      .019    25.360
    32.350    25.440    13.760   482.800      .019    25.560
    32.400    25.600    14.050   483.500      .019    25.730
    32.450    25.890    14.390   486.600      .019    25.930
    32.500    26.070    14.780   490.200      .019    26.140
    32.550    26.290    15.250   487.900      .018    26.310
    32.600    26.280    15.800   478.600      .018    26.470
    32.650    25.620    16.510   482.500      .018    26.630
    32.700    25.050    17.280   483.400      .018    26.790
    32.750    24.020    18.160   481.600      .017    26.970
    32.800    23.450    18.660   485.700      .017    27.150
    32.850    22.880    19.170   489.600      .017    27.410
    32.900    21.770    19.540   480.600      .017    27.640
