~Version Information
 VERS.                2.0:  CWLS LOG ASCII STANDARD -VERSION 2.0
 WRAP.                 NO:  ONE LINE PER DEPTH STEP
~WELL INFORMATION BLOCK
#MNEM.UNIT       DATA		            DESCRIPTION OF MNEMONIC
#---------    -------------            ------------------------
 STRT.M      .450                        :START DEPTH
 STOP.M   #######                        :STOP DEPTH
 STEP.M      .050                        :STEP
 NULL.    -999999.0                      :NULL VALUE
 COMP.       SCHIFOOD                    :COMPANY
 WELL.                          B62B0899 :WELL
 FLD .    Heerlen                        :FIELD
 CNTY.                                   :COUNTY
 STAT.                                   :STATE
 SRVC.                                   :SERVICE COMPANY
 DATE.     23-JAN-91                     :LOG DATE
 UWI .                                   :UNIQUE WELL ID
 LIC .                                   :LICENSE NUMBER
~Curve Information Block
#MNEM.UNIT      API CODE     Curve Description
#---------    -------------  ------------------------
DEPTH    .M         00 000 00 00          :  1  DEPTH
SN40     .OHM.M     00 000 00 00          :  2  SN40
SP       .V         00 000 00 00          :  3  SP
CAL      .MM        00 000 00 00          :  4  CAL
LN160    .OHM.M     00 000 00 00          :  5  LN160
GAMMA    .CPS       00 000 00 00          :  6  GAMMA
~Parameter Information Block
#MNEM.UNIT   Information     Description
#---------- ---------------  ------------------------
 FILE.                         :File Type
 FIID.                         :File Type Identifier
 VERS.                         :System Version
 SER .                         :System Serial Number
 TRUK.                         :Truck Calibration Number
 TOOL.                         :Tool Serial Number
 TIME.                         :Time    HrHrMinMin
 LAT .                         :Latitude
 LON .                         :Longitude
 LMF .            MV           :LOG Measured FROM
 DMF .                         :Driller Measured From
 PD  .                         :Permanent Data
 PDEV.                         :Elevation Permanent Data
 EKB .M                        :Elevation Kelly Bushing
 ELEV.DF                       :Elevation DF
 EGL .M                        :Elevation Ground Level
 DRDP.                         :Drillers Depth
 CASD.                         :Casing Diameter
 CASB.                         :Casing Bottom
 CASX.                         :Casing Type
 CAST.                         :Casing Thickness
 TNOC.                         :Time Circulation Stopped
 LOGU.                         :Logging Unit
 RECB.            Veenendaal   :Recorded By
 OSR1.                         :Other Services
 OSR2.                         :Other Services
 OSR3.                         :Other Services
 BS  .MM                       :Bit Size
 MST .                         :Mean Surface Temperature
 TGRD.                         :Temperature Gradiant
 MAGN.                         :Magnetic Declination
 MDEN.                         :Density Matrix
 MATR.                         :Neutron Matrix
 DTMT.                         :Delta T Matrix
 DTFL.                         :Delta T Fluid
 MUDS.                         :Mud Sample Source
 MRS .                         :Mud Resistivity
 MTP .                         :Mud Temperature
 MFRS.                         :Resistivity Mud Filtrate
 MFTP.                         :Temperature Mud Filtrate
 MCRS.                         :Resistivity Mud Cake
 MCTP.                         :Temperature Mud Cake
 FTYP.                         :Fluid Type
 FD  .K/M3                     :Fluid Density
 DFV .S                        :Fluid Viscosity
 FPH .                         :Fuild PH
 ELCO.                         :Electron Cutoff
~Other Information
#MNEM.UNIT  Information      Description
#---------- ---------------  ------------------------
# --------------------------
## COMMENTS    Top_Depth   Bot_Depth  LithCode  Lat    Long   Elev_Gl
##    Type of LithCode   Lithologie - 1970
##                    .00         .00         .00     
##                    .45        5.75         .00     
##                   5.80        7.15       13.00     
##                   7.20        8.50        2.00     
##                   8.55       10.20       23.00     
##                  10.25       11.30       11.00     
##                  11.35       15.15       23.00     
##                  15.20       18.40       21.00     
##                  18.45       27.30       12.00     
##                  27.35       39.00       11.00     
##                  39.05       47.15       12.00     
##                  47.20       49.00       10.00     
##                  49.05       51.00        7.00     
##                  51.05       54.00       10.00     
##                  54.05       55.80        9.00     
##                  55.85       57.00       20.00     
##                  57.05       58.00        9.00     
##                  58.05       60.00       20.00     
##                  60.05       63.20       11.00     
##                  63.25       67.00        8.00     
##                  67.05       70.20        9.00     
##                  70.25       74.00        7.00     
##                  74.05       75.70        9.00     
##                  75.75       78.00        7.00     
##                  78.05       84.00        8.00     
##                  84.05       92.00        9.00     
##                  92.05       94.10       10.00     
##                  94.15       97.50        9.00     
##                  97.55      100.55       10.00     
##                 100.60      100.60         .00     
##                 100.65      126.40     #######     
##    last_layer   126.4
# --------------------------
~A DEPTH    SN40     SP       CAL      LN160    GAMMA    
# ...
    59.500    12.020      .019   538.900    15.640     7.410
    59.550    11.760      .019   534.200    15.610     7.290
    59.600    11.490      .019   538.400    15.580     7.210
    59.650    11.310      .019   542.700    15.510     7.180
    59.700    11.190      .019   547.000    15.450     7.200
    59.750    11.100      .019   551.300    15.330     7.320
    59.800    11.030      .019   547.600    15.200     7.580
    59.850    10.980      .019   541.600    15.110     8.070
    59.900    10.960      .019   534.600    15.010     8.480
    59.950    10.940      .019   535.500    14.930     8.560
    60.000    10.930      .019   534.300    14.880     8.640
    60.050    10.920      .019   533.700    14.830     9.440
    60.100    10.930      .019   535.100    14.790    10.100
    60.150    10.960      .019   537.300    14.690    10.750
    60.200    11.000      .019   538.300    14.600    11.400
    60.250    11.050      .019   535.100    14.510    11.790
    60.300    11.150      .019   533.100    14.420    11.460
    60.350    11.250      .019   536.600    14.340    11.140
    60.400    11.330      .019   540.600    14.270    10.810
    60.450    11.470      .019   539.100    14.220    10.550
    60.500    11.570      .019   535.700    14.180    10.730
    60.550    11.620      .020   532.300    14.160    10.910
    60.600    11.690      .020   528.400    14.150    11.090
    60.650    11.720      .020   533.200    14.160    11.270
    60.700    11.700      .020   537.900    14.190    11.460
    60.750    11.640      .020   542.600    14.240    11.660
    60.800    11.530      .020   543.300    14.300    11.230
    60.850    11.410      .020   539.500    14.340    10.790
    60.900    11.280      .020   536.100    14.440    10.420
    60.950    11.120      .020   539.700    14.580    10.060
    61.000    10.990      .020   542.700    14.750     9.930
    61.050    10.860      .020   542.600    14.990     9.920
    61.100    10.740      .020   543.500    15.260     9.690
    61.150    10.670      .020   544.800    15.560     9.610
    61.200    10.610      .020   542.600    15.900     9.620
    61.250    10.600      .019   534.600    16.280     9.690
    61.300    10.610      .018   535.400    16.700     9.960
    61.350    10.680      .017   536.300    17.160    10.290
    61.400    10.780      .017   535.700    17.690    10.610
    61.450    10.890      .017   525.000    18.030    10.940
    61.500    11.040      .016   527.500    18.450    11.260
    61.550    11.200      .016   527.600    18.690    11.560
    61.600    11.370      .016   525.500    18.980    11.730
    61.650    11.540      .016   522.300    19.260    11.920
    61.700    11.690      .016   524.100    19.480    12.110
    61.750    11.840      .016   525.800    19.670    12.260
    61.800    11.940      .016   525.200    19.810    12.340
    61.850    12.070      .015   522.400    19.930    12.370
    61.900    12.240      .015   523.000    20.050    12.530
    61.950    12.430      .014   527.400    20.150    12.860
    62.000    12.650      .013   531.800    20.240    13.190
    62.050    12.950      .013   536.300    20.310    13.510
    62.100    13.340      .013   540.700    20.360    13.910
    62.150    13.660      .013   545.200    20.420    13.290
    62.200    14.290      .013   548.500    20.470    12.680
    62.250    14.830      .013   549.900    20.540    12.060
    62.300    15.400      .013   551.100    20.610    11.440
    62.350    15.950      .013   551.600    20.700    10.760
    62.400    16.350      .012   552.100    20.810    10.980
    62.450    16.930      .012   552.500    20.940    11.190
    62.500    17.370      .012   550.800    21.090    11.390
    62.550    17.970      .012   552.900    21.220    11.600
    62.600    18.440      .012   554.100    21.430    10.890
    62.650    19.000      .012   554.300    21.630    10.090
    62.700    19.550      .011   543.600    21.860     9.880
    62.750    20.060      .011   542.400    22.100     9.480
    62.800    20.520      .011   540.500    22.350     9.100
    62.850    20.880      .011   537.500    22.620     9.170
    62.900    21.190      .010   534.500    22.920     9.290
    62.950    21.490      .010   530.900    23.170     9.370
    63.000    21.800      .010   536.400    23.610     9.360
    63.050    22.130      .009   541.900    24.250     9.330
    63.100    22.540      .009   544.300    24.710     9.330
    63.150    23.070      .008   544.800    25.480     8.950
    63.200    23.700      .008   544.100    26.050     8.630
    63.250    24.060      .008   541.700    26.660     8.340
    63.300    24.500      .007   541.700    27.340     7.960
    63.350    25.190      .007   538.400    28.020     7.730
    63.400    25.460      .007   536.300    28.660     7.680
    63.450    25.770      .006   537.400    29.360     7.630
    63.500    26.090      .006   537.300    30.050     7.000
    63.550    26.390      .006   535.900    30.690     6.830
    63.600    26.620      .006   529.800    31.390     6.820
    63.650    26.910      .006   530.300    32.070     7.120
    63.700    27.220      .006   533.200    32.700     7.120
    63.750    27.580      .006   534.000    33.210     7.040
    63.800    28.350      .005   526.000    33.870     7.020
    63.850    28.810      .005   518.900    34.500     6.870
    63.900    29.290      .005   512.500    34.920     6.640
    63.950    30.000      .005   517.600    35.310     6.430
    64.000    30.690      .005   522.700    35.740     6.380
    64.050    30.970      .005   527.800    36.160     6.280
    64.100    31.250      .005   532.300    36.760     6.110
    64.150    31.490      .005   526.200    37.430     5.970
    64.200    31.730      .005   520.100    38.010     5.780
    64.250    31.960      .005   521.100    38.800     5.900
    64.300    32.080      .005   526.400    39.420     6.060
    64.350    32.180      .005   531.800    40.020     6.100
    64.400    32.280      .005   528.700    40.550     6.120
    64.450    32.390      .005   521.000    41.160     6.240
    64.500    32.490      .005   525.100    41.450     6.340
    64.550    32.580      .005   529.200    41.900     6.250
    64.600    32.780      .004   533.700    42.260     6.190
    64.650    33.050      .004   524.400    42.600     6.220
    64.700    33.300      .004   527.700    43.000     6.470
    64.750    33.550      .004   530.900    43.210     6.710
    64.800    33.810      .004   533.700    43.390     6.950
    64.850    34.060      .003   531.100    43.710     7.200
    64.900    34.250      .003   528.500    43.940     7.450
    64.950    34.560      .003   531.900    44.180     7.490
    65.000    34.750      .003   535.100    43.910     7.040
    65.050    34.910      .003   535.900    44.260     7.040
    65.100    35.040      .003   535.500    44.490     6.970
    65.150    35.180      .003   539.900    44.650     6.650
    65.200    35.250      .003   544.300    44.840     6.530
    65.250    35.330      .003   537.900    45.020     6.550
    65.300    35.410      .003   536.400    45.170     6.570
    65.350    35.490      .004   536.500    45.320     6.740
    65.400    35.560      .004   535.800    45.450     7.370
    65.450    35.630      .004   535.000    45.560     8.010
    65.500    35.680      .004   534.600    45.680     8.190
    65.550    35.710      .005   534.700    45.780     8.310
    65.600    35.710      .005   535.000    45.880     8.260
    65.650    35.710      .005   535.800    45.930     8.180
    65.700    35.670      .005   536.300    45.980     8.050
    65.750    35.620      .005   537.100    46.030     7.930
    65.800    35.570      .005   537.800    46.080     7.120
    65.850    35.460      .004   538.100    46.130     7.050
    65.900    35.330      .004   537.300    46.180     6.650
    65.950    35.180      .004   536.000    46.230     6.490
    66.000    35.040      .004   535.800    46.270     6.540
    66.050    34.920      .004   539.300    46.320     6.670
