~Version Information
 VERS.                2.0:  CWLS LOG ASCII STANDARD -VERSION 2.0
 WRAP.                 NO:  ONE LINE PER DEPTH STEP
~WELL INFORMATION BLOCK
#MNEM.UNIT       DATA		            DESCRIPTION OF MNEMONIC
#---------    -------------            ------------------------
 STRT.M      .450                        :START DEPTH
 STOP.M   #######                        :STOP DEPTH
 STEP.M      .050                        :STEP
 NULL.    -999999.0                      :NULL VALUE
 COMP.       SCHIFOOD                    :COMPANY
 WELL.                          B62B0897 :WELL
 FLD .    Heerlen                        :FIELD
 CNTY.                                   :COUNTY
 STAT.                                   :STATE
 SRVC.                                   :SERVICE COMPANY
 DATE.     10-DEC-90                     :LOG DATE
 UWI .                                   :UNIQUE WELL ID
 LIC .                                   :LICENSE NUMBER
~Curve Information Block
#MNEM.UNIT      API CODE     Curve Description
#---------    -------------  ------------------------
DEPTH    .M         00 000 00 00          :  1  DEPTH
SN40     .OHM.M     00 000 00 00          :  2  SN40
SP       .V         00 000 00 00          :  3  SP
CAL      .MM        00 000 00 00          :  4  CAL
LN160    .OHM.M     00 000 00 00          :  5  LN160
GAMMA    .CPS       00 000 00 00          :  6  GAMMA
~Parameter Information Block
#MNEM.UNIT   Information     Description
#---------- ---------------  ------------------------
 FILE.                         :File Type
 FIID.                         :File Type Identifier
 VERS.                         :System Version
 SER .                         :System Serial Number
 TRUK.                         :Truck Calibration Number
 TOOL.                         :Tool Serial Number
 TIME.                         :Time    HrHrMinMin
 LAT .                         :Latitude
 LON .                         :Longitude
 LMF .            MV           :LOG Measured FROM
 DMF .                         :Driller Measured From
 PD  .                         :Permanent Data
 PDEV.                         :Elevation Permanent Data
 EKB .M                        :Elevation Kelly Bushing
 ELEV.DF                       :Elevation DF
 EGL .M                        :Elevation Ground Level
 DRDP.                         :Drillers Depth
 CASD.                         :Casing Diameter
 CASB.                         :Casing Bottom
 CASX.                         :Casing Type
 CAST.                         :Casing Thickness
 TNOC.                         :Time Circulation Stopped
 LOGU.                         :Logging Unit
 RECB.            Bergsma      :Recorded By
 OSR1.                         :Other Services
 OSR2.                         :Other Services
 OSR3.                         :Other Services
 BS  .MM                       :Bit Size
 MST .                         :Mean Surface Temperature
 TGRD.                         :Temperature Gradiant
 MAGN.                         :Magnetic Declination
 MDEN.                         :Density Matrix
 MATR.                         :Neutron Matrix
 DTMT.                         :Delta T Matrix
 DTFL.                         :Delta T Fluid
 MUDS.                         :Mud Sample Source
 MRS .                         :Mud Resistivity
 MTP .                         :Mud Temperature
 MFRS.                         :Resistivity Mud Filtrate
 MFTP.                         :Temperature Mud Filtrate
 MCRS.                         :Resistivity Mud Cake
 MCTP.                         :Temperature Mud Cake
 FTYP.                         :Fluid Type
 FD  .K/M3                     :Fluid Density
 DFV .S                        :Fluid Viscosity
 FPH .                         :Fuild PH
 ELCO.                         :Electron Cutoff
~Other Information
#MNEM.UNIT  Information      Description
#---------- ---------------  ------------------------
# --------------------------
## COMMENTS    Top_Depth   Bot_Depth  LithCode  Lat    Long   Elev_Gl
##    Type of LithCode   Lithologie - 1970
##                    .00         .00         .00     
##                    .45        6.00         .00     
##                   6.05        8.10        2.00     
##                   8.15       15.30       23.00     
##                  15.35       18.50       22.00     
##                  18.55       20.80       11.00     
##                  20.85       22.35       12.00     
##                  22.40       23.40       11.00     
##                  23.45       25.30       12.00     
##                  25.35       26.25       11.00     
##                  26.30       27.80       12.00     
##                  27.85       35.10       11.00     
##                  35.15       47.80       12.00     
##                  47.85       50.40        6.00     
##                  50.45       52.00       23.00     
##                  52.05       53.20       11.00     
##                  53.25       54.60       12.00     
##                  54.65       55.50       11.00     
##                  55.55       56.50       12.00     
##                  56.55       57.25       11.00     
##                  57.30       58.60       12.00     
##                  58.65       64.40       11.00     
##                  64.45       71.10        9.00     
##                  71.15       74.20        7.00     
##                  74.25       75.90        9.00     
##                  75.95       78.90        7.00     
##                  78.95       93.30        9.00     
##                  93.35       95.20       10.00     
##                  95.25       97.60        9.00     
##                  97.65       99.95       10.00     
##                 100.00      100.00         .00     
##                 100.05      126.75     #######     
##    last_layer   126.75
# --------------------------
~A DEPTH    SN40     SP       CAL      LN160    GAMMA    
# ...
    52.850    20.560      .071   557.000    32.710    14.860
    52.900    20.580      .071   563.600    32.690    14.570
    52.950    20.620      .071   570.200    32.670    14.160
    53.000    20.650      .070   576.800    32.630    13.760
    53.050    20.760      .070   583.400    32.570    13.360
    53.100    20.880      .070   590.000    32.510    13.000
    53.150    21.010      .070   584.800    32.430    12.620
    53.200    21.130      .070   572.900    32.340    12.670
    53.250    21.390      .070   561.000    32.270    12.960
    53.300    21.700      .069   560.200    32.200    13.200
    53.350    22.070      .069   572.900    32.130    13.300
    53.400    22.560      .069   585.600    32.070    13.330
    53.450    22.960      .069   596.700    31.980    13.100
    53.500    23.300      .069   592.300    31.850    12.760
    53.550    23.650      .069   592.200    31.690    12.350
    53.600    24.100      .069   591.400    31.550    12.210
    53.650    24.540      .069   577.500    31.310    12.040
    53.700    24.910      .069   576.800    31.060    11.750
    53.750    25.350      .068   576.100    30.820    11.640
    53.800    25.600      .068   577.700    30.590    11.640
    53.850    26.010      .068   580.300    30.400    11.780
    53.900    26.300      .068   581.700    30.110    11.910
    53.950    26.610      .068   578.700    29.630    12.000
    54.000    26.970      .068   578.800    29.270    11.550
    54.050    27.190      .068   578.000    28.770    11.270
    54.100    27.400      .068   567.900    28.370    11.140
    54.150    27.530      .068   556.100    27.960    11.190
    54.200    27.620      .068   552.400    27.620    11.410
    54.250    27.670      .069   562.100    27.350    11.670
    54.300    27.690      .069   571.900    27.190    11.970
    54.350    27.700      .069   574.800    27.060    12.110
    54.400    27.710      .069   568.800    26.990    12.050
    54.450    27.700      .069   569.700    26.990    12.040
    54.500    27.630      .069   569.200    27.020    12.140
    54.550    27.510      .069   557.600    27.100    12.300
    54.600    27.230      .069   548.800    27.230    12.190
    54.650    26.940      .070   557.400    27.380    12.110
    54.700    26.430      .070   563.200    27.560    12.100
    54.750    25.540      .070   565.200    27.770    12.180
    54.800    24.680      .070   567.400    27.970    12.190
    54.850    23.810      .071   569.500    28.230    12.220
    54.900    22.950      .071   575.300    28.460    12.280
    54.950    22.230      .071   581.200    28.640    12.420
    55.000    21.480      .071   569.200    28.790    12.540
    55.050    21.040      .071   557.200    28.900    12.340
    55.100    20.950      .071   545.300    28.980    12.020
    55.150    20.960      .070   542.200    29.010    11.700
    55.200    21.030      .070   553.400    29.020    11.380
    55.250    21.160      .070   564.600    29.020    11.060
    55.300    21.310      .070   575.700    29.000    10.740
    55.350    21.520      .069   584.200    28.910    10.420
    55.400    21.720      .069   567.200    28.770    10.100
    55.450    22.060      .069   550.200    28.590    10.000
    55.500    22.670      .069   532.800    28.400    10.000
    55.550    23.120      .068   545.900    28.040     9.870
    55.600    23.750      .068   559.100    27.840     9.410
    55.650    24.380      .068   572.200    27.610     8.730
    55.700    25.010      .068   577.300    27.370     8.500
    55.750    25.640      .068   566.700    27.180     8.450
    55.800    26.270      .068   562.600    26.970     8.410
    55.850    26.870      .068   563.500    26.730     8.400
    55.900    28.070      .067   563.800    26.420     8.440
    55.950    28.610      .067   561.500    26.090     8.500
    56.000    29.030      .067   546.000    25.820     8.550
    56.050    29.070      .068   527.500    25.600     8.650
    56.100    29.050      .068   529.700    25.460     8.830
    56.150    28.900      .068   531.900    25.380     9.160
    56.200    28.690      .068   534.100    25.390     9.500
    56.250    28.360      .068   537.700    25.460     9.830
    56.300    27.930      .068   543.200    25.710    10.160
    56.350    27.260      .068   545.100    26.150    10.490
    56.400    26.590      .068   545.800    26.280    10.690
    56.450    25.920      .068   546.800    26.280    10.920
    56.500    25.250      .069   548.100    26.250    11.050
    56.550    24.570      .069   553.900    26.210    11.360
    56.600    23.900      .069   559.800    26.170    11.470
    56.650    23.230      .069   565.600    26.120    11.560
    56.700    22.690      .069   560.700    26.050    11.760
    56.750    21.620      .069   546.800    25.970    11.580
    56.800    20.990      .069   532.900    25.890    11.210
    56.850    20.320      .069   519.000    25.800    11.090
    56.900    19.790      .069   517.800    25.720    11.030
    56.950    19.550      .069   526.100    25.610    10.820
    57.000    19.430      .069   534.400    25.440    10.410
    57.050    19.440      .069   542.700    25.190    10.240
    57.100    19.520      .068   551.000    24.830    10.150
    57.150    19.640      .068   559.300    24.470     9.810
    57.200    19.810      .068   567.600    24.100     9.410
    57.250    20.050      .068   575.900    23.770     9.130
    57.300    20.460      .067   578.300    23.370     8.830
    57.350    20.790      .067   568.500    22.980     8.630
    57.400    21.510      .067   558.700    22.550     8.260
    57.450    22.110      .067   550.100    22.230     8.270
    57.500    23.050      .066   554.900    21.970     8.420
    57.550    23.460      .066   559.700    21.700     8.610
    57.600    24.230      .066   564.500    21.430     8.560
    57.650    24.790      .066   569.600    21.120     8.510
    57.700    25.180      .066   572.300    20.890     8.550
    57.750    25.530      .066   574.100    20.690     8.550
    57.800    25.700      .066   574.700    20.470     8.540
    57.850    25.730      .066   575.500    20.310     8.590
    57.900    25.650      .066   576.900    20.180     8.630
    57.950    25.510      .066   582.400    20.070     8.650
    58.000    25.230      .067   585.600    19.960     8.670
    58.050    24.840      .067   582.500    19.970     8.770
    58.100    24.390      .067   581.500    20.020     9.130
    58.150    23.920      .067   584.000    20.090     9.500
    58.200    23.200      .067   585.800    20.160     9.890
    58.250    22.610      .067   588.200    20.210     9.990
    58.300    22.020      .067   587.100    20.240    10.000
    58.350    21.480      .067   576.100    20.250    10.000
    58.400    20.910      .068   577.500    20.270    10.060
    58.450    20.080      .068   580.000    20.250    10.200
    58.500    19.690      .068   582.400    20.230    10.380
    58.550    19.350      .068   584.500    20.190    10.840
    58.600    18.790      .068   585.500    20.150    11.140
    58.650    18.440      .069   583.500    20.080    11.220
    58.700    18.070      .069   579.500    19.990    11.380
    58.750    17.610      .069   575.200    19.920    11.590
    58.800    17.250      .069   579.300    19.730    11.850
    58.850    17.030      .069   581.800    19.470    11.980
    58.900    16.680      .069   584.300    19.110    12.060
    58.950    16.460      .069   585.700    18.520    12.140
    59.000    16.130      .069   580.300    17.900    12.220
    59.050    15.810      .069   573.100    17.440    12.360
    59.100    15.660      .069   569.800    16.900    12.420
    59.150    15.560      .069   572.700    16.660    12.460
    59.200    15.490      .069   576.600    16.390    12.560
    59.250    15.510      .069   579.800    16.200    12.350
    59.300    15.540      .069   582.800    16.000    12.090
    59.350    15.560      .069   581.900    15.840    11.840
    59.400    15.580      .069   568.400    15.690    11.650
