~Version Information
 VERS.                2.0:  CWLS LOG ASCII STANDARD -VERSION 2.0
 WRAP.                 NO:  ONE LINE PER DEPTH STEP
~WELL INFORMATION BLOCK
#MNEM.UNIT       DATA		            DESCRIPTION OF MNEMONIC
#---------    -------------            ------------------------
 STRT.M      .150                        :START DEPTH
 STOP.M   #######                        :STOP DEPTH
 STEP.M      .050                        :STEP
 NULL.    -999999.0                      :NULL VALUE
 COMP.       SOFTDR                      :COMPANY
 WELL.                          B62B0927 :WELL
 FLD .    Heerlen                        :FIELD
 CNTY.                                   :COUNTY
 STAT.                                   :STATE
 SRVC.                                   :SERVICE COMPANY
 DATE.     29-MAY-97                     :LOG DATE
 UWI .                                   :UNIQUE WELL ID
 LIC .                                   :LICENSE NUMBER
~Curve Information Block
#MNEM.UNIT      API CODE     Curve Description
#---------    -------------  ------------------------
DEPTH    .M         00 000 00 00          :  1  DEPTH
GAM(NAT) .CPS       00 000 00 00          :  2  GAM(NAT)
SP       .V         00 000 00 00          :  3  SP
RES(16N) .OHM.M     00 000 00 00          :  4  RES(16N)
RES(64N) .OHM.M     00 000 00 00          :  5  RES(64N)
RES      .OHM       00 000 00 00          :  6  RES
~Parameter Information Block
#MNEM.UNIT   Information     Description
#---------- ---------------  ------------------------
 FILE.                         :File Type
 FIID.                         :File Type Identifier
 VERS.                         :System Version
 SER .                         :System Serial Number
 TRUK.                         :Truck Calibration Number
 TOOL.                         :Tool Serial Number
 TIME.                         :Time    HrHrMinMin
 LAT .                         :Latitude
 LON .                         :Longitude
 LMF .            MV           :LOG Measured FROM
 DMF .                         :Driller Measured From
 PD  .                         :Permanent Data
 PDEV.                         :Elevation Permanent Data
 EKB .M                        :Elevation Kelly Bushing
 ELEV.DF                       :Elevation DF
 EGL .M                        :Elevation Ground Level
 DRDP.                         :Drillers Depth
 CASD.                         :Casing Diameter
 CASB.                         :Casing Bottom
 CASX.                         :Casing Type
 CAST.                         :Casing Thickness
 TNOC.                         :Time Circulation Stopped
 LOGU.                         :Logging Unit
 RECB.            Bergsma      :Recorded By
 OSR1.                         :Other Services
 OSR2.                         :Other Services
 OSR3.                         :Other Services
 BS  .MM                       :Bit Size
 MST .                         :Mean Surface Temperature
 TGRD.                         :Temperature Gradiant
 MAGN.                         :Magnetic Declination
 MDEN.                         :Density Matrix
 MATR.                         :Neutron Matrix
 DTMT.                         :Delta T Matrix
 DTFL.                         :Delta T Fluid
 MUDS.                         :Mud Sample Source
 MRS .                         :Mud Resistivity
 MTP .                         :Mud Temperature
 MFRS.                         :Resistivity Mud Filtrate
 MFTP.                         :Temperature Mud Filtrate
 MCRS.                         :Resistivity Mud Cake
 MCTP.                         :Temperature Mud Cake
 FTYP.                         :Fluid Type
 FD  .K/M3                     :Fluid Density
 DFV .S                        :Fluid Viscosity
 FPH .                         :Fuild PH
 ELCO.                         :Electron Cutoff
~Other Information
#MNEM.UNIT  Information      Description
#---------- ---------------  ------------------------
# --------------------------
## COMMENTS    Top_Depth   Bot_Depth  LithCode  Lat    Long   Elev_Gl
##    Type of LithCode   Lithologie - 1970
##                    .15        3.55       62.00     
##                   3.55        5.50        2.00     
##                   5.50        8.70       26.00     
##                   8.70       15.10       63.00     
##                  15.10       19.15       26.00     
##                  19.15       20.70       43.00     
##                  20.70       22.60       26.00     
##                  22.60       30.05       63.00     
##                  30.05       30.85       26.00     
##                  30.85       52.70       63.00     
##                  52.70       54.00       26.00     
##                  54.00       58.15       63.00     
##                  58.15       59.85       26.00     
##                  59.85       66.75       63.00     
##                  66.75       70.35       26.00     
##                  70.35       72.25       63.00     
##                  72.25       73.10       26.00     
##                  73.10       74.40       63.00     
##                  74.40       75.15       26.00     
##                  75.15       75.95       63.00     
##                  75.95       76.75       26.00     
##                  76.75       77.40       63.00     
##                  77.40       78.20       26.00     
##                  78.20       79.70       63.00     
##                  79.70       80.75       26.00     
##                  80.75       81.70       58.00     
##                  81.70       83.15       26.00     
##                  83.15       84.95       58.00     
##                  84.95       87.35       22.00     
##                  87.35       88.60       23.00     
##                  88.60       89.30       58.00     
##                  89.30       91.10       23.00     
##                  91.10       92.35       58.00     
##                  92.35       94.30       23.00     
##                  94.30       99.05       26.00     
##                  99.05      100.50       23.00     
##                 100.50      103.10       26.00     
##                 103.10      105.80       40.00     
##                 105.80      107.05       43.00     
##                 107.05      110.35       57.00     
##                 110.35      112.35       15.00     
##                 112.35      116.10       63.00     
##                 116.10      120.45       32.00     
##                 120.45      121.95       63.00     
##                 121.95      122.70       12.00     
##                 122.70      124.70       15.00     
##                 124.70      127.95       19.00     
##                 127.95      129.55       58.00     
##                 129.55      130.60       38.00     
##                 130.60      132.70       57.00     
##                 132.70      133.60       59.00     
##                 133.60      135.20       57.00     
##                 135.20      135.85       59.00     
##                 135.85      136.50       57.00     
##                 136.50      137.30       58.00     
##    last_layer   137.3
##    Type of LithCode   Lithologie - 1970
##                   1.90        2.15       87.00     
##                   2.15        3.90       84.00     
##                   3.90        4.25       85.00     
##                   4.25       21.95         .00     
##                  21.95       22.35       87.00     
##                  22.35       24.95       84.00     
##                  24.95       25.30       85.00     
##                  25.30       37.95         .00     
##                  37.95       38.25       87.00     
##                  38.25       40.95       84.00     
##                  40.95       41.20       85.00     
##                  41.20       42.00         .00     
##                  42.00       44.95       74.00     
##                  44.95       46.95         .00     
##                  46.95       47.25       87.00     
##                  47.25       50.90       84.00     
##                  50.90       51.20       85.00     
##                  51.20       59.95         .00     
##                  59.95       60.35       87.00     
##                  60.35       62.95       84.00     
##                  62.95       63.25       85.00     
##                  63.25       76.90         .00     
##                  76.90       77.15       87.00     
##                  77.15       80.00       84.00     
##                  80.00       80.35       85.00     
##                  80.35      106.95         .00     
##                 106.95      107.25       87.00     
##                 107.25      115.45       84.00     
##                 115.45      115.80       85.00     
##                 115.80      116.40         .00     
##                 116.40      117.40       77.00     
##                 117.40      119.40       80.00     
##                 119.40      120.45       77.00     
##                 120.45      121.90         .00     
##                 121.90      122.35       87.00     
##                 122.35      127.90       84.00     
##                 127.90      128.30       85.00     
##                 128.30      130.95         .00     
##                 130.95      131.25       87.00     
##                 131.25      133.95       84.00     
##                 133.95      134.15       85.00     
##    last_layer   134.15
# --------------------------
~A DEPTH    GAM(NAT) SP       RES(16N) RES(64N) RES      
# ...
    99.050    24.100      .042    57.400    45.500   237.400
    99.100    33.900      .043    59.100    45.100   238.000
    99.150    24.300      .043    60.800    44.500   238.100
    99.200    45.300      .043    62.100    43.900   237.900
    99.250    36.500      .042    63.200    43.300   238.100
    99.300    49.200      .042    63.900    42.800   238.700
    99.350    27.900      .042    64.500    42.400   239.900
    99.400    26.400      .042    65.000    42.200   240.700
    99.450    40.500      .042    65.500    42.100   241.400
    99.500    32.000      .042    66.100    42.200   242.400
    99.550    28.700      .042    66.500    42.400   243.100
    99.600    46.200      .042    66.800    42.700   243.600
    99.650    35.700      .041    67.000    42.900   243.800
    99.700    34.700      .041    67.100    43.300   243.800
    99.750    32.200      .041    66.800    43.700   243.700
    99.800    31.200      .041    66.200    44.000   243.500
    99.850    42.000      .041    65.200    44.400   243.600
    99.900    37.400      .041    63.600    44.700   243.800
    99.950    43.500      .041    62.000    45.000   243.600
   100.000    34.800      .041    60.400    45.300   243.400
   100.050    36.900      .042    59.000    45.500   243.400
   100.100    41.700      .042    58.400    45.700   242.900
   100.150    31.500      .042    58.500    46.000   240.900
   100.200    33.800      .043    58.300    46.300   236.900
   100.250    24.900      .043    57.900    46.500   231.500
   100.300    46.100      .044    57.500    46.700   225.400
   100.350    28.100      .043    57.000    47.000   218.700
   100.400    36.100      .043    56.300    47.200   217.400
   100.450    36.300      .043    55.600    47.400   222.700
   100.500    27.500      .043    54.600    47.500   226.600
   100.550    22.300      .043    54.000    47.700   227.100
   100.600    40.900      .043    54.400    47.900   226.400
   100.650    35.500      .043    54.900    48.100   226.500
   100.700    26.900      .043    55.200    48.200   227.500
   100.750    51.200      .043    55.300    48.400   228.000
   100.800    49.800      .043    55.500    48.600   228.000
   100.850    49.900      .043    55.900    48.800   227.900
   100.900    25.400      .043    56.000    48.900   227.800
   100.950    30.200      .043    56.200    49.000   227.700
   101.000    25.200      .043    56.200    49.100   227.400
   101.050    37.200      .043    56.200    49.100   227.300
   101.100    46.000      .043    56.400    49.000   227.500
   101.150    36.900      .043    56.500    48.700   228.300
   101.200    33.000      .043    56.500    48.500   229.200
   101.250    38.400      .042    56.400    48.500   229.600
   101.300    48.200      .042    56.400    48.500   229.400
   101.350    34.400      .043    56.500    48.500   228.800
   101.400    30.000      .043    56.800    48.500   228.500
   101.450    29.200      .043    57.000    48.500   229.100
   101.500    39.400      .043    56.900    48.500   229.800
   101.550    49.300      .043    56.900    48.400   229.900
   101.600    45.200      .043    57.000    48.300   229.400
   101.650    41.700      .043    57.200    48.300   228.700
   101.700    49.200      .043    57.300    48.200   228.600
   101.750    44.400      .043    57.300    48.100   229.000
   101.800    34.500      .043    57.200    48.000   229.600
   101.850    27.700      .042    57.000    48.000   229.800
   101.900    44.100      .042    57.000    48.100   229.700
   101.950    35.400      .042    57.200    48.400   229.600
   102.000    35.000      .042    57.200    48.800   229.800
   102.050    28.800      .042    57.100    49.300   230.200
   102.100    34.600      .042    57.000    49.700   230.500
   102.150    46.700      .042    56.900    50.000   230.100
   102.200    45.400      .041    56.800    50.100   229.400
   102.250    26.900      .041    56.500    50.300   229.600
   102.300    36.000      .040    55.900    50.400   230.300
   102.350    37.500      .040    55.100    50.500   230.400
   102.400    48.200      .040    54.300    50.500   229.300
   102.450    51.300      .040    53.500    50.600   229.000
   102.500    34.500      .040    52.800    50.600   230.900
   102.550    51.600      .040    52.400    50.600   231.600
   102.600    53.100      .041    53.000    50.700   231.200
   102.650    47.000      .040    54.200    50.700   230.300
   102.700    52.100      .040    55.400    50.800   228.300
   102.750    55.600      .041    56.200    50.900   224.400
   102.800    59.200      .041    56.600    50.900   218.800
   102.850    42.700      .040    56.700    51.000   213.300
   102.900    42.500      .040    56.600    51.100   212.300
   102.950    26.200      .040    56.200    51.100   215.800
   103.000    44.400      .040    55.400    51.100   222.600
   103.050    30.500      .039    55.100    51.200   229.600
   103.100    19.500      .039    55.800    51.300   234.300
   103.150    35.500      .038    57.500    51.400   235.900
   103.200    39.200      .038    59.900    51.400   236.000
   103.250    26.800      .038    62.100    51.400   237.200
   103.300    27.500      .038    63.800    51.400   238.700
   103.350    25.100      .037    65.000    51.400   239.300
   103.400    29.500      .037    66.100    51.400   239.800
   103.450    47.000      .037    67.200    51.300   240.000
   103.500    34.400      .037    68.000    51.200   240.300
   103.550    31.700      .037    68.800    50.900   240.800
   103.600    32.300      .037    69.400    50.500   241.000
   103.650    22.600      .037    70.000    50.000   241.300
   103.700    33.700      .037    70.600    49.600   241.300
   103.750    31.800      .037    71.200    49.400   241.600
   103.800    46.200      .037    71.800    49.600   241.700
   103.850    21.500      .037    72.400    49.900   241.800
   103.900    36.800      .037    73.000    50.300   241.800
   103.950    33.600      .037    73.500    50.600   242.100
   104.000    32.000      .036    73.900    50.800   242.300
   104.050    26.000      .037    74.200    50.800   242.700
   104.100    23.300      .037    74.500    50.900   243.200
   104.150    47.100      .037    74.800    50.800   243.700
   104.200    39.400      .037    75.000    50.700   244.100
   104.250    31.400      .037    75.200    50.500   244.600
   104.300    42.700      .037    75.500    50.300   245.000
   104.350    35.200      .037    75.600    50.100   245.300
   104.400    32.900      .037    75.900    49.800   245.800
   104.450    36.500      .037    76.300    49.500   246.300
   104.500    31.900      .038    76.700    49.200   246.400
   104.550    39.500      .038    77.100    48.900   246.000
   104.600    29.100      .038    77.500    48.500   245.500
   104.650    22.100      .038    77.700    47.900   244.700
   104.700    27.300      .038    77.600    47.400   243.900
   104.750    28.500      .038    77.400    46.800   243.800
   104.800    27.800      .039    76.900    46.100   244.300
   104.850    13.900      .039    76.400    45.200   244.900
   104.900    33.400      .040    75.900    44.300   245.700
   104.950    22.700      .040    75.400    43.400   246.700
   105.000    20.700      .041    75.000    42.400   247.500
   105.050    27.800      .041    74.700    41.400   247.700
   105.100    22.800      .042    74.400    40.500   247.500
   105.150    25.600      .042    74.100    39.800   246.900
   105.200    30.300      .042    73.600    39.500   246.400
   105.250    19.600      .042    72.800    39.500   245.800
   105.300    28.500      .042    71.800    39.700   245.100
   105.350    24.100      .042    70.600    39.800   244.100
   105.400    28.300      .042    69.000    40.000   243.300
   105.450    37.500      .042    67.000    40.200   243.100
   105.500    35.800      .042    64.500    40.400   243.000
   105.550    21.400      .043    61.600    40.600   242.700
   105.600    10.400      .043    58.500    40.700   242.500
