~Version Information
 VERS.                2.0:  CWLS LOG ASCII STANDARD -VERSION 2.0
 WRAP.                 NO:  ONE LINE PER DEPTH STEP
~WELL INFORMATION BLOCK
#MNEM.UNIT       DATA		            DESCRIPTION OF MNEMONIC
#---------    -------------            ------------------------
 STRT.M      .000                        :START DEPTH
 STOP.M    68.050                        :STOP DEPTH
 STEP.M      .050                        :STEP
 NULL.    -999999.0                      :NULL VALUE
 COMP.       WML                         :COMPANY
 WELL.                          B62B0903 :WELL
 FLD .    Nuth                           :FIELD
 CNTY.                                   :COUNTY
 STAT.                                   :STATE
 SRVC.                                   :SERVICE COMPANY
 DATE.     13-APR-92                     :LOG DATE
 UWI .                                   :UNIQUE WELL ID
 LIC .                                   :LICENSE NUMBER
~Curve Information Block
#MNEM.UNIT      API CODE     Curve Description
#---------    -------------  ------------------------
DEPTH    .M         00 000 00 00          :  1  DEPTH
GAMMA    .CPS       00 000 00 00          :  2  GAMMA
SN40     .OHM.M     00 000 00 00          :  3  SN40
CAL      .MM        00 000 00 00          :  4  CAL
SP       .V         00 000 00 00          :  5  SP
LN160    .OHM.M     00 000 00 00          :  6  LN160
~Parameter Information Block
#MNEM.UNIT   Information     Description
#---------- ---------------  ------------------------
 FILE.                         :File Type
 FIID.                         :File Type Identifier
 VERS.                         :System Version
 SER .                         :System Serial Number
 TRUK.                         :Truck Calibration Number
 TOOL.                         :Tool Serial Number
 TIME.                         :Time    HrHrMinMin
 LAT .                         :Latitude
 LON .                         :Longitude
 LMF .            MV           :LOG Measured FROM
 DMF .                         :Driller Measured From
 PD  .                         :Permanent Data
 PDEV.                         :Elevation Permanent Data
 EKB .M                        :Elevation Kelly Bushing
 ELEV.DF                       :Elevation DF
 EGL .M                        :Elevation Ground Level
 DRDP.                         :Drillers Depth
 CASD.                         :Casing Diameter
 CASB.                         :Casing Bottom
 CASX.                         :Casing Type
 CAST.                         :Casing Thickness
 TNOC.                         :Time Circulation Stopped
 LOGU.                         :Logging Unit
 RECB.            Bergsma      :Recorded By
 OSR1.                         :Other Services
 OSR2.                         :Other Services
 OSR3.                         :Other Services
 BS  .MM                       :Bit Size
 MST .                         :Mean Surface Temperature
 TGRD.                         :Temperature Gradiant
 MAGN.                         :Magnetic Declination
 MDEN.                         :Density Matrix
 MATR.                         :Neutron Matrix
 DTMT.                         :Delta T Matrix
 DTFL.                         :Delta T Fluid
 MUDS.                         :Mud Sample Source
 MRS .                         :Mud Resistivity
 MTP .                         :Mud Temperature
 MFRS.                         :Resistivity Mud Filtrate
 MFTP.                         :Temperature Mud Filtrate
 MCRS.                         :Resistivity Mud Cake
 MCTP.                         :Temperature Mud Cake
 FTYP.                         :Fluid Type
 FD  .K/M3                     :Fluid Density
 DFV .S                        :Fluid Viscosity
 FPH .                         :Fuild PH
 ELCO.                         :Electron Cutoff
~Other Information
#MNEM.UNIT  Information      Description
#---------- ---------------  ------------------------
# --------------------------
## COMMENTS    Top_Depth   Bot_Depth  LithCode  Lat    Long   Elev_Gl
##    Type of LithCode   Lithologie - 1970
##                    .00        5.00         .00     
##                   5.05        6.80       10.00     
##                   6.85        8.00       11.00     
##                   8.05       11.00       10.00     
##                  11.05       15.00       12.00     
##                  15.05       17.00       10.00     
##                  17.05       18.40       12.00     
##                  18.45       23.00       10.00     
##                  23.05       25.40       12.00     
##                  25.45       28.00        6.00     
##                  28.05       28.35       19.00     
##                  28.40       30.00       11.00     
##                  30.05       31.00       12.00     
##                  31.05       34.00       11.00     
##                  34.05       38.90        6.00     
##                  38.95       40.80       23.00     
##                  40.85       47.45        6.00     
##                  47.50       52.00       21.00     
##                  52.05       60.00       22.00     
##                  60.05       68.00       23.00     
##                  68.05       68.05         .00     
##    last_layer   68.05
# --------------------------
~A DEPTH    GAMMA    SN40     CAL      SP       LN160    
      .000 -999999.0  -999999.0  -999999.0  -999999.0  -999999.0 
      .050    12.780 -999999.0    519.300     -.001 -999999.0 
      .100    12.910 -999999.0    518.900     -.001 -999999.0 
      .150    13.080 -999999.0    518.500     -.001 -999999.0 
      .200    13.220 -999999.0    518.100     -.001 -999999.0 
      .250    13.420 -999999.0    517.800     -.001 -999999.0 
      .300    13.630 -999999.0    517.400     -.001 -999999.0 
      .350    14.000 -999999.0    517.000     -.001 -999999.0 
      .400    14.440 -999999.0    516.700     -.001 -999999.0 
      .450    14.830 -999999.0    516.300     -.001 -999999.0 
      .500    15.060 -999999.0    515.900     -.001 -999999.0 
      .550    15.520 -999999.0    515.600     -.001 -999999.0 
      .600    15.980 -999999.0    515.200     -.001    39.110
      .650    16.420 -999999.0    514.800     -.001    39.120
      .700    16.770 -999999.0    514.400     -.001    39.120
      .750    17.150 -999999.0    514.100     -.001    39.120
      .800    16.920 -999999.0    513.700     -.001    39.120
      .850    16.410 -999999.0    513.300     -.001    39.120
      .900    16.130 -999999.0    513.000     -.001    39.130
      .950    16.120 -999999.0    512.600     -.001    39.150
     1.000    16.180 -999999.0    512.200     -.001    39.150
     1.050    15.860 -999999.0    511.900     -.001    39.160
     1.100    15.750    10.620   511.500     -.001    39.160
     1.150    15.770    10.690   511.100     -.001    39.150
     1.200    15.930    10.730   510.700     -.001    39.140
     1.250    16.240    10.740   510.400     -.001    39.130
     1.300    16.700    10.740   510.000     -.001    39.120
     1.350    16.850    10.740   509.600     -.001    39.110
     1.400    16.800    10.740   509.300     -.001    39.100
     1.450    16.720    10.740   508.900     -.001    39.090
     1.500    16.730    10.720   508.500     -.001    39.090
     1.550    16.900    10.700   508.300     -.001    39.080
     1.600    17.020    10.680   508.400     -.001    39.070
     1.650    17.000    10.660   508.600     -.001    39.070
     1.700    16.770    10.630   508.800     -.001    39.070
     1.750    16.170    10.600   508.800     -.001    39.070
     1.800    16.200    10.570   508.700     -.001    39.070
     1.850    16.450    10.550   508.700     -.001    39.070
     1.900    16.650    10.530   508.900     -.001    39.070
     1.950    16.990    10.500   509.500     -.001    39.070
     2.000    16.850    10.480   511.100     -.001    39.080
     2.050    16.640    10.460   513.800     -.001    39.080
     2.100    16.680    10.440   518.000     -.001    39.080
     2.150    16.680    10.430   516.000      .000    39.080
     2.200    16.690    10.410   512.800      .025    39.080
     2.250    16.740    10.390   510.500      .026    39.080
     2.300    16.910    10.380   510.100      .058    39.090
     2.350    16.840    10.360   509.900      .069    39.090
     2.400    16.450    10.350   510.200      .072    39.100
     2.450    16.230    10.340   510.400      .075    39.100
     2.500    16.140    10.330   510.500      .078    39.110
     2.550    16.080    10.310   510.600      .084    39.110
     2.600    16.030    10.300   510.700      .086    39.120
     2.650    15.960    10.290   510.800      .087    39.120
     2.700    16.150    10.290   510.700      .089    39.130
     2.750    16.420    10.290   510.600      .090    39.150
     2.800    16.720    10.290   510.400      .093    39.160
     2.850    16.740    10.300   510.100      .093    39.160
     2.900    16.620    10.300   509.800      .094    39.160
     2.950    16.480    10.290   509.400      .094    39.170
     3.000    16.450    10.290   509.100      .094    39.160
     3.050    16.450    10.290   508.700      .095    39.160
     3.100    16.400    10.280   508.400      .095    39.150
     3.150    16.300    10.280   508.100      .095    39.160
     3.200    16.130    10.270   507.900      .096    39.160
     3.250    16.430    10.270   508.100      .097    39.150
     3.300    16.650    10.270   508.200      .097    39.140
     3.350    16.890    10.260   508.300      .098    39.130
     3.400    16.930    10.260   508.500      .099    39.110
     3.450    16.760    10.250   508.500      .101    39.090
     3.500    16.550    10.240   508.600      .102    39.050
     3.550    16.300    10.230   508.600      .102    39.000
     3.600    15.780    10.230   508.600      .102    38.930
     3.650    15.400    10.240   508.700      .102    38.870
     3.700    15.370    10.250   508.700      .102    38.780
     3.750    15.310    10.250   508.700      .102    38.660
     3.800    15.160    10.260   508.600      .102    38.520
     3.850    14.850    10.260   508.700      .101    38.310
     3.900    14.790    10.270   508.700      .101    37.880
     3.950    14.800    10.270   508.800      .101    37.540
     4.000    15.000    10.270   508.900      .101    36.940
     4.050    15.260    10.270   509.100      .101    35.630
     4.100    15.320    10.260   509.100      .101    34.950
     4.150    15.090    10.250   509.100      .101    32.840
     4.200    14.990    10.240   509.100      .101    29.930
     4.250    14.930    10.220   509.100      .101    28.310
     4.300    14.840    10.190   509.100      .101    27.050
     4.350    14.700    10.150   509.200      .101    25.710
     4.400    14.680    10.080   509.200      .101    24.330
     4.450    14.870     9.980   509.300      .101    22.640
     4.500    15.200     9.900   509.200      .101    21.410
     4.550    15.540     9.760   509.200      .101    19.440
     4.600    15.810     9.610   509.100      .101    17.670
     4.650    16.380     9.440   508.900      .101    16.880
     4.700    16.930     9.240   508.600      .101    15.720
     4.750    17.320     9.050   508.300      .101    15.110
     4.800    17.480     8.770   507.600      .101    14.040
     4.850    17.460     8.340   506.500      .099    13.350
     4.900    17.320     8.170   504.700      .098    12.790
     4.950    17.340     8.110   499.900      .092    12.290
     5.000    17.650     8.310   497.600      .089    11.790
     5.050    17.730     8.680   492.700      .081    11.400
     5.100    17.870     9.480   492.100      .074    10.990
     5.150    18.220    10.480   492.600      .070    10.580
     5.200    18.070    11.830   493.900      .063    10.220
     5.250    18.120    12.560   495.000      .051     9.700
     5.300    18.110    13.110   496.000      .048     9.390
     5.350    17.890    14.130   497.200      .045     8.990
     5.400    17.970    16.640   497.600      .040     8.600
     5.450    18.220    17.140   497.600      .038     8.430
     5.500    18.530    17.440   497.700      .038     8.260
     5.550    18.880    17.740   497.700      .037     8.170
     5.600    18.820    18.080   497.800      .034     8.180
     5.650    18.590    18.410   498.700      .034     8.310
     5.700    18.590    18.690   499.700      .033     8.640
     5.750    18.490    18.920   503.300      .033     8.990
     5.800    18.370    19.090   504.300      .032     9.270
     5.850    19.220    19.160   504.900      .031     9.770
     5.900    19.640    19.150   506.400      .031    10.130
     5.950    20.300    19.100   513.100      .030    10.490
     6.000    20.740    18.940   519.400      .029    10.770
     6.050    21.100    18.760   521.200      .029    10.950
     6.100    21.490    18.570   516.300      .028    11.100
     6.150    21.960    18.500   515.500      .028    11.230
     6.200    22.430    18.420   513.200      .028    11.370
     6.250    22.670    18.310   511.100      .027    11.520
     6.300    23.140    18.150   509.700      .027    11.670
     6.350    23.630    17.970   515.400      .027    11.840
     6.400    24.650    17.660   518.700      .027    11.970
     6.450    25.180    17.360   516.500      .026    12.070
     6.500    25.770    17.020   513.600      .026    12.220
