~Version Information
 VERS.                2.0:  CWLS LOG ASCII STANDARD -VERSION 2.0
 WRAP.                 NO:  ONE LINE PER DEPTH STEP
~WELL INFORMATION BLOCK
#MNEM.UNIT       DATA		            DESCRIPTION OF MNEMONIC
#---------    -------------            ------------------------
 STRT.M      .000                        :START DEPTH
 STOP.M    79.950                        :STOP DEPTH
 STEP.M      .050                        :STEP
 NULL.    -999999.0                      :NULL VALUE
 COMP.       WML                         :COMPANY
 WELL.                          B62B0898 :WELL
 FLD .    Voerendaal                     :FIELD
 CNTY.                                   :COUNTY
 STAT.                                   :STATE
 SRVC.                                   :SERVICE COMPANY
 DATE.     17-NOV-90                     :LOG DATE
 UWI .                                   :UNIQUE WELL ID
 LIC .                                   :LICENSE NUMBER
~Curve Information Block
#MNEM.UNIT      API CODE     Curve Description
#---------    -------------  ------------------------
DEPTH    .M         00 000 00 00          :  1  DEPTH
UFLOW    .M/S       00 000 00 00          :  2  UFLOW
TEMP     .DEGC      00 000 00 00          :  3  TEMP
SN40     .OHM.M     00 000 00 00          :  4  SN40
SP       .V         00 000 00 00          :  5  SP
CAL      .MM        00 000 00 00          :  6  CAL
TEMP     .DEGC      00 000 00 00          :  7  TEMP
GAMMA    .CPS       00 000 00 00          :  8  GAMMA
LN160    .OHM.M     00 000 00 00          :  9  LN160
~Parameter Information Block
#MNEM.UNIT   Information     Description
#---------- ---------------  ------------------------
 FILE.                         :File Type
 FIID.                         :File Type Identifier
 VERS.                         :System Version
 SER .                         :System Serial Number
 TRUK.                         :Truck Calibration Number
 TOOL.                         :Tool Serial Number
 TIME.                         :Time    HrHrMinMin
 LAT .                         :Latitude
 LON .                         :Longitude
 LMF .            MV           :LOG Measured FROM
 DMF .                         :Driller Measured From
 PD  .                         :Permanent Data
 PDEV.                         :Elevation Permanent Data
 EKB .M                        :Elevation Kelly Bushing
 ELEV.DF                       :Elevation DF
 EGL .M                        :Elevation Ground Level
 DRDP.                         :Drillers Depth
 CASD.                         :Casing Diameter
 CASB.                         :Casing Bottom
 CASX.                         :Casing Type
 CAST.                         :Casing Thickness
 TNOC.                         :Time Circulation Stopped
 LOGU.                         :Logging Unit
 RECB.            Veenendaal   :Recorded By
 OSR1.                         :Other Services
 OSR2.                         :Other Services
 OSR3.                         :Other Services
 BS  .MM                       :Bit Size
 MST .                         :Mean Surface Temperature
 TGRD.                         :Temperature Gradiant
 MAGN.                         :Magnetic Declination
 MDEN.                         :Density Matrix
 MATR.                         :Neutron Matrix
 DTMT.                         :Delta T Matrix
 DTFL.                         :Delta T Fluid
 MUDS.                         :Mud Sample Source
 MRS .                         :Mud Resistivity
 MTP .                         :Mud Temperature
 MFRS.                         :Resistivity Mud Filtrate
 MFTP.                         :Temperature Mud Filtrate
 MCRS.                         :Resistivity Mud Cake
 MCTP.                         :Temperature Mud Cake
 FTYP.                         :Fluid Type
 FD  .K/M3                     :Fluid Density
 DFV .S                        :Fluid Viscosity
 FPH .                         :Fuild PH
 ELCO.                         :Electron Cutoff
~Other Information
#MNEM.UNIT  Information      Description
#---------- ---------------  ------------------------
# --------------------------
## COMMENTS    Top_Depth   Bot_Depth  LithCode  Lat    Long   Elev_Gl
##    Type of LithCode   Lithologie - 1970
##                    .00         .80         .00     
##                    .85        2.25       19.00     
##                   2.30        6.15       12.00     
##                   6.20       28.50        7.00     
##                  28.55       40.50        9.00     
##                  40.55       74.60         .00     
##                  74.65       78.00       10.00     
##                  78.05       78.05         .00     
##    last_layer   78.05
# --------------------------
~A DEPTH    UFLOW    TEMP     SN40     SP       CAL      TEMP     GAMMA    LN160    
# ...
    34.150    24.230    10.410 -999999.0  -999999.0    360.400    10.880     7.710 -999999.0 
    34.200    23.250    10.410 -999999.0  -999999.0    360.300    10.880     7.620 -999999.0 
    34.250    22.150    10.410 -999999.0  -999999.0    360.300    10.880     7.580 -999999.0 
    34.300    21.730    10.410 -999999.0  -999999.0    360.200    10.880     7.540 -999999.0 
    34.350    21.760    10.410 -999999.0  -999999.0    360.100    10.890     7.510 -999999.0 
    34.400    22.020    10.410 -999999.0  -999999.0    360.100    10.890     7.510 -999999.0 
    34.450    22.750    10.410 -999999.0  -999999.0    360.100    10.890     7.620 -999999.0 
    34.500    22.960    10.410 -999999.0  -999999.0    360.200    10.890     7.780 -999999.0 
    34.550    23.020    10.410 -999999.0  -999999.0    360.300    10.900     7.930 -999999.0 
    34.600    23.250    10.410 -999999.0  -999999.0    360.400    10.900     8.080 -999999.0 
    34.650    23.540    10.410 -999999.0  -999999.0    360.400    10.900     8.220 -999999.0 
    34.700    23.750    10.410 -999999.0  -999999.0    360.400    10.900     8.420 -999999.0 
    34.750    23.790    10.420 -999999.0  -999999.0    360.300    10.900     8.490 -999999.0 
    34.800    23.920    10.420 -999999.0  -999999.0    360.300    10.910     8.480 -999999.0 
    34.850    24.130    10.410 -999999.0  -999999.0    360.300    10.910     8.500 -999999.0 
    34.900    24.560    10.410 -999999.0  -999999.0    360.100    10.910     8.570 -999999.0 
    34.950    24.930    10.410 -999999.0  -999999.0    360.100    10.910     8.640 -999999.0 
    35.000    25.020    10.400 -999999.0  -999999.0    360.100    10.910     8.630 -999999.0 
    35.050    25.040    10.400 -999999.0  -999999.0    360.100    10.920     8.480 -999999.0 
    35.100    24.870    10.400 -999999.0  -999999.0    360.100    10.920     8.440 -999999.0 
    35.150    24.520    10.400 -999999.0  -999999.0    360.200    10.920     8.420 -999999.0 
    35.200    24.160    10.410 -999999.0  -999999.0    360.400    10.920     8.400 -999999.0 
    35.250    23.790    10.410 -999999.0  -999999.0    360.600    10.920     8.390 -999999.0 
    35.300    23.140    10.410 -999999.0  -999999.0    360.700    10.920     8.380 -999999.0 
    35.350    22.730    10.420 -999999.0  -999999.0    360.800    10.930     8.340 -999999.0 
    35.400    22.760    10.420 -999999.0  -999999.0    361.000    10.930     8.310 -999999.0 
    35.450    22.960    10.420 -999999.0  -999999.0    361.000    10.930     8.280 -999999.0 
    35.500    23.290    10.430 -999999.0  -999999.0    361.100    10.930     8.280 -999999.0 
    35.550    23.710    10.430 -999999.0  -999999.0    361.600    10.930     8.310 -999999.0 
    35.600    23.950    10.430 -999999.0  -999999.0    362.500    10.930     8.430 -999999.0 
    35.650    24.060    10.430 -999999.0  -999999.0    363.900    10.930     8.650 -999999.0 
    35.700    24.140    10.430 -999999.0  -999999.0    365.800    10.930     8.770 -999999.0 
    35.750    24.100    10.430 -999999.0  -999999.0    366.100    10.930     8.820 -999999.0 
    35.800    23.850    10.430 -999999.0  -999999.0    363.400    10.930     8.840 -999999.0 
    35.850    23.500    10.430 -999999.0  -999999.0    360.600    10.940     8.810 -999999.0 
    35.900    22.720    10.430 -999999.0  -999999.0    359.400    10.940     8.780 -999999.0 
    35.950    22.400    10.420 -999999.0  -999999.0    359.000    10.940     8.760 -999999.0 
    36.000    22.300    10.420 -999999.0  -999999.0    359.000    10.940     8.740 -999999.0 
    36.050    22.360    10.420 -999999.0  -999999.0    359.100    10.940     8.780 -999999.0 
    36.100    22.290    10.420 -999999.0  -999999.0    359.300    10.940     8.900 -999999.0 
    36.150    22.310    10.410 -999999.0  -999999.0    359.500    10.940     9.000 -999999.0 
    36.200    22.450    10.410 -999999.0  -999999.0    359.600    10.940     9.090 -999999.0 
    36.250    22.470    10.410 -999999.0  -999999.0    359.600    10.940     9.180 -999999.0 
    36.300    22.140    10.410 -999999.0  -999999.0    359.500    10.950     9.300 -999999.0 
    36.350    21.960    10.420 -999999.0  -999999.0    359.500    10.950     9.660 -999999.0 
    36.400    21.950    10.420 -999999.0  -999999.0    359.500    10.950     9.910 -999999.0 
    36.450    22.300    10.420 -999999.0  -999999.0    359.500    10.950    10.160 -999999.0 
    36.500    23.010    10.420 -999999.0  -999999.0    359.400    10.950    10.430 -999999.0 
    36.550    24.030    10.430 -999999.0  -999999.0    359.400    10.950    10.650 -999999.0 
    36.600    24.550    10.430 -999999.0  -999999.0    359.400    10.950    10.990 -999999.0 
    36.650    25.050    10.430 -999999.0  -999999.0    359.400    10.950    11.240 -999999.0 
    36.700    25.430    10.430 -999999.0  -999999.0    359.400    10.950    11.410 -999999.0 
    36.750    25.690    10.430 -999999.0  -999999.0    359.400    10.950    11.380 -999999.0 
    36.800    25.950    10.430 -999999.0  -999999.0    359.500    10.950    11.180 -999999.0 
    36.850    26.070    10.430 -999999.0  -999999.0    359.600    10.960    10.800 -999999.0 
    36.900    25.880    10.430 -999999.0  -999999.0    359.700    10.960    10.620 -999999.0 
    36.950    25.430    10.430 -999999.0  -999999.0    359.800    10.960    10.550 -999999.0 
    37.000    24.880    10.430 -999999.0  -999999.0    360.000    10.960    10.530 -999999.0 
    37.050    24.360    10.430 -999999.0  -999999.0    360.000    10.960    10.490 -999999.0 
    37.100    24.300    10.430 -999999.0  -999999.0    360.000    10.960    10.470 -999999.0 
    37.150    24.510    10.440 -999999.0  -999999.0    360.100    10.960    10.480 -999999.0 
    37.200    24.800    10.440 -999999.0  -999999.0    360.100    10.960    10.510 -999999.0 
    37.250    25.200    10.440 -999999.0  -999999.0    360.200    10.960    10.560 -999999.0 
    37.300    25.490    10.440 -999999.0  -999999.0    360.200    10.960    10.650 -999999.0 
    37.350    25.720    10.440 -999999.0  -999999.0    360.200    10.960    10.780 -999999.0 
    37.400    25.810    10.440 -999999.0  -999999.0    360.200    10.970    10.890 -999999.0 
    37.450    25.650    10.440 -999999.0  -999999.0    360.100    10.970    10.930 -999999.0 
    37.500    25.330    10.440 -999999.0  -999999.0    360.200    10.970    10.870 -999999.0 
    37.550    25.020    10.440 -999999.0  -999999.0    360.200    10.970    10.710 -999999.0 
    37.600    24.840    10.440 -999999.0  -999999.0    360.200    10.970    10.420 -999999.0 
    37.650    24.850    10.440 -999999.0  -999999.0    360.200    10.970    10.300 -999999.0 
    37.700    24.960    10.440 -999999.0  -999999.0    360.300    10.970    10.250 -999999.0 
    37.750    25.110    10.440 -999999.0  -999999.0    360.300    10.970    10.190 -999999.0 
    37.800    25.140    10.440 -999999.0  -999999.0    360.300    10.970     9.860 -999999.0 
    37.850    25.150    10.440 -999999.0  -999999.0    360.300    10.970     9.540 -999999.0 
    37.900    25.150    10.430 -999999.0  -999999.0    360.300    10.970     8.720 -999999.0 
    37.950    25.140    10.430 -999999.0  -999999.0    360.400    10.970     8.680 -999999.0 
    38.000    25.130    10.430 -999999.0  -999999.0    360.400    10.970     8.730 -999999.0 
    38.050    25.100    10.430 -999999.0  -999999.0    360.400    10.970     8.780 -999999.0 
    38.100    25.160    10.430 -999999.0  -999999.0    360.400    10.970     8.760 -999999.0 
    38.150    25.310    10.430 -999999.0  -999999.0    360.500    10.980     8.700 -999999.0 
    38.200    25.440    10.440 -999999.0  -999999.0    360.500    10.980     8.690 -999999.0 
    38.250    25.480    10.440 -999999.0  -999999.0    360.500    10.980     8.680 -999999.0 
    38.300    25.450    10.440 -999999.0  -999999.0    360.500    10.980     8.670 -999999.0 
    38.350    25.370    10.440 -999999.0  -999999.0    360.500    10.980     8.550 -999999.0 
    38.400    25.230    10.440 -999999.0  -999999.0    360.500    10.980     8.390 -999999.0 
