~Version Information
 VERS.                2.0:  CWLS LOG ASCII STANDARD -VERSION 2.0
 WRAP.                 NO:  ONE LINE PER DEPTH STEP
~WELL INFORMATION BLOCK
#MNEM.UNIT       DATA		            DESCRIPTION OF MNEMONIC
#---------    -------------            ------------------------
 STRT.M      .000                        :START DEPTH
 STOP.M   #######                        :STOP DEPTH
 STEP.M      .050                        :STEP
 NULL.    -999999.0                      :NULL VALUE
 COMP.       SCHIFOOD                    :COMPANY
 WELL.                          B62B0896 :WELL
 FLD .    Hoensbroek                     :FIELD
 CNTY.                                   :COUNTY
 STAT.                                   :STATE
 SRVC.                                   :SERVICE COMPANY
 DATE.     17-JUL-90                     :LOG DATE
 UWI .                                   :UNIQUE WELL ID
 LIC .                                   :LICENSE NUMBER
~Curve Information Block
#MNEM.UNIT      API CODE     Curve Description
#---------    -------------  ------------------------
DEPTH    .M         00 000 00 00          :  1  DEPTH
SN40     .OHM.M     00 000 00 00          :  2  SN40
SP       .V         00 000 00 00          :  3  SP
CAL      .MM        00 000 00 00          :  4  CAL
LN160    .OHM.M     00 000 00 00          :  5  LN160
GAMMA    .CPS       00 000 00 00          :  6  GAMMA
~Parameter Information Block
#MNEM.UNIT   Information     Description
#---------- ---------------  ------------------------
 FILE.                         :File Type
 FIID.                         :File Type Identifier
 VERS.                         :System Version
 SER .                         :System Serial Number
 TRUK.                         :Truck Calibration Number
 TOOL.                         :Tool Serial Number
 TIME.                         :Time    HrHrMinMin
 LAT .                         :Latitude
 LON .                         :Longitude
 LMF .            MV           :LOG Measured FROM
 DMF .                         :Driller Measured From
 PD  .                         :Permanent Data
 PDEV.                         :Elevation Permanent Data
 EKB .M                        :Elevation Kelly Bushing
 ELEV.DF                       :Elevation DF
 EGL .M                        :Elevation Ground Level
 DRDP.                         :Drillers Depth
 CASD.                         :Casing Diameter
 CASB.                         :Casing Bottom
 CASX.                         :Casing Type
 CAST.                         :Casing Thickness
 TNOC.                         :Time Circulation Stopped
 LOGU.                         :Logging Unit
 RECB.            Bergsma      :Recorded By
 OSR1.                         :Other Services
 OSR2.                         :Other Services
 OSR3.                         :Other Services
 BS  .MM                       :Bit Size
 MST .                         :Mean Surface Temperature
 TGRD.                         :Temperature Gradiant
 MAGN.                         :Magnetic Declination
 MDEN.                         :Density Matrix
 MATR.                         :Neutron Matrix
 DTMT.                         :Delta T Matrix
 DTFL.                         :Delta T Fluid
 MUDS.                         :Mud Sample Source
 MRS .            6            :Mud Resistivity
 MTP .            19           :Mud Temperature
 MFRS.                         :Resistivity Mud Filtrate
 MFTP.                         :Temperature Mud Filtrate
 MCRS.                         :Resistivity Mud Cake
 MCTP.                         :Temperature Mud Cake
 FTYP.                         :Fluid Type
 FD  .K/M3                     :Fluid Density
 DFV .S                        :Fluid Viscosity
 FPH .                         :Fuild PH
 ELCO.                         :Electron Cutoff
~Other Information
#MNEM.UNIT  Information      Description
#---------- ---------------  ------------------------
# --------------------------
## COMMENTS    Top_Depth   Bot_Depth  LithCode  Lat    Long   Elev_Gl
##    Type of LithCode   Lithologie - 1970
##                    .00        6.00         .00     
##                   6.05        8.00        2.00     
##                   8.05       11.50       22.00     
##                  11.55       15.20       23.00     
##                  15.25       19.00       22.00     
##                  19.05       20.25       11.00     
##                  20.30       22.10       12.00     
##                  22.15       23.70       11.00     
##                  23.75       25.15       12.00     
##                  25.20       26.10       11.00     
##                  26.15       27.20       12.00     
##                  27.25       35.00       11.00     
##                  35.05       47.55       12.00     
##                  47.60       51.00        7.00     
##                  51.05       52.25       11.00     
##                  52.30       54.00        7.00     
##                  54.05       55.10       11.00     
##                  55.15       58.00       12.00     
##                  58.05       62.60       11.00     
##                  62.65       67.20        8.00     
##                  67.25       70.05        9.00     
##                  70.10       74.00        7.00     
##                  74.05       75.40        8.00     
##                  75.45       80.00        7.00     
##                  80.05       92.40        9.00     
##                  92.45       94.50       10.00     
##                  94.55       96.90        8.00     
##                  96.95       99.30       10.00     
##                  99.35       99.35         .00     
##    last_layer   99.35
# --------------------------
~A DEPTH    SN40     SP       CAL      LN160    GAMMA    
# ...
    46.000    20.560      .075   604.700    31.290    22.880
    46.050    20.680      .074   603.100    31.460    23.120
    46.100    20.800      .074   601.300    31.640    23.200
    46.150    20.920      .074   600.000    31.820    23.200
    46.200    21.020      .074   603.200    32.000    23.150
    46.250    21.190      .074   606.900    32.170    23.120
    46.300    21.330      .074   610.400    32.350    23.010
    46.350    21.500      .074   609.600    32.500    22.700
    46.400    21.670      .074   606.900    32.760    22.640
    46.450    21.830      .074   604.700    33.020    22.640
    46.500    21.990      .074   605.500    33.280    22.630
    46.550    22.150      .073   607.000    33.530    22.610
    46.600    22.310      .073   608.700    33.790    22.510
    46.650    22.460      .073   610.100    34.050    22.390
    46.700    22.610      .073   611.300    34.310    22.340
    46.750    22.510      .073   611.900    34.570    22.490
    46.800    22.600      .073   612.300    34.830    22.550
    46.850    22.720      .073   612.400    35.090    22.570
    46.900    22.810      .073   612.200    35.430    22.550
    46.950    22.900      .073   611.700    35.780    22.480
    47.000    23.030      .073   611.200    36.120    22.370
    47.050    23.150      .073   610.800    36.470    22.370
    47.100    23.260      .074   609.900    36.810    22.450
    47.150    23.470      .074   609.000    37.160    22.450
    47.200    23.580      .074   607.500    37.500    22.390
    47.250    23.720      .074   605.500    37.850    22.310
    47.300    23.890      .074   603.200    38.190    22.310
    47.350    24.020      .074   601.200    38.540    22.340
    47.400    24.240      .075   600.300    38.890    22.030
    47.450    24.480      .075   599.400    39.230    21.760
    47.500    24.700      .075   598.600    39.580    21.540
    47.550    25.020      .076   598.000    39.940    21.310
    47.600    25.120      .076   597.300    40.320    21.090
    47.650    25.390      .076   597.100    40.700    20.760
    47.700    25.780      .077   596.900    41.090    20.660
    47.750    26.180      .077   596.500    41.470    20.750
    47.800    26.570      .078   595.900    41.850    20.860
    47.850    26.960      .078   594.900    42.240    21.000
    47.900    27.360      .078   593.900    42.620    20.980
    47.950    27.790      .078   592.000    43.020    20.920
    48.000    28.230      .078   590.200    43.440    20.850
    48.050    28.660      .078   587.400    43.860    20.780
    48.100    29.090      .078   585.800    44.280    20.860
    48.150    29.490      .078   583.800    44.690    20.980
    48.200    29.890      .078   586.400    45.110    21.030
    48.250    30.260      .078   591.000    45.530    21.040
    48.300    30.630      .078   592.300    45.950    21.000
    48.350    30.990      .078   588.900    46.370    20.960
    48.400    31.350      .078   589.400    46.780    20.960
    48.450    31.760      .078   589.200    47.200    21.050
    48.500    31.990      .078   578.100    47.610    21.250
    48.550    32.280      .078   566.900    48.020    21.460
    48.600    32.480      .077   575.600    48.470    21.610
    48.650    32.740      .077   584.300    48.590    21.740
    48.700    32.960      .077   581.400    48.880    21.840
    48.750    33.190      .077   569.100    49.130    21.870
    48.800    33.380      .077   564.600    49.380    21.860
    48.850    33.480      .077   568.200    49.520    21.750
    48.900    33.580      .077   571.900    49.670    21.480
    48.950    33.670      .077   575.500    49.830    21.310
    49.000    33.730      .077   571.200    49.980    21.190
    49.050    33.790      .076   563.900    50.120    21.160
    49.100    33.820      .076   557.800    50.250    21.140
    49.150    33.840      .076   562.200    50.400    21.120
    49.200    33.840      .076   566.600    50.510    21.030
    49.250    33.800      .076   571.000    50.550    20.790
    49.300    33.770      .076   575.300    50.590    20.660
    49.350    33.730      .076   579.000    50.630    20.620
    49.400    33.670      .075   576.700    50.630    20.590
    49.450    33.600      .075   577.200    50.630    20.540
    49.500    33.500      .075   581.600    50.630    20.480
    49.550    33.400      .075   586.100    50.630    20.500
    49.600    33.300      .075   590.300    50.610    20.590
    49.650    33.200      .075   567.500    50.570    20.660
    49.700    33.070      .075   573.300    50.510    20.630
    49.750    32.930      .075   579.100    50.410    20.620
    49.800    32.840      .075   584.800    50.300    20.550
    49.850    32.720      .075   583.000    50.180    20.420
    49.900    32.530      .075   577.500    50.040    20.370
    49.950    32.350      .075   581.900    49.910    20.410
    50.000    32.190      .075   586.300    49.790    20.500
    50.050    31.970      .075   590.700    49.650    20.600
    50.100    31.800      .075   584.000    49.510    20.650
    50.150    31.640      .075   571.600    49.210    20.670
    50.200    31.490      .075   574.400    48.750    20.640
    50.250    31.330      .075   579.000    48.290    20.570
    50.300    31.140      .075   583.600    47.920    20.530
    50.350    30.930      .075   588.200    47.670    20.510
    50.400    30.690      .076   586.500    47.350    20.510
    50.450    30.430      .076   580.800    46.990    20.530
    50.500    30.190      .076   574.800    46.520    20.570
    50.550    29.830      .076   597.800    46.110    20.610
    50.600    29.630      .076   597.500    45.780    20.670
    50.650    29.370      .076   596.800    45.450    20.790
    50.700    29.090      .077   596.000    45.140    20.960
    50.750    28.850      .077   596.000    44.850    21.160
    50.800    28.610      .077   596.300    44.570    21.640
    50.850    28.320      .077   597.500    44.280    22.000
    50.900    28.000      .077   598.100    44.000    22.130
    50.950    27.640      .077   598.500    43.740    22.210
    51.000    27.300      .077   598.600    43.500    22.300
    51.050    27.040      .078   598.800    43.290    22.440
    51.100    26.730      .078   598.700    43.140    22.630
    51.150    26.370      .078   598.300    42.950    22.780
    51.200    25.730      .078   597.900    42.830    22.890
    51.250    25.250      .078   597.500    42.710    22.970
    51.300    24.890      .078   596.900    42.600    23.030
    51.350    24.550      .078   596.800    42.520    23.080
    51.400    24.320      .079   596.700    42.430    23.070
    51.450    23.990      .079   596.700    42.360    22.980
    51.500    23.730      .079   596.700    42.280    23.000
    51.550    23.550      .079   596.800    42.200    23.080
    51.600    23.430      .079   596.900    42.100    23.160
    51.650    23.290      .079   596.800    42.000    23.280
    51.700    23.210      .079   596.700    41.900    23.290
    51.750    23.150      .079   596.400    41.800    23.230
    51.800    23.130      .079   596.100    41.700    23.170
    51.850    23.120      .079   595.600    41.610    23.160
    51.900    23.130      .079   594.700    41.520    23.160
    51.950    23.190      .079   592.500    41.410    23.150
    52.000    23.270      .080   585.500    41.280    23.110
    52.050    23.350      .080   577.900    41.190    23.080
    52.100    23.470      .080   571.500    41.090    23.030
    52.150    23.600      .080   574.300    40.980    22.930
    52.200    23.820      .080   586.300    40.890    22.740
    52.250    23.960      .080   594.600    40.770    22.200
    52.300    24.120      .080   599.200    40.650    21.740
    52.350    24.360      .080   592.100    40.510    21.340
    52.400    24.740      .080   587.300    40.390    21.140
    52.450    25.120      .080   594.500    40.200    20.950
    52.500    25.500      .080   602.100    40.000    20.770
    52.550    25.880      .080   599.600    39.790    20.660
