~Version Information
 VERS.                2.0:  CWLS LOG ASCII STANDARD -VERSION 2.0
 WRAP.                 NO:  ONE LINE PER DEPTH STEP
~WELL INFORMATION BLOCK
#MNEM.UNIT       DATA		            DESCRIPTION OF MNEMONIC
#---------    -------------            ------------------------
 STRT.M      .000                        :START DEPTH
 STOP.M    79.950                        :STOP DEPTH
 STEP.M      .050                        :STEP
 NULL.    -999999.0                      :NULL VALUE
 COMP.       WML                         :COMPANY
 WELL.                          B62B0898 :WELL
 FLD .    Voerendaal                     :FIELD
 CNTY.                                   :COUNTY
 STAT.                                   :STATE
 SRVC.                                   :SERVICE COMPANY
 DATE.     17-NOV-90                     :LOG DATE
 UWI .                                   :UNIQUE WELL ID
 LIC .                                   :LICENSE NUMBER
~Curve Information Block
#MNEM.UNIT      API CODE     Curve Description
#---------    -------------  ------------------------
DEPTH    .M         00 000 00 00          :  1  DEPTH
UFLOW    .M/S       00 000 00 00          :  2  UFLOW
TEMP     .DEGC      00 000 00 00          :  3  TEMP
SN40     .OHM.M     00 000 00 00          :  4  SN40
SP       .V         00 000 00 00          :  5  SP
CAL      .MM        00 000 00 00          :  6  CAL
TEMP     .DEGC      00 000 00 00          :  7  TEMP
GAMMA    .CPS       00 000 00 00          :  8  GAMMA
LN160    .OHM.M     00 000 00 00          :  9  LN160
~Parameter Information Block
#MNEM.UNIT   Information     Description
#---------- ---------------  ------------------------
 FILE.                         :File Type
 FIID.                         :File Type Identifier
 VERS.                         :System Version
 SER .                         :System Serial Number
 TRUK.                         :Truck Calibration Number
 TOOL.                         :Tool Serial Number
 TIME.                         :Time    HrHrMinMin
 LAT .                         :Latitude
 LON .                         :Longitude
 LMF .            MV           :LOG Measured FROM
 DMF .                         :Driller Measured From
 PD  .                         :Permanent Data
 PDEV.                         :Elevation Permanent Data
 EKB .M                        :Elevation Kelly Bushing
 ELEV.DF                       :Elevation DF
 EGL .M                        :Elevation Ground Level
 DRDP.                         :Drillers Depth
 CASD.                         :Casing Diameter
 CASB.                         :Casing Bottom
 CASX.                         :Casing Type
 CAST.                         :Casing Thickness
 TNOC.                         :Time Circulation Stopped
 LOGU.                         :Logging Unit
 RECB.            Veenendaal   :Recorded By
 OSR1.                         :Other Services
 OSR2.                         :Other Services
 OSR3.                         :Other Services
 BS  .MM                       :Bit Size
 MST .                         :Mean Surface Temperature
 TGRD.                         :Temperature Gradiant
 MAGN.                         :Magnetic Declination
 MDEN.                         :Density Matrix
 MATR.                         :Neutron Matrix
 DTMT.                         :Delta T Matrix
 DTFL.                         :Delta T Fluid
 MUDS.                         :Mud Sample Source
 MRS .                         :Mud Resistivity
 MTP .                         :Mud Temperature
 MFRS.                         :Resistivity Mud Filtrate
 MFTP.                         :Temperature Mud Filtrate
 MCRS.                         :Resistivity Mud Cake
 MCTP.                         :Temperature Mud Cake
 FTYP.                         :Fluid Type
 FD  .K/M3                     :Fluid Density
 DFV .S                        :Fluid Viscosity
 FPH .                         :Fuild PH
 ELCO.                         :Electron Cutoff
~Other Information
#MNEM.UNIT  Information      Description
#---------- ---------------  ------------------------
# --------------------------
## COMMENTS    Top_Depth   Bot_Depth  LithCode  Lat    Long   Elev_Gl
##    Type of LithCode   Lithologie - 1970
##                    .00         .80         .00     
##                    .85        2.25       19.00     
##                   2.30        6.15       12.00     
##                   6.20       28.50        7.00     
##                  28.55       40.50        9.00     
##                  40.55       74.60         .00     
##                  74.65       78.00       10.00     
##                  78.05       78.05         .00     
##    last_layer   78.05
# --------------------------
~A DEPTH    UFLOW    TEMP     SN40     SP       CAL      TEMP     GAMMA    LN160    
# ...
    51.500    12.960    10.370    57.390      .050   549.000    11.190     3.560    74.890
    51.550    13.110    10.370    57.400      .050   551.000    11.190     3.550    74.990
    51.600    13.320    10.370    57.430      .049   556.000    11.190     3.590    75.070
    51.650    13.690    10.370    57.500      .049   557.000    11.190     3.660    75.160
    51.700    14.010    10.370    57.620      .048   556.900    11.190     3.770    75.240
    51.750    14.010    10.370    57.760      .048   556.800    11.200     3.880    75.280
    51.800    13.870    10.370    58.050      .048   556.700    11.200     3.920    75.320
    51.850    13.510    10.370    58.310      .048   557.500    11.200     3.910    75.390
    51.900    12.860    10.370    58.600      .049   558.300    11.200     3.910    75.460
    51.950    11.840    10.370    59.120      .049   559.000    11.200     3.920    75.540
    52.000    10.990    10.370    59.610      .050   562.500    11.200     3.940    75.650
    52.050    10.760    10.370    59.830      .051   562.600    11.200     3.970    75.750
    52.100    10.650    10.370    60.000      .051   555.300    11.200     3.990    75.890
    52.150    10.490    10.370    60.100      .051   550.800    11.200     3.960    76.060
    52.200    10.190    10.370    60.050      .051   550.100    11.200     3.840    76.260
    52.250     9.490    10.370    59.990      .051   549.700    11.210     3.720    76.630
    52.300     9.260    10.370    59.950      .051   550.400    11.210     3.650    77.750
    52.350     9.090    10.380    60.000      .050   551.200    11.210     3.600    78.150
    52.400     9.230    10.380    60.070      .051   551.500    11.210     3.560    78.840
    52.450     9.180    10.380    60.320      .051   551.400    11.210     3.520    79.440
    52.500     9.130    10.380    60.570      .051   551.500    11.220     3.480    79.960
    52.550     8.920    10.390    60.900      .052   552.100    11.220     3.400    80.350
    52.600     8.380    10.390    61.090      .053   554.400    11.220     3.320    80.900
    52.650     7.800    10.390    61.270      .055   558.600    11.220     3.290    81.380
    52.700     7.230    10.390    61.350      .056   562.600    11.220     3.270    81.790
    52.750     6.960    10.400    61.440      .058   565.400    11.230     3.280    82.030
    52.800     7.110    10.400    61.520      .060   562.500    11.230     3.310    82.300
    52.850     7.730    10.400    61.550      .061   553.200    11.230     3.350    82.400
    52.900     9.700    10.400    61.590      .062   544.400    11.230     3.380    82.330
    52.950    11.660    10.410    61.620      .062   552.100    11.230     3.370    82.180
    53.000    13.620    10.410    61.670      .061   555.800    11.240     3.320    81.990
    53.050    15.670    10.410    61.770      .061   554.900    11.240     3.290    81.670
    53.100    16.800    10.410    61.860      .061   558.900    11.240     3.280    81.410
    53.150    16.760    10.410    61.970      .061   565.100    11.240     3.330    81.060
    53.200    15.800    10.410    62.050      .061   568.400    11.240     3.430    80.600
    53.250    14.520    10.410    62.040      .062   576.300    11.240     3.540    80.110
    53.300    13.060    10.410    61.980      .062   584.200    11.240     3.600    79.870
    53.350    12.270    10.410    61.890      .062   582.900    11.240     3.480    79.380
    53.400    11.690    10.410    61.870      .063   569.500    11.240     3.220    79.070
    53.450    11.350    10.410    61.860      .064   569.800    11.240     3.100    78.590
    53.500    11.370    10.410    61.780      .064   561.200    11.230     3.130    78.220
    53.550    11.590    10.410    61.590      .066   560.900    11.230     3.120    77.900
    53.600    12.370    10.410    61.380      .067   560.900    11.230     3.100    77.490
    53.650    12.760    10.420    61.190      .070   561.000    11.230     3.080    77.020
    53.700    13.210    10.420    60.930      .073   562.000    11.230     3.090    76.600
    53.750    13.660    10.420    60.290      .075   565.200    11.230     3.120    76.190
    53.800    13.830    10.420    59.750      .076   565.400    11.230     3.130    76.000
    53.850    13.790    10.420    59.620      .077   565.600    11.230     3.120    75.780
    53.900    13.770    10.430    59.700      .077   566.100    11.230     3.100    75.610
    53.950    13.560    10.430    59.820      .078   566.600    11.220     3.070    75.490
    54.000    12.970    10.440    59.880      .079   565.800    11.220     3.040    75.380
    54.050    12.410    10.440    59.860      .079   559.300    11.220     3.020    75.330
    54.100    12.200    10.440    59.930      .079   554.900    11.220     3.040    75.290
    54.150    12.080    10.440    60.170      .080   553.400    11.220     3.080    75.270
    54.200    12.100    10.440    60.550      .080   551.000    11.220     3.160    75.290
    54.250    12.450    10.440    61.050      .080   546.400    11.220     3.260    75.360
    54.300    12.790    10.440    61.720      .081   545.200    11.230     3.340    75.450
    54.350    13.210    10.450    62.400      .081   553.400    11.230     3.380    75.630
    54.400    13.700    10.450    63.010      .081   552.200    11.230     3.380    75.940
    54.450    14.470    10.460    63.670      .082   551.100    11.230     3.390    76.210
    54.500    14.920    10.460    64.230      .082   551.000    11.230     3.410    76.530
    54.550    15.210    10.470    64.890      .082   548.900    11.240     3.430    76.910
    54.600    15.340    10.470    65.300      .082   545.500    11.240     3.430    77.380
    54.650    15.380    10.480    65.320      .082   549.000    11.240     3.470    77.850
    54.700    15.370    10.480    65.250      .082   552.400    11.240     3.540    78.370
    54.750    15.180    10.490    65.120      .083   551.400    11.240     3.660    78.970
    54.800    14.930    10.490    65.040      .083   548.400    11.250     3.780    79.820
    54.850    14.280    10.490    65.030      .083   548.400    11.250     3.840    80.480
    54.900    13.990    10.490    65.040      .083   549.900    11.250     3.780    81.150
    54.950    13.820    10.490    65.060      .083   551.300    11.250     3.660    81.790
    55.000    13.840    10.480    65.030      .083   553.500    11.250     3.600    82.310
    55.050    13.930    10.480    64.910      .084   545.600    11.260     3.460    83.180
    55.100    13.910    10.480    64.770      .084   542.300    11.260     3.290    83.720
    55.150    13.800    10.480    64.300      .085   544.700    11.260     3.290    84.790
    55.200    13.530    10.480    64.080      .086   548.800    11.260     3.320    85.630
    55.250    13.300    10.480    63.470      .086   557.000    11.260     3.350    86.650
    55.300    13.220    10.480    63.040      .087   564.800    11.260     3.350    89.040
    55.350    13.410    10.480    62.840      .088   558.200    11.260     3.350    89.960
    55.400    13.760    10.480    62.690      .088   560.200    11.260     3.330    90.810
    55.450    14.650    10.480    62.530      .088   560.300    11.260     3.250    91.430
    55.500    15.140    10.480    62.360      .089   559.200    11.260     3.210    91.830
    55.550    15.450    10.480    62.330      .089   561.400    11.250     3.230    91.980
    55.600    15.580    10.480    62.350      .089   563.900    11.250     3.360    92.010
    55.650    15.550    10.480    62.390      .089   563.600    11.250     3.410    91.890
    55.700    15.330    10.480    62.470      .089   553.400    11.250     3.400    91.760
    55.750    15.130    10.480    62.540      .089   552.200    11.250     3.400    91.630
    55.800    14.340    10.480    62.610      .089   551.000    11.250     3.400    91.450
    55.850    13.940    10.480    62.700      .089   549.600    11.250     3.380    91.230
