~Version Information
 VERS.                2.0:  CWLS LOG ASCII STANDARD -VERSION 2.0
 WRAP.                 NO:  ONE LINE PER DEPTH STEP
~WELL INFORMATION BLOCK
#MNEM.UNIT       DATA		            DESCRIPTION OF MNEMONIC
#---------    -------------            ------------------------
 STRT.M      .150                        :START DEPTH
 STOP.M   #######                        :STOP DEPTH
 STEP.M      .050                        :STEP
 NULL.    -999999.0                      :NULL VALUE
 COMP.       SOFTDR                      :COMPANY
 WELL.                          B62B0927 :WELL
 FLD .    Heerlen                        :FIELD
 CNTY.                                   :COUNTY
 STAT.                                   :STATE
 SRVC.                                   :SERVICE COMPANY
 DATE.     29-MAY-97                     :LOG DATE
 UWI .                                   :UNIQUE WELL ID
 LIC .                                   :LICENSE NUMBER
~Curve Information Block
#MNEM.UNIT      API CODE     Curve Description
#---------    -------------  ------------------------
DEPTH    .M         00 000 00 00          :  1  DEPTH
GAM(NAT) .CPS       00 000 00 00          :  2  GAM(NAT)
SP       .V         00 000 00 00          :  3  SP
RES(16N) .OHM.M     00 000 00 00          :  4  RES(16N)
RES(64N) .OHM.M     00 000 00 00          :  5  RES(64N)
RES      .OHM       00 000 00 00          :  6  RES
~Parameter Information Block
#MNEM.UNIT   Information     Description
#---------- ---------------  ------------------------
 FILE.                         :File Type
 FIID.                         :File Type Identifier
 VERS.                         :System Version
 SER .                         :System Serial Number
 TRUK.                         :Truck Calibration Number
 TOOL.                         :Tool Serial Number
 TIME.                         :Time    HrHrMinMin
 LAT .                         :Latitude
 LON .                         :Longitude
 LMF .            MV           :LOG Measured FROM
 DMF .                         :Driller Measured From
 PD  .                         :Permanent Data
 PDEV.                         :Elevation Permanent Data
 EKB .M                        :Elevation Kelly Bushing
 ELEV.DF                       :Elevation DF
 EGL .M                        :Elevation Ground Level
 DRDP.                         :Drillers Depth
 CASD.                         :Casing Diameter
 CASB.                         :Casing Bottom
 CASX.                         :Casing Type
 CAST.                         :Casing Thickness
 TNOC.                         :Time Circulation Stopped
 LOGU.                         :Logging Unit
 RECB.            Bergsma      :Recorded By
 OSR1.                         :Other Services
 OSR2.                         :Other Services
 OSR3.                         :Other Services
 BS  .MM                       :Bit Size
 MST .                         :Mean Surface Temperature
 TGRD.                         :Temperature Gradiant
 MAGN.                         :Magnetic Declination
 MDEN.                         :Density Matrix
 MATR.                         :Neutron Matrix
 DTMT.                         :Delta T Matrix
 DTFL.                         :Delta T Fluid
 MUDS.                         :Mud Sample Source
 MRS .                         :Mud Resistivity
 MTP .                         :Mud Temperature
 MFRS.                         :Resistivity Mud Filtrate
 MFTP.                         :Temperature Mud Filtrate
 MCRS.                         :Resistivity Mud Cake
 MCTP.                         :Temperature Mud Cake
 FTYP.                         :Fluid Type
 FD  .K/M3                     :Fluid Density
 DFV .S                        :Fluid Viscosity
 FPH .                         :Fuild PH
 ELCO.                         :Electron Cutoff
~Other Information
#MNEM.UNIT  Information      Description
#---------- ---------------  ------------------------
# --------------------------
## COMMENTS    Top_Depth   Bot_Depth  LithCode  Lat    Long   Elev_Gl
##    Type of LithCode   Lithologie - 1970
##                    .15        3.55       62.00     
##                   3.55        5.50        2.00     
##                   5.50        8.70       26.00     
##                   8.70       15.10       63.00     
##                  15.10       19.15       26.00     
##                  19.15       20.70       43.00     
##                  20.70       22.60       26.00     
##                  22.60       30.05       63.00     
##                  30.05       30.85       26.00     
##                  30.85       52.70       63.00     
##                  52.70       54.00       26.00     
##                  54.00       58.15       63.00     
##                  58.15       59.85       26.00     
##                  59.85       66.75       63.00     
##                  66.75       70.35       26.00     
##                  70.35       72.25       63.00     
##                  72.25       73.10       26.00     
##                  73.10       74.40       63.00     
##                  74.40       75.15       26.00     
##                  75.15       75.95       63.00     
##                  75.95       76.75       26.00     
##                  76.75       77.40       63.00     
##                  77.40       78.20       26.00     
##                  78.20       79.70       63.00     
##                  79.70       80.75       26.00     
##                  80.75       81.70       58.00     
##                  81.70       83.15       26.00     
##                  83.15       84.95       58.00     
##                  84.95       87.35       22.00     
##                  87.35       88.60       23.00     
##                  88.60       89.30       58.00     
##                  89.30       91.10       23.00     
##                  91.10       92.35       58.00     
##                  92.35       94.30       23.00     
##                  94.30       99.05       26.00     
##                  99.05      100.50       23.00     
##                 100.50      103.10       26.00     
##                 103.10      105.80       40.00     
##                 105.80      107.05       43.00     
##                 107.05      110.35       57.00     
##                 110.35      112.35       15.00     
##                 112.35      116.10       63.00     
##                 116.10      120.45       32.00     
##                 120.45      121.95       63.00     
##                 121.95      122.70       12.00     
##                 122.70      124.70       15.00     
##                 124.70      127.95       19.00     
##                 127.95      129.55       58.00     
##                 129.55      130.60       38.00     
##                 130.60      132.70       57.00     
##                 132.70      133.60       59.00     
##                 133.60      135.20       57.00     
##                 135.20      135.85       59.00     
##                 135.85      136.50       57.00     
##                 136.50      137.30       58.00     
##    last_layer   137.3
##    Type of LithCode   Lithologie - 1970
##                   1.90        2.15       87.00     
##                   2.15        3.90       84.00     
##                   3.90        4.25       85.00     
##                   4.25       21.95         .00     
##                  21.95       22.35       87.00     
##                  22.35       24.95       84.00     
##                  24.95       25.30       85.00     
##                  25.30       37.95         .00     
##                  37.95       38.25       87.00     
##                  38.25       40.95       84.00     
##                  40.95       41.20       85.00     
##                  41.20       42.00         .00     
##                  42.00       44.95       74.00     
##                  44.95       46.95         .00     
##                  46.95       47.25       87.00     
##                  47.25       50.90       84.00     
##                  50.90       51.20       85.00     
##                  51.20       59.95         .00     
##                  59.95       60.35       87.00     
##                  60.35       62.95       84.00     
##                  62.95       63.25       85.00     
##                  63.25       76.90         .00     
##                  76.90       77.15       87.00     
##                  77.15       80.00       84.00     
##                  80.00       80.35       85.00     
##                  80.35      106.95         .00     
##                 106.95      107.25       87.00     
##                 107.25      115.45       84.00     
##                 115.45      115.80       85.00     
##                 115.80      116.40         .00     
##                 116.40      117.40       77.00     
##                 117.40      119.40       80.00     
##                 119.40      120.45       77.00     
##                 120.45      121.90         .00     
##                 121.90      122.35       87.00     
##                 122.35      127.90       84.00     
##                 127.90      128.30       85.00     
##                 128.30      130.95         .00     
##                 130.95      131.25       87.00     
##                 131.25      133.95       84.00     
##                 133.95      134.15       85.00     
##    last_layer   134.15
# --------------------------
~A DEPTH    GAM(NAT) SP       RES(16N) RES(64N) RES      
# ...
    52.850    36.500      .043    27.900    23.000   221.600
    52.900    45.400      .042    28.700    22.800   222.000
    52.950    49.800      .042    29.300    22.500   222.200
    53.000    52.800      .042    29.800    22.300   222.400
    53.050    37.100      .042    30.000    22.000   222.600
    53.100    54.400      .042    30.300    21.700   222.400
    53.150    59.000      .042    30.500    21.500   221.900
    53.200    49.400      .042    30.600    21.300   221.800
    53.250    50.700      .042    30.600    21.100   222.500
    53.300    34.100      .042    30.600    21.200   223.600
    53.350    39.700      .042    30.500    21.400   224.500
    53.400    48.000      .042    30.500    21.600   224.700
    53.450    61.600      .042    30.500    21.800   224.800
    53.500    69.200      .042    30.300    22.100   224.700
    53.550    73.300      .042    30.200    22.400   224.200
    53.600    58.600      .042    29.800    22.600   223.700
    53.650    53.900      .042    29.400    22.900   223.600
    53.700    68.600      .042    28.700    23.100   223.400
    53.750    58.900      .042    27.900    23.200   222.800
    53.800    49.200      .042    27.100    23.400   222.400
    53.850    41.900      .043    26.100    23.600   221.800
    53.900    78.400      .043    25.400    23.800   221.000
    53.950    79.300      .043    25.100    24.000   220.300
    54.000    54.800      .044    25.000    24.200   219.100
    54.050    86.800      .046    24.800    24.400   217.700
    54.100    81.200      .047    24.700    24.500   214.900
    54.150    69.700      .048    24.700    24.700   208.900
    54.200    88.000      .049    24.500    24.800   203.600
    54.250    73.800      .049    24.500    24.800   201.600
    54.300    89.300      .049    24.000    24.800   200.400
    54.350    80.500      .049    23.300    24.600   199.400
    54.400    77.100      .049    22.800    24.400   198.500
    54.450    61.500      .049    22.400    24.300   197.500
    54.500    72.700      .050    22.100    24.300   196.200
    54.550    58.900      .050    21.900    24.200   195.400
    54.600    62.400      .050    21.800    24.200   194.500
    54.650    93.000      .050    21.800    24.100   192.900
    54.700    78.200      .051    21.800    24.100   191.900
    54.750    67.300      .051    22.000    24.100   192.400
    54.800    78.800      .050    22.100    24.100   194.200
    54.850    70.700      .050    21.900    24.100   195.800
    54.900    58.900      .050    21.600    24.100   197.000
    54.950    62.300      .049    21.200    23.900   197.500
    55.000    73.000      .049    20.600    23.800   198.600
    55.050    70.100      .049    19.900    23.600   200.700
    55.100    55.100      .049    19.600    23.400   204.200
    55.150    39.600      .048    19.400    23.200   208.100
    55.200    64.200      .049    19.300    23.100   209.700
    55.250    85.800      .049    19.500    22.900   210.100
    55.300    60.700      .050    19.700    22.800   207.900
    55.350    82.300      .051    20.000    22.800   203.300
    55.400    74.200      .051    20.100    22.700   199.700
    55.450    51.500      .051    20.100    22.600   198.800
    55.500    66.600      .051    19.900    22.500   197.900
    55.550    71.000      .051    19.600    22.400   196.700
    55.600    62.700      .051    19.300    22.400   195.400
    55.650    43.400      .052    19.000    22.300   194.300
    55.700    51.700      .053    18.600    22.200   192.900
    55.750    68.300      .053    18.200    22.200   191.700
    55.800    64.600      .053    17.800    22.200   190.900
    55.850    70.700      .052    17.500    22.300   190.800
    55.900    72.400      .053    17.200    22.400   192.500
    55.950    67.300      .053    16.900    22.500   193.400
    56.000    86.000      .053    16.700    22.700   193.100
    56.050    72.500      .053    16.700    23.000   192.000
    56.100    76.500      .054    16.700    23.200   190.500
    56.150    77.500      .054    16.700    23.300   189.900
    56.200    87.600      .053    16.600    23.400   189.200
    56.250    71.900      .053    16.400    23.500   188.000
    56.300    84.300      .052    16.100    23.600   187.100
    56.350    72.300      .052    16.000    23.600   187.100
    56.400    75.100      .052    15.800    23.700   188.000
    56.450    72.400      .052    15.700    23.800   188.300
    56.500    76.500      .052    15.600    23.800   188.000
    56.550    68.000      .052    15.600    23.800   188.200
    56.600    71.100      .053    15.600    23.800   188.000
    56.650    61.600      .053    15.600    23.800   187.100
    56.700    88.400      .053    15.800    23.800   186.100
    56.750    77.100      .053    15.900    23.800   185.400
    56.800    75.300      .054    15.900    23.800   185.100
    56.850    78.600      .054    15.900    23.700   184.500
    56.900    65.100      .054    16.000    23.600   184.000
    56.950    78.400      .055    16.100    23.500   184.300
    57.000    66.400      .054    16.200    23.400   185.700
    57.050    66.100      .053    16.300    23.300   186.600
    57.100    83.200      .053    16.400    23.200   186.800
    57.150    63.100      .053    16.600    23.200   187.300
    57.200    71.100      .053    16.800    23.200   188.100
    57.250    52.900      .053    17.200    23.200   188.100
    57.300    80.000      .053    17.400    23.300   188.100
    57.350    67.400      .053    17.500    23.300   188.800
    57.400    64.700      .053    17.600    23.300   190.100
    57.450    75.900      .052    17.600    23.400   191.900
    57.500    55.700      .052    17.700    23.300   193.900
    57.550    79.600      .052    17.800    23.300   196.200
    57.600    53.500      .052    17.900    23.300   198.600
    57.650    48.400      .051    18.100    23.200   200.000
    57.700    59.400      .051    18.300    23.000   200.800
    57.750    74.000      .051    18.500    22.800   201.300
    57.800    50.200      .051    18.900    22.600   202.400
    57.850    74.700      .051    19.300    22.500   202.900
    57.900    55.000      .052    19.600    22.300   202.200
    57.950    70.900      .053    20.100    22.200   200.900
    58.000    65.500      .053    20.500    22.100   199.300
    58.050    70.000      .053    21.000    22.000   196.600
    58.100    56.800      .054    21.400    21.900   194.200
    58.150    49.700      .055    21.800    21.800   193.800
    58.200    59.300      .054    22.100    21.700   194.900
    58.250    49.900      .052    22.400    21.700   196.700
    58.300    31.300      .051    22.400    21.700   197.800
    58.350    43.000      .051    22.100    21.700   197.900
    58.400    50.400      .051    22.000    21.700   197.500
    58.450    39.600      .050    21.900    21.700   198.700
    58.500    41.700      .049    22.000    21.600   200.600
    58.550    35.000      .048    22.000    21.500   204.700
    58.600    37.300      .048    22.100    21.400   210.500
    58.650    37.200      .048    22.500    21.300   213.600
    58.700    50.100      .047    23.300    21.300   214.700
    58.750    48.400      .047    24.300    21.300   214.700
    58.800    58.500      .047    24.900    21.400   214.600
    58.850    56.500      .047    25.300    21.400   214.600
    58.900    48.800      .047    25.500    21.300   214.500
    58.950    32.000      .047    25.500    21.200   214.600
    59.000    60.200      .047    25.400    21.100   214.900
    59.050    46.400      .047    25.300    21.000   214.500
    59.100    58.800      .047    25.000    20.900   213.800
    59.150    65.100      .047    24.500    20.800   213.700
    59.200    48.600      .047    23.800    20.800   213.900
    59.250    55.900      .047    22.900    20.800   213.900
    59.300    59.400      .047    22.300    20.900   213.900
    59.350    68.500      .047    22.000    21.200   214.400
    59.400    45.900      .048    22.200    21.400   214.500
