~Version Information
 VERS.                2.0:  CWLS LOG ASCII STANDARD -VERSION 2.0
 WRAP.                 NO:  ONE LINE PER DEPTH STEP
~WELL INFORMATION BLOCK
#MNEM.UNIT       DATA		            DESCRIPTION OF MNEMONIC
#---------    -------------            ------------------------
 STRT.M      .000                        :START DEPTH
 STOP.M    79.950                        :STOP DEPTH
 STEP.M      .050                        :STEP
 NULL.    -999999.0                      :NULL VALUE
 COMP.       WML                         :COMPANY
 WELL.                          B62B0898 :WELL
 FLD .    Voerendaal                     :FIELD
 CNTY.                                   :COUNTY
 STAT.                                   :STATE
 SRVC.                                   :SERVICE COMPANY
 DATE.     17-NOV-90                     :LOG DATE
 UWI .                                   :UNIQUE WELL ID
 LIC .                                   :LICENSE NUMBER
~Curve Information Block
#MNEM.UNIT      API CODE     Curve Description
#---------    -------------  ------------------------
DEPTH    .M         00 000 00 00          :  1  DEPTH
UFLOW    .M/S       00 000 00 00          :  2  UFLOW
TEMP     .DEGC      00 000 00 00          :  3  TEMP
SN40     .OHM.M     00 000 00 00          :  4  SN40
SP       .V         00 000 00 00          :  5  SP
CAL      .MM        00 000 00 00          :  6  CAL
TEMP     .DEGC      00 000 00 00          :  7  TEMP
GAMMA    .CPS       00 000 00 00          :  8  GAMMA
LN160    .OHM.M     00 000 00 00          :  9  LN160
~Parameter Information Block
#MNEM.UNIT   Information     Description
#---------- ---------------  ------------------------
 FILE.                         :File Type
 FIID.                         :File Type Identifier
 VERS.                         :System Version
 SER .                         :System Serial Number
 TRUK.                         :Truck Calibration Number
 TOOL.                         :Tool Serial Number
 TIME.                         :Time    HrHrMinMin
 LAT .                         :Latitude
 LON .                         :Longitude
 LMF .            MV           :LOG Measured FROM
 DMF .                         :Driller Measured From
 PD  .                         :Permanent Data
 PDEV.                         :Elevation Permanent Data
 EKB .M                        :Elevation Kelly Bushing
 ELEV.DF                       :Elevation DF
 EGL .M                        :Elevation Ground Level
 DRDP.                         :Drillers Depth
 CASD.                         :Casing Diameter
 CASB.                         :Casing Bottom
 CASX.                         :Casing Type
 CAST.                         :Casing Thickness
 TNOC.                         :Time Circulation Stopped
 LOGU.                         :Logging Unit
 RECB.            Veenendaal   :Recorded By
 OSR1.                         :Other Services
 OSR2.                         :Other Services
 OSR3.                         :Other Services
 BS  .MM                       :Bit Size
 MST .                         :Mean Surface Temperature
 TGRD.                         :Temperature Gradiant
 MAGN.                         :Magnetic Declination
 MDEN.                         :Density Matrix
 MATR.                         :Neutron Matrix
 DTMT.                         :Delta T Matrix
 DTFL.                         :Delta T Fluid
 MUDS.                         :Mud Sample Source
 MRS .                         :Mud Resistivity
 MTP .                         :Mud Temperature
 MFRS.                         :Resistivity Mud Filtrate
 MFTP.                         :Temperature Mud Filtrate
 MCRS.                         :Resistivity Mud Cake
 MCTP.                         :Temperature Mud Cake
 FTYP.                         :Fluid Type
 FD  .K/M3                     :Fluid Density
 DFV .S                        :Fluid Viscosity
 FPH .                         :Fuild PH
 ELCO.                         :Electron Cutoff
~Other Information
#MNEM.UNIT  Information      Description
#---------- ---------------  ------------------------
# --------------------------
## COMMENTS    Top_Depth   Bot_Depth  LithCode  Lat    Long   Elev_Gl
##    Type of LithCode   Lithologie - 1970
##                    .00         .80         .00     
##                    .85        2.25       19.00     
##                   2.30        6.15       12.00     
##                   6.20       28.50        7.00     
##                  28.55       40.50        9.00     
##                  40.55       74.60         .00     
##                  74.65       78.00       10.00     
##                  78.05       78.05         .00     
##    last_layer   78.05
# --------------------------
~A DEPTH    UFLOW    TEMP     SN40     SP       CAL      TEMP     GAMMA    LN160    
# ...
    25.550    29.380    10.320 -999999.0  -999999.0    360.800    10.720     8.160 -999999.0 
    25.600    29.290    10.320 -999999.0  -999999.0    360.700    10.720     7.890 -999999.0 
    25.650    28.160    10.320 -999999.0  -999999.0    360.600    10.720     7.780 -999999.0 
    25.700    26.510    10.320 -999999.0  -999999.0    360.500    10.730     7.790 -999999.0 
    25.750    24.940    10.320 -999999.0  -999999.0    360.500    10.730     7.830 -999999.0 
    25.800    24.940    10.310 -999999.0  -999999.0    360.300    10.730     7.850 -999999.0 
    25.850    25.150    10.310 -999999.0  -999999.0    360.300    10.730     7.850 -999999.0 
    25.900    25.150    10.310 -999999.0  -999999.0    360.400    10.740     7.840 -999999.0 
    25.950    24.920    10.320 -999999.0  -999999.0    360.400    10.740     7.830 -999999.0 
    26.000    24.440    10.320 -999999.0  -999999.0    360.600    10.740     7.800 -999999.0 
    26.050    25.190    10.320 -999999.0  -999999.0    360.600    10.740     7.790 -999999.0 
    26.100    25.830    10.320 -999999.0  -999999.0    360.800    10.750     7.790 -999999.0 
    26.150    25.430    10.320 -999999.0  -999999.0    361.100    10.750     7.820 -999999.0 
    26.200    24.730    10.320 -999999.0  -999999.0    362.200    10.750     7.930 -999999.0 
    26.250    24.420    10.320 -999999.0  -999999.0    364.000    10.750     8.090 -999999.0 
    26.300    24.400    10.320 -999999.0  -999999.0    365.900    10.750     8.230 -999999.0 
    26.350    25.100    10.320 -999999.0  -999999.0    366.800    10.750     8.350 -999999.0 
    26.400    25.250    10.320 -999999.0  -999999.0    363.900    10.760     8.440 -999999.0 
    26.450    25.380    10.330 -999999.0  -999999.0    361.600    10.760     8.480 -999999.0 
    26.500    25.710    10.330 -999999.0  -999999.0    360.900    10.760     8.480 -999999.0 
    26.550    26.040    10.330 -999999.0  -999999.0    360.800    10.760     8.500 -999999.0 
    26.600    26.660    10.330 -999999.0  -999999.0    360.800    10.760     8.530 -999999.0 
    26.650    27.330    10.330 -999999.0  -999999.0    360.900    10.760     8.630 -999999.0 
    26.700    27.450    10.330 -999999.0  -999999.0    361.000    10.770     8.740 -999999.0 
    26.750    27.290    10.330 -999999.0  -999999.0    361.200    10.770     8.790 -999999.0 
    26.800    27.090    10.340 -999999.0  -999999.0    361.200    10.770     8.820 -999999.0 
    26.850    27.260    10.340 -999999.0  -999999.0    361.000    10.770     8.700 -999999.0 
    26.900    27.520    10.340 -999999.0  -999999.0    360.800    10.770     8.590 -999999.0 
    26.950    28.220    10.340 -999999.0  -999999.0    360.700    10.770     8.550 -999999.0 
    27.000    28.580    10.340 -999999.0  -999999.0    360.900    10.770     8.580 -999999.0 
    27.050    28.650    10.340 -999999.0  -999999.0    361.100    10.780     8.650 -999999.0 
    27.100    28.660    10.340 -999999.0  -999999.0    361.200    10.780     8.660 -999999.0 
    27.150    28.680    10.340 -999999.0  -999999.0    361.300    10.780     8.660 -999999.0 
    27.200    28.560    10.340 -999999.0  -999999.0    361.300    10.780     8.690 -999999.0 
    27.250    28.140    10.350 -999999.0  -999999.0    361.300    10.780     8.740 -999999.0 
    27.300    27.580    10.350 -999999.0  -999999.0    361.300    10.780     8.790 -999999.0 
    27.350    27.040    10.350 -999999.0  -999999.0    361.200    10.780     8.870 -999999.0 
    27.400    27.010    10.350 -999999.0  -999999.0    361.100    10.780     9.020 -999999.0 
    27.450    27.120    10.360 -999999.0  -999999.0    361.000    10.790     9.130 -999999.0 
    27.500    27.390    10.360 -999999.0  -999999.0    360.900    10.790     9.270 -999999.0 
    27.550    27.550    10.360 -999999.0  -999999.0    360.900    10.790     9.420 -999999.0 
    27.600    27.760    10.360 -999999.0  -999999.0    360.900    10.790     9.560 -999999.0 
    27.650    27.990    10.360 -999999.0  -999999.0    361.100    10.790     9.560 -999999.0 
    27.700    28.320    10.370 -999999.0  -999999.0    361.200    10.790     9.580 -999999.0 
    27.750    28.830    10.360 -999999.0  -999999.0    361.100    10.790     9.640 -999999.0 
    27.800    28.930    10.360 -999999.0  -999999.0    361.200    10.790     9.630 -999999.0 
    27.850    28.780    10.360 -999999.0  -999999.0    361.200    10.800     9.600 -999999.0 
    27.900    28.370    10.360 -999999.0  -999999.0    361.400    10.800     9.660 -999999.0 
    27.950    28.390    10.360 -999999.0  -999999.0    361.500    10.800     9.730 -999999.0 
    28.000    28.530    10.360 -999999.0  -999999.0    361.400    10.800     9.760 -999999.0 
    28.050    28.610    10.360 -999999.0  -999999.0    361.400    10.800     9.800 -999999.0 
    28.100    28.650    10.360 -999999.0  -999999.0    361.300    10.800     9.910 -999999.0 
    28.150    28.590    10.360 -999999.0  -999999.0    361.300    10.800    10.030 -999999.0 
    28.200    28.320    10.360 -999999.0  -999999.0    361.300    10.800    10.070 -999999.0 
    28.250    28.130    10.360 -999999.0  -999999.0    361.300    10.800     9.930 -999999.0 
    28.300    28.060    10.360 -999999.0  -999999.0    361.300    10.810     9.790 -999999.0 
    28.350    27.960    10.360 -999999.0  -999999.0    361.200    10.810     9.720 -999999.0 
    28.400    27.940    10.360 -999999.0  -999999.0    361.200    10.810     9.760 -999999.0 
    28.450    27.910    10.360 -999999.0  -999999.0    361.200    10.810     9.950 -999999.0 
    28.500    27.860    10.360 -999999.0  -999999.0    361.200    10.810    10.090 -999999.0 
    28.550    27.900    10.360 -999999.0  -999999.0    361.300    10.810    10.370 -999999.0 
    28.600    28.010    10.360 -999999.0  -999999.0    361.300    10.810    10.590 -999999.0 
    28.650    28.030    10.360 -999999.0  -999999.0    361.300    10.810    10.870 -999999.0 
    28.700    27.800    10.360 -999999.0  -999999.0    361.300    10.810    11.080 -999999.0 
    28.750    27.440    10.360 -999999.0  -999999.0    361.300    10.810    11.260 -999999.0 
    28.800    27.420    10.360 -999999.0  -999999.0    361.200    10.810    11.400 -999999.0 
    28.850    27.400    10.350 -999999.0  -999999.0    361.100    10.820    11.460 -999999.0 
    28.900    27.280    10.350 -999999.0  -999999.0    361.000    10.820    11.530 -999999.0 
    28.950    27.020    10.340 -999999.0  -999999.0    361.000    10.820    11.630 -999999.0 
    29.000    26.800    10.340 -999999.0  -999999.0    360.900    10.820    11.940 -999999.0 
    29.050    26.720    10.340 -999999.0  -999999.0    360.900    10.820    12.150 -999999.0 
    29.100    26.690    10.340 -999999.0  -999999.0    360.800    10.820    12.170 -999999.0 
    29.150    26.560    10.340 -999999.0  -999999.0    360.800    10.820    12.150 -999999.0 
    29.200    26.390    10.340 -999999.0  -999999.0    360.700    10.820    12.050 -999999.0 
    29.250    26.320    10.340 -999999.0  -999999.0    360.900    10.820    11.920 -999999.0 
    29.300    26.460    10.340 -999999.0  -999999.0    360.900    10.820    11.860 -999999.0 
    29.350    26.640    10.340 -999999.0  -999999.0    360.800    10.830    11.770 -999999.0 
    29.400    26.740    10.340 -999999.0  -999999.0    360.900    10.830    11.560 -999999.0 
    29.450    26.750    10.340 -999999.0  -999999.0    361.000    10.830    11.330 -999999.0 
    29.500    26.690    10.350 -999999.0  -999999.0    361.000    10.830    11.150 -999999.0 
    29.550    26.480    10.350 -999999.0  -999999.0    361.000    10.830    10.850 -999999.0 
    29.600    26.260    10.350 -999999.0  -999999.0    361.000    10.830    10.300 -999999.0 
    29.650    25.960    10.360 -999999.0  -999999.0    360.900    10.830     9.700 -999999.0 
    29.700    25.750    10.360 -999999.0  -999999.0    360.800    10.830     9.440 -999999.0 
    29.750    25.410    10.360 -999999.0  -999999.0    360.800    10.830     9.170 -999999.0 
    29.800    25.200    10.360 -999999.0  -999999.0    360.900    10.830     8.800 -999999.0 
