~Version Information
 VERS.                2.0:  CWLS LOG ASCII STANDARD -VERSION 2.0
 WRAP.                 NO:  ONE LINE PER DEPTH STEP
~WELL INFORMATION BLOCK
#MNEM.UNIT       DATA		            DESCRIPTION OF MNEMONIC
#---------    -------------            ------------------------
 STRT.M      .000                        :START DEPTH
 STOP.M    99.850                        :STOP DEPTH
 STEP.M      .050                        :STEP
 NULL.    -999999.0                      :NULL VALUE
 COMP.       WML                         :COMPANY
 WELL.                          B62B0901 :WELL
 FLD .    Klimmen                        :FIELD
 CNTY.                                   :COUNTY
 STAT.                                   :STATE
 SRVC.                                   :SERVICE COMPANY
 DATE.     17-JAN-92                     :LOG DATE
 UWI .                                   :UNIQUE WELL ID
 LIC .                                   :LICENSE NUMBER
~Curve Information Block
#MNEM.UNIT      API CODE     Curve Description
#---------    -------------  ------------------------
DEPTH    .M         00 000 00 00          :  1  DEPTH
SN40     .OHM.M     00 000 00 00          :  2  SN40
SP       .V         00 000 00 00          :  3  SP
CAL      .MM        00 000 00 00          :  4  CAL
LN160    .OHM.M     00 000 00 00          :  5  LN160
GAMMA    .CPS       00 000 00 00          :  6  GAMMA
~Parameter Information Block
#MNEM.UNIT   Information     Description
#---------- ---------------  ------------------------
 FILE.                         :File Type
 FIID.                         :File Type Identifier
 VERS.                         :System Version
 SER .                         :System Serial Number
 TRUK.                         :Truck Calibration Number
 TOOL.                         :Tool Serial Number
 TIME.                         :Time    HrHrMinMin
 LAT .                         :Latitude
 LON .                         :Longitude
 LMF .            MV           :LOG Measured FROM
 DMF .                         :Driller Measured From
 PD  .                         :Permanent Data
 PDEV.                         :Elevation Permanent Data
 EKB .M                        :Elevation Kelly Bushing
 ELEV.DF                       :Elevation DF
 EGL .M                        :Elevation Ground Level
 DRDP.                         :Drillers Depth
 CASD.                         :Casing Diameter
 CASB.                         :Casing Bottom
 CASX.                         :Casing Type
 CAST.                         :Casing Thickness
 TNOC.                         :Time Circulation Stopped
 LOGU.                         :Logging Unit
 RECB.            Bergsma      :Recorded By
 OSR1.                         :Other Services
 OSR2.                         :Other Services
 OSR3.                         :Other Services
 BS  .MM                       :Bit Size
 MST .                         :Mean Surface Temperature
 TGRD.                         :Temperature Gradiant
 MAGN.                         :Magnetic Declination
 MDEN.                         :Density Matrix
 MATR.                         :Neutron Matrix
 DTMT.                         :Delta T Matrix
 DTFL.                         :Delta T Fluid
 MUDS.                         :Mud Sample Source
 MRS .                         :Mud Resistivity
 MTP .                         :Mud Temperature
 MFRS.                         :Resistivity Mud Filtrate
 MFTP.                         :Temperature Mud Filtrate
 MCRS.                         :Resistivity Mud Cake
 MCTP.                         :Temperature Mud Cake
 FTYP.                         :Fluid Type
 FD  .K/M3                     :Fluid Density
 DFV .S                        :Fluid Viscosity
 FPH .                         :Fuild PH
 ELCO.                         :Electron Cutoff
~Other Information
#MNEM.UNIT  Information      Description
#---------- ---------------  ------------------------
# --------------------------
## COMMENTS    Top_Depth   Bot_Depth  LithCode  Lat    Long   Elev_Gl
##    Type of LithCode   Lithologie - 1970
##                    .00         .30        7.00     
##                    .35        4.60       11.00     
##                   4.65       77.95         .00     
##                  78.00       88.95        7.00     
##                  89.00       99.05       10.00     
##                  99.10       99.10         .00     
##    last_layer   99.1
# --------------------------
~A DEPTH    SN40     SP       CAL      LN160    GAMMA    
# ...
    90.400    30.460      .019   237.100    33.140    20.140
    90.450    30.540      .019   236.900    32.910    20.260
    90.500    30.630      .018   236.600    32.650    20.390
    90.550    30.730      .018   236.100    32.440    20.610
    90.600    30.810      .018   235.700    32.240    20.710
    90.650    30.940      .018   234.700    32.030    20.740
    90.700    31.040      .018   234.000    31.830    20.760
    90.750    31.250      .018   232.500    31.630    20.720
    90.800    31.370      .018   232.700    31.450    20.560
    90.850    31.400      .018   234.400    31.270    20.390
    90.900    31.420      .018   236.200    31.110    20.300
    90.950    31.430      .018   238.000    30.920    20.230
    91.000    31.490      .018   239.600    30.730    20.180
    91.050    31.590      .018   240.500    30.550    20.200
    91.100    31.730      .018   240.900    30.380    20.280
    91.150    31.850      .018   241.700    30.220    20.470
    91.200    31.940      .018   243.100    30.070    20.560
    91.250    32.000      .018   245.100    29.920    20.540
    91.300    32.020      .018   246.900    29.780    20.410
    91.350    31.930      .018   248.200    29.640    20.290
    91.400    31.790      .018   246.000    29.460    20.180
    91.450    31.610      .018   237.200    29.310    20.130
    91.500    31.410      .018   235.300    29.220    20.010
    91.550    31.110      .018   235.000    29.160    19.870
    91.600    30.860      .019   235.300    29.100    19.860
    91.650    30.860      .019   235.500    29.040    19.820
    91.700    30.880      .019   235.700    29.000    19.790
    91.750    30.900      .020   236.000    28.970    19.820
    91.800    30.910      .020   236.200    28.940    19.910
    91.850    30.910      .021   236.500    28.940    20.000
    91.900    30.810      .021   236.700    28.940    20.120
    91.950    30.580      .020   237.200    28.940    20.220
    92.000    30.260      .020   237.600    28.930    20.560
    92.050    29.880      .020   237.800    28.930    20.940
    92.100    29.430      .020   237.800    28.890    21.310
    92.150    29.120      .020   237.800    28.850    21.670
    92.200    28.830      .020   237.700    28.810    22.310
    92.250    28.590      .020   237.700    28.770    22.840
    92.300    28.430      .020   237.700    28.720    23.050
    92.350    28.290      .020   237.600    28.660    23.090
    92.400    28.230      .020   237.500    28.600    22.910
    92.450    28.200      .019   237.000    28.500    22.690
    92.500    28.210      .019   236.300    28.390    22.750
    92.550    28.150      .019   235.700    28.310    23.140
    92.600    28.090      .019   235.500    28.150    23.550
    92.650    28.000      .019   235.500    27.970    24.090
    92.700    27.900      .018   235.600    27.770    24.280
    92.750    27.870      .018   235.700    27.540    24.560
    92.800    27.870      .018   235.800    27.300    24.920
    92.850    27.910      .018   235.700    27.060    24.460
    92.900    27.960      .018   235.500    26.810    24.400
    92.950    28.010      .017   235.300    26.560    24.600
    93.000    28.030      .017   235.300    26.320    24.710
    93.050    28.030      .017   235.100    26.100    24.650
    93.100    27.940      .017   235.200    25.890    24.550
    93.150    27.810      .017   235.400    25.680    24.430
    93.200    27.690      .017   235.600    25.480    24.230
    93.250    27.480      .017   235.700    25.270    23.990
    93.300    27.290      .017   235.900    25.140    24.020
    93.350    27.150      .017   236.000    25.040    24.000
    93.400    27.050      .018   236.100    24.990    24.040
    93.450    26.930      .018   236.100    24.980    24.240
    93.500    26.810      .018   236.200    25.000    25.660
    93.550    26.560      .018   236.200    25.030    25.790
    93.600    26.170      .019   236.300    25.060    25.870
    93.650    25.450      .019   236.400    25.090    25.920
    93.700    24.920      .019   236.800    25.110    26.060
    93.750    24.380      .019   237.100    25.140    26.980
    93.800    23.850      .020   237.500    25.150    27.300
    93.850    23.480      .020   238.000    25.170    28.090
    93.900    23.190      .020   238.500    25.180    28.280
    93.950    23.020      .021   238.900    25.190    28.600
    94.000    22.910      .021   239.200    25.200    28.940
    94.050    22.720      .022   239.300    25.210    30.280
    94.100    22.470      .022   239.200    25.220    30.930
    94.150    22.220      .023   239.100    25.230    31.160
    94.200    21.940      .023   239.000    25.250    31.320
    94.250    21.700      .023   238.900    25.280    31.270
    94.300    21.440      .023   238.800    25.300    31.110
    94.350    21.250      .023   238.700    25.320    30.910
    94.400    21.070      .023   238.600    25.340    30.710
    94.450    20.900      .023   238.500    25.360    30.510
    94.500    20.750      .023   238.400    25.370    29.770
    94.550    20.610      .022   238.400    25.380    29.560
    94.600    20.520      .022   238.300    25.380    29.430
    94.650    20.420      .022   238.200    25.370    29.400
    94.700    20.430      .022   238.100    25.350    29.090
    94.750    20.440      .022   238.000    25.290    29.080
    94.800    20.480      .022   238.000    25.230    29.440
    94.850    20.530      .022   237.900    25.150    29.750
    94.900    20.600      .022   237.900    25.050    30.450
    94.950    20.670      .022   237.800    24.950    30.700
    95.000    20.750      .022   237.700    24.850    30.290
    95.050    20.840      .021   237.700    24.770    30.070
    95.100    20.980      .021   237.700    24.710    29.920
    95.150    21.160      .021   237.800    24.630    29.780
    95.200    21.350      .021   237.800    24.570    29.700
    95.250    21.520      .021   238.000    24.460    29.680
    95.300    21.570      .021   238.300    24.370    29.660
    95.350    21.620      .021   238.600    24.230    29.630
    95.400    21.630      .021   238.800    24.080    29.580
    95.450    21.650      .021   238.900    23.990    29.380
    95.500    21.660      .021   238.500    23.910    28.760
    95.550    21.670      .021   238.000    23.860    28.540
    95.600    21.700      .022   237.600    23.830    28.240
    95.650    21.780      .022   237.200    23.800    28.120
    95.700    21.870      .022   237.000    23.780    28.190
    95.750    22.010      .022   236.800    23.770    28.520
    95.800    22.170      .022   236.800    23.770    28.620
    95.850    22.400      .022   236.900    23.750    28.860
    95.900    22.600      .022   236.900    23.720    29.000
    95.950    22.720      .022   237.000    23.680    28.960
    96.000    22.780      .022   237.000    23.630    28.690
    96.050    22.780      .022   237.100    23.580    28.320
    96.100    22.780      .022   237.200    23.530    28.080
    96.150    22.790      .022   237.200    23.490    27.530
    96.200    22.810      .022   237.400    23.450    27.070
    96.250    22.850      .022   237.500    23.420    25.420
    96.300    22.900      .022   237.600    23.400    25.260
    96.350    22.960      .022   237.500    23.380    25.240
    96.400    23.050      .023   237.400    23.370    25.260
    96.450    23.170      .023   237.200    23.380    25.260
    96.500    23.350      .023   236.900    23.390    25.210
    96.550    23.440      .024   236.400    23.400    25.080
    96.600    23.500      .025   236.300    23.420    25.030
    96.650    23.560      .026   236.300    23.460    25.050
    96.700    23.600      .027   236.500    23.490    25.050
    96.750    23.630      .027   236.600    23.540    25.050
    96.800    23.640      .028   236.700    23.590    25.010
    96.850    23.650      .028   236.700    23.640    24.930
    96.900    23.650      .029   236.700    23.690    24.880
    96.950    23.660      .030   236.600    23.750    24.870
