~Version Information
 VERS.                2.0:  CWLS LOG ASCII STANDARD -VERSION 2.0
 WRAP.                 NO:  ONE LINE PER DEPTH STEP
~WELL INFORMATION BLOCK
#MNEM.UNIT       DATA		            DESCRIPTION OF MNEMONIC
#---------    -------------            ------------------------
 STRT.M      .000                        :START DEPTH
 STOP.M    82.700                        :STOP DEPTH
 STEP.M      .050                        :STEP
 NULL.    -999999.0                      :NULL VALUE
 COMP.       WML                         :COMPANY
 WELL.                          B62B0902 :WELL
 FLD .    Voerendaal                     :FIELD
 CNTY.                                   :COUNTY
 STAT.                                   :STATE
 SRVC.                                   :SERVICE COMPANY
 DATE.     04-FEB-92                     :LOG DATE
 UWI .                                   :UNIQUE WELL ID
 LIC .                                   :LICENSE NUMBER
~Curve Information Block
#MNEM.UNIT      API CODE     Curve Description
#---------    -------------  ------------------------
DEPTH    .M         00 000 00 00          :  1  DEPTH
SN40     .OHM.M     00 000 00 00          :  2  SN40
SP       .V         00 000 00 00          :  3  SP
CAL      .MM        00 000 00 00          :  4  CAL
LN160    .OHM.M     00 000 00 00          :  5  LN160
GAMMA    .CPS       00 000 00 00          :  6  GAMMA
~Parameter Information Block
#MNEM.UNIT   Information     Description
#---------- ---------------  ------------------------
 FILE.                         :File Type
 FIID.                         :File Type Identifier
 VERS.                         :System Version
 SER .                         :System Serial Number
 TRUK.                         :Truck Calibration Number
 TOOL.                         :Tool Serial Number
 TIME.                         :Time    HrHrMinMin
 LAT .                         :Latitude
 LON .                         :Longitude
 LMF .            MV           :LOG Measured FROM
 DMF .                         :Driller Measured From
 PD  .                         :Permanent Data
 PDEV.                         :Elevation Permanent Data
 EKB .M                        :Elevation Kelly Bushing
 ELEV.DF                       :Elevation DF
 EGL .M                        :Elevation Ground Level
 DRDP.                         :Drillers Depth
 CASD.                         :Casing Diameter
 CASB.                         :Casing Bottom
 CASX.                         :Casing Type
 CAST.                         :Casing Thickness
 TNOC.                         :Time Circulation Stopped
 LOGU.                         :Logging Unit
 RECB.            Bergsma      :Recorded By
 OSR1.                         :Other Services
 OSR2.                         :Other Services
 OSR3.                         :Other Services
 BS  .MM                       :Bit Size
 MST .                         :Mean Surface Temperature
 TGRD.                         :Temperature Gradiant
 MAGN.                         :Magnetic Declination
 MDEN.                         :Density Matrix
 MATR.                         :Neutron Matrix
 DTMT.                         :Delta T Matrix
 DTFL.                         :Delta T Fluid
 MUDS.                         :Mud Sample Source
 MRS .                         :Mud Resistivity
 MTP .                         :Mud Temperature
 MFRS.                         :Resistivity Mud Filtrate
 MFTP.                         :Temperature Mud Filtrate
 MCRS.                         :Resistivity Mud Cake
 MCTP.                         :Temperature Mud Cake
 FTYP.                         :Fluid Type
 FD  .K/M3                     :Fluid Density
 DFV .S                        :Fluid Viscosity
 FPH .                         :Fuild PH
 ELCO.                         :Electron Cutoff
~Other Information
#MNEM.UNIT  Information      Description
#---------- ---------------  ------------------------
# --------------------------
## COMMENTS    Top_Depth   Bot_Depth  LithCode  Lat    Long   Elev_Gl
##    Type of LithCode   Lithologie - 1970
##                    .00       10.80       13.00     
##                  10.85       11.80       23.00     
##                  11.85       15.70        6.00     
##                  15.75       16.00       23.00     
##                  16.05       28.00        7.00     
##                  28.05       46.00        9.00     
##                  46.05       46.05         .00     
##    last_layer   46.05
# --------------------------
~A DEPTH    SN40     SP       CAL      LN160    GAMMA    
# ...
    31.850    30.040      .063   255.900    33.400    17.940
    31.900    30.040      .063   255.600    33.380    17.230
    31.950    30.070      .063   256.300    33.320    17.220
    32.000    30.130      .062   257.500    33.270    17.310
    32.050    30.210      .062   257.800    33.200    17.610
    32.100    30.310      .062   255.000    33.110    17.580
    32.150    30.410      .062   252.800    33.020    17.500
    32.200    30.510      .062   255.300    32.930    17.480
    32.250    30.600      .063   257.400    32.840    17.500
    32.300    30.700      .063   256.800    32.770    17.480
    32.350    30.750      .063   257.000    32.680    17.460
    32.400    30.790      .063   258.100    32.590    17.510
    32.450    30.820      .064   258.100    32.520    17.570
    32.500    30.930      .064   257.400    32.460    17.640
    32.550    31.070      .064   256.400    32.400    17.700
    32.600    31.170      .064   255.900    32.330    17.650
    32.650    31.270      .063   256.900    32.260    17.450
    32.700    31.370      .063   257.200    32.190    17.340
    32.750    31.480      .063   256.700    32.110    16.220
    32.800    31.600      .063   256.900    32.010    15.470
    32.850    31.720      .063   257.100    31.900    15.390
    32.900    31.820      .063   257.200    31.810    15.350
    32.950    31.910      .063   258.600    31.700    15.500
    33.000    32.010      .062   259.900    31.660    15.820
    33.050    32.080      .062   260.000    31.620    16.090
    33.100    32.120      .062   260.100    31.580    16.370
    33.150    32.140      .062   260.400    31.580    16.670
    33.200    32.150      .062   260.500    31.580    17.350
    33.250    32.060      .062   260.600    31.600    17.650
    33.300    31.980      .062   260.400    31.610    17.730
    33.350    31.900      .062   260.300    31.630    17.820
    33.400    31.820      .062   259.700    31.640    18.030
    33.450    31.710      .062   259.200    31.650    18.020
    33.500    31.550      .062   259.000    31.650    17.940
    33.550    31.380      .062   258.800    31.660    17.380
    33.600    31.170      .062   258.000    31.660    17.380
    33.650    31.010      .062   257.900    31.660    17.670
    33.700    30.860      .062   258.300    31.670    18.300
    33.750    30.680      .062   258.700    31.670    18.570
    33.800    30.480      .062   259.000    31.670    18.590
    33.850    30.280      .062   258.000    31.670    16.810
    33.900    30.110      .063   256.900    31.680    16.590
    33.950    29.800      .063   257.000    31.660    16.350
    34.000    29.520      .065   258.400    31.650    16.270
    34.050    29.200      .068   257.700    31.640    16.240
    34.100    28.990      .069   256.300    31.620    16.150
    34.150    28.750      .068   256.400    31.590    16.000
    34.200    28.490      .068   256.800    31.570    16.200
    34.250    28.270      .068   257.000    31.540    16.350
    34.300    28.110      .068   257.100    31.510    16.360
    34.350    27.960      .068   257.200    31.490    16.300
    34.400    27.830      .068   257.300    31.460    16.050
    34.450    27.730      .068   257.600    31.420    16.030
    34.500    27.640      .068   259.500    31.380    16.010
    34.550    27.540      .068   259.300    31.340    15.930
    34.600    27.460      .068   258.800    31.280    15.690
    34.650    27.370      .068   258.400    31.210    15.720
    34.700    27.300      .068   258.500    31.170    15.820
    34.750    27.240      .068   258.900    31.120    15.870
    34.800    27.220      .068   259.200    31.070    15.760
    34.850    27.220      .068   259.300    31.020    15.610
    34.900    27.250      .068   259.400    30.970    15.490
    34.950    27.280      .067   259.000    30.900    15.470
    35.000    27.290      .067   258.600    30.820    15.460
    35.050    27.290      .067   258.400    30.760    15.520
    35.100    27.280      .067   258.800    30.730    15.900
    35.150    27.270      .067   259.100    30.690    15.940
    35.200    27.250      .067   258.700    30.670    15.960
    35.250    27.210      .067   259.200    30.680    15.890
    35.300    27.170      .067   260.800    30.690    15.760
    35.350    27.130      .067   259.500    30.690    15.680
    35.400    27.120      .067   260.200    30.710    15.480
    35.450    27.110      .067   261.500    30.720    15.200
    35.500    27.100      .067   261.600    30.740    15.110
    35.550    27.080      .066   261.200    30.740    15.090
    35.600    27.050      .066   260.900    30.730    15.050
    35.650    27.020      .066   260.800    30.730    15.010
    35.700    26.920      .066   261.000    30.720    15.040
    35.750    26.810      .066   260.300    30.710    15.190
    35.800    26.710      .066   260.800    30.690    15.400
    35.850    26.640      .066   261.300    30.670    15.640
    35.900    26.580      .066   261.500    30.650    15.930
    35.950    26.540      .066   260.700    30.630    15.950
    36.000    26.520      .066   259.600    30.560    15.980
    36.050    26.510      .066   259.900    30.490    16.110
    36.100    26.520      .066   260.000    30.420    16.410
    36.150    26.570      .066   257.600    30.330    16.550
    36.200    26.610      .066   257.800    30.250    16.540
    36.250    26.690      .066   257.800    30.170    16.410
    36.300    26.770      .066   257.600    30.070    16.220
    36.350    26.840      .066   256.500    29.970    16.220
    36.400    26.920      .066   255.900    29.870    16.270
    36.450    27.010      .065   252.700    29.790    16.570
    36.500    27.130      .065   257.500    29.720    16.660
    36.550    27.250      .065   257.300    29.640    16.750
    36.600    27.440      .065   255.600    29.560    16.940
    36.650    27.570      .065   256.100    29.490    17.040
    36.700    27.700      .065   256.400    29.400    17.030
    36.750    27.830      .065   254.000    29.350    16.850
    36.800    27.920      .065   254.100    29.290    16.760
    36.850    27.910      .065   255.800    29.240    16.720
    36.900    27.780      .065   256.700    29.180    16.550
    36.950    27.790      .065   257.800    29.110    16.400
    37.000    27.870      .065   257.200    29.060    16.360
    37.050    28.010      .065   256.800    29.000    16.360
    37.100    28.170      .066   256.700    28.960    16.350
    37.150    28.290      .066   258.600    28.910    16.330
    37.200    28.480      .066   260.800    28.860    16.270
    37.250    28.670      .066   260.900    28.840    16.150
    37.300    28.820      .066   261.900    28.840    16.020
    37.350    28.760      .065   264.100    28.840    15.880
    37.400    28.560      .065   260.000    28.850    15.720
    37.450    28.310      .065   259.000    28.860    15.770
    37.500    28.130      .065   257.700    28.880    16.090
    37.550    27.950      .065   256.500    28.890    16.510
    37.600    27.780      .065   256.400    28.910    16.810
    37.650    27.590      .065   261.200    28.930    16.830
    37.700    27.410      .065   261.500    28.950    16.780
    37.750    27.230      .064   260.300    28.980    16.620
    37.800    27.050      .064   259.700    29.000    16.190
    37.850    26.870      .064   259.700    29.010    15.900
    37.900    26.690      .063   260.000    29.010    16.340
    37.950    26.510      .063   259.900    29.020    16.420
    38.000    26.320      .063   260.000    29.020    16.400
    38.050    26.160      .063   261.100    29.010    16.290
    38.100    25.990      .062   260.900    28.980    16.310
    38.150    25.850      .062   260.100    28.950    16.810
    38.200    25.710      .062   259.200    28.920    17.150
    38.250    25.580      .062   259.300    28.890    17.380
    38.300    25.460      .062   261.600    28.850    17.720
    38.350    25.330      .062   261.700    28.800    17.890
    38.400    25.200      .062   260.700    28.760    17.930
