~Version Information
 VERS.                2.0:  CWLS LOG ASCII STANDARD -VERSION 2.0
 WRAP.                 NO:  ONE LINE PER DEPTH STEP
~WELL INFORMATION BLOCK
#MNEM.UNIT       DATA		            DESCRIPTION OF MNEMONIC
#---------    -------------            ------------------------
 STRT.M      .450                        :START DEPTH
 STOP.M   #######                        :STOP DEPTH
 STEP.M      .050                        :STEP
 NULL.    -999999.0                      :NULL VALUE
 COMP.       SCHIFOOD                    :COMPANY
 WELL.                          B62B0897 :WELL
 FLD .    Heerlen                        :FIELD
 CNTY.                                   :COUNTY
 STAT.                                   :STATE
 SRVC.                                   :SERVICE COMPANY
 DATE.     10-DEC-90                     :LOG DATE
 UWI .                                   :UNIQUE WELL ID
 LIC .                                   :LICENSE NUMBER
~Curve Information Block
#MNEM.UNIT      API CODE     Curve Description
#---------    -------------  ------------------------
DEPTH    .M         00 000 00 00          :  1  DEPTH
SN40     .OHM.M     00 000 00 00          :  2  SN40
SP       .V         00 000 00 00          :  3  SP
CAL      .MM        00 000 00 00          :  4  CAL
LN160    .OHM.M     00 000 00 00          :  5  LN160
GAMMA    .CPS       00 000 00 00          :  6  GAMMA
~Parameter Information Block
#MNEM.UNIT   Information     Description
#---------- ---------------  ------------------------
 FILE.                         :File Type
 FIID.                         :File Type Identifier
 VERS.                         :System Version
 SER .                         :System Serial Number
 TRUK.                         :Truck Calibration Number
 TOOL.                         :Tool Serial Number
 TIME.                         :Time    HrHrMinMin
 LAT .                         :Latitude
 LON .                         :Longitude
 LMF .            MV           :LOG Measured FROM
 DMF .                         :Driller Measured From
 PD  .                         :Permanent Data
 PDEV.                         :Elevation Permanent Data
 EKB .M                        :Elevation Kelly Bushing
 ELEV.DF                       :Elevation DF
 EGL .M                        :Elevation Ground Level
 DRDP.                         :Drillers Depth
 CASD.                         :Casing Diameter
 CASB.                         :Casing Bottom
 CASX.                         :Casing Type
 CAST.                         :Casing Thickness
 TNOC.                         :Time Circulation Stopped
 LOGU.                         :Logging Unit
 RECB.            Bergsma      :Recorded By
 OSR1.                         :Other Services
 OSR2.                         :Other Services
 OSR3.                         :Other Services
 BS  .MM                       :Bit Size
 MST .                         :Mean Surface Temperature
 TGRD.                         :Temperature Gradiant
 MAGN.                         :Magnetic Declination
 MDEN.                         :Density Matrix
 MATR.                         :Neutron Matrix
 DTMT.                         :Delta T Matrix
 DTFL.                         :Delta T Fluid
 MUDS.                         :Mud Sample Source
 MRS .                         :Mud Resistivity
 MTP .                         :Mud Temperature
 MFRS.                         :Resistivity Mud Filtrate
 MFTP.                         :Temperature Mud Filtrate
 MCRS.                         :Resistivity Mud Cake
 MCTP.                         :Temperature Mud Cake
 FTYP.                         :Fluid Type
 FD  .K/M3                     :Fluid Density
 DFV .S                        :Fluid Viscosity
 FPH .                         :Fuild PH
 ELCO.                         :Electron Cutoff
~Other Information
#MNEM.UNIT  Information      Description
#---------- ---------------  ------------------------
# --------------------------
## COMMENTS    Top_Depth   Bot_Depth  LithCode  Lat    Long   Elev_Gl
##    Type of LithCode   Lithologie - 1970
##                    .00         .00         .00     
##                    .45        6.00         .00     
##                   6.05        8.10        2.00     
##                   8.15       15.30       23.00     
##                  15.35       18.50       22.00     
##                  18.55       20.80       11.00     
##                  20.85       22.35       12.00     
##                  22.40       23.40       11.00     
##                  23.45       25.30       12.00     
##                  25.35       26.25       11.00     
##                  26.30       27.80       12.00     
##                  27.85       35.10       11.00     
##                  35.15       47.80       12.00     
##                  47.85       50.40        6.00     
##                  50.45       52.00       23.00     
##                  52.05       53.20       11.00     
##                  53.25       54.60       12.00     
##                  54.65       55.50       11.00     
##                  55.55       56.50       12.00     
##                  56.55       57.25       11.00     
##                  57.30       58.60       12.00     
##                  58.65       64.40       11.00     
##                  64.45       71.10        9.00     
##                  71.15       74.20        7.00     
##                  74.25       75.90        9.00     
##                  75.95       78.90        7.00     
##                  78.95       93.30        9.00     
##                  93.35       95.20       10.00     
##                  95.25       97.60        9.00     
##                  97.65       99.95       10.00     
##                 100.00      100.00         .00     
##                 100.05      126.75     #######     
##    last_layer   126.75
# --------------------------
~A DEPTH    SN40     SP       CAL      LN160    GAMMA    
# ...
   105.650    60.350      .045   457.500    84.230     9.780
   105.700    60.310      .045   457.000    84.220     9.740
   105.750    60.240      .045   456.700    84.180     9.680
   105.800    60.170      .045   456.300    84.120     9.600
   105.850    60.000      .045   456.200    84.040     9.550
   105.900    59.820      .045   455.900    83.950     9.500
   105.950    59.690      .046   455.900    83.880     9.450
   106.000    59.550      .046   455.800    83.730     9.440
   106.050    59.430      .046   455.900    83.570     9.440
   106.100    59.340      .046   456.400    83.400     9.450
   106.150    59.290      .046   457.500    83.230     9.440
   106.200    59.280      .046   458.100    83.030     9.480
   106.250    59.210      .046   458.700    82.800     9.490
   106.300    59.030      .047   459.200    82.520     9.510
   106.350    58.750      .047   459.300    82.270     9.590
   106.400    58.440      .047   458.900    82.020     9.700
   106.450    58.160      .047   458.300    81.760     9.800
   106.500    57.990      .047   457.800    81.450     9.880
   106.550    57.840      .047   457.500    81.160     9.850
   106.600    57.800      .047   458.700    80.890     9.730
   106.650    57.810      .047   460.200    80.630     9.550
   106.700    57.860      .048   460.800    80.380     9.520
   106.750    57.950      .048   460.300    80.170     9.520
   106.800    58.020      .048   459.200    79.900     9.510
   106.850    58.000      .048   458.800    79.710     9.480
   106.900    57.910      .048   459.100    79.490     9.450
   106.950    57.740      .048   459.300    79.190     9.420
   107.000    57.510      .048   459.000    78.740     9.360
   107.050    57.070      .049   458.200    78.330     9.280
   107.100    56.710      .049   457.500    77.900     9.210
   107.150    56.360      .049   457.100    77.420     9.190
   107.200    56.000      .049   455.500    77.070     9.280
   107.250    55.570      .049   454.500    76.670     9.470
   107.300    55.150      .049   454.000    76.280     9.660
   107.350    54.920      .049   454.000    75.890     9.850
   107.400    54.650      .049   454.500    75.540    10.010
   107.450    54.320      .049   455.700    75.300    10.060
   107.500    54.020      .049   457.400    75.040    10.070
   107.550    53.740      .049   459.900    74.830    10.110
   107.600    53.460      .049   460.800    74.640    10.170
   107.650    53.080      .049   461.300    74.480    10.180
   107.700    52.640      .049   461.400    74.320    10.100
   107.750    52.200      .049   460.200    74.180     9.970
   107.800    51.830      .049   459.100    74.040     9.930
   107.850    51.470      .050   459.100    73.910     9.980
   107.900    51.350      .050   459.300    73.840    10.080
   107.950    51.280      .050   459.500    73.710    10.200
   108.000    51.210      .050   459.500    73.590    10.330
   108.050    51.130      .050   459.400    73.380    10.520
   108.100    51.030      .050   459.500    73.060    10.560
   108.150    50.930      .050   459.000    72.820    10.170
   108.200    50.810      .049   456.800    72.540    10.070
   108.250    50.630      .049   455.100    72.330    10.110
   108.300    50.430      .049   454.300    72.150    10.250
   108.350    50.280      .048   454.200    72.030    10.440
   108.400    50.160      .047   454.800    71.940    10.620
   108.450    50.070      .046   455.400    71.860    10.800
   108.500    50.000      .044   456.400    71.800    10.780
   108.550    49.940      .044   457.700    71.760    10.390
   108.600    49.890      .044   458.800    71.730    10.260
   108.650    49.780      .044   460.500    71.720    10.180
   108.700    49.660      .044   461.100    71.710    10.130
   108.750    49.520      .043   461.500    71.680    10.120
   108.800    49.280      .043   461.300    71.660    10.240
   108.850    49.040      .043   460.500    71.610    10.300
   108.900    48.870      .043   460.200    71.560    10.320
   108.950    48.760      .043   460.200    71.510    10.370
   109.000    48.700      .043   459.900    71.460    10.450
   109.050    48.680      .043   459.300    71.390    10.610
   109.100    48.680      .042   459.000    71.310    10.850
   109.150    48.710      .042   459.300    71.230    10.990
   109.200    48.750      .041   459.300    71.140    11.250
   109.250    48.810      .041   456.700    71.070    11.350
   109.300    48.860      .040   454.700    71.000    11.570
   109.350    48.920      .039   453.100    70.930    11.870
   109.400    48.980      .037   452.700    70.870    11.960
   109.450    49.060      .035   452.600    70.790    12.040
   109.500    49.140      .032   452.500    70.710    12.150
   109.550    49.300      .030   452.600    70.620    12.390
   109.600    49.450      .030   452.800    70.550    12.380
   109.650    49.620      .029   453.100    70.460    12.220
   109.700    49.840      .029   453.700    70.380    11.910
   109.750    50.140      .028   454.300    70.290    11.770
   109.800    50.420      .028   455.000    70.210    11.710
   109.850    50.690      .028   456.100    70.140    11.730
   109.900    50.990      .028   456.700    70.070    11.750
   109.950    51.210      .028   457.300    69.980    11.700
   110.000    51.370      .028   457.800    69.930    11.290
   110.050    51.520      .028   458.300    69.880    11.170
   110.100    51.590      .028   458.700    69.830    11.060
   110.150    51.600      .028   459.100    69.800    11.050
   110.200    51.620      .028   459.000    69.780    11.000
   110.250    51.620      .028   458.400    69.750    10.950
   110.300    51.630      .028   457.500    69.740    10.980
   110.350    51.630      .028   456.300    69.730    11.110
   110.400    51.650      .028   455.600    69.740    11.230
   110.450    51.630      .028   454.900    69.750    11.370
   110.500    51.610      .028   454.600    69.760    11.550
   110.550    51.570      .028   454.600    69.760    11.470
   110.600    51.480      .028   454.900    69.730    11.260
   110.650    51.360      .028   455.200    69.700    11.080
   110.700    51.250      .028   455.400    69.680    10.910
   110.750    51.030      .028   455.500    69.660    10.730
   110.800    50.850      .028   456.000    69.650    10.720
   110.850    50.710      .028   456.400    69.600    10.760
   110.900    50.530      .028   457.000    69.530    10.830
   110.950    50.340      .028   456.100    69.460    10.930
   111.000    50.150      .028   455.000    69.380    11.020
   111.050    49.960      .028   453.700    69.380    11.040
   111.100    49.760      .028   452.100    69.440    10.980
   111.150    49.580      .028   450.700    69.480    10.980
   111.200    49.420      .028   450.700    69.390    10.960
   111.250    49.260      .028   452.800    69.300    10.930
   111.300    49.140      .029   456.800    69.170    10.870
   111.350    49.020      .029   457.400    69.000    10.790
   111.400    48.930      .029   456.100    68.790    10.720
   111.450    48.850      .029   455.400    68.610    10.670
   111.500    48.770      .029   454.800    68.250    10.680
   111.550    48.670      .029   453.300    67.890    10.750
   111.600    48.590      .029   452.500    67.520    10.820
   111.650    48.530      .029   452.900    67.130    10.870
   111.700    48.510      .029   453.900    66.640    10.900
   111.750    48.490      .029   455.700    66.270    10.940
   111.800    48.460      .029   455.700    65.900    11.000
   111.850    48.400      .029   452.900    65.430    10.980
   111.900    48.290      .030   450.500    65.010    10.900
   111.950    48.060      .030   450.200    64.550    10.870
   112.000    47.850      .030   451.200    64.040    10.860
   112.050    47.620      .030   452.900    63.430    10.830
   112.100    47.340      .030   455.000    63.060    10.740
   112.150    46.930      .030   456.700    62.410    10.580
   112.200    46.650      .030   459.000    61.870    10.450
