~Version Information
 VERS.                2.0:  CWLS LOG ASCII STANDARD -VERSION 2.0
 WRAP.                 NO:  ONE LINE PER DEPTH STEP
~WELL INFORMATION BLOCK
#MNEM.UNIT       DATA		            DESCRIPTION OF MNEMONIC
#---------    -------------            ------------------------
 STRT.M      .000                        :START DEPTH
 STOP.M    99.850                        :STOP DEPTH
 STEP.M      .050                        :STEP
 NULL.    -999999.0                      :NULL VALUE
 COMP.       WML                         :COMPANY
 WELL.                          B62B0901 :WELL
 FLD .    Klimmen                        :FIELD
 CNTY.                                   :COUNTY
 STAT.                                   :STATE
 SRVC.                                   :SERVICE COMPANY
 DATE.     17-JAN-92                     :LOG DATE
 UWI .                                   :UNIQUE WELL ID
 LIC .                                   :LICENSE NUMBER
~Curve Information Block
#MNEM.UNIT      API CODE     Curve Description
#---------    -------------  ------------------------
DEPTH    .M         00 000 00 00          :  1  DEPTH
SN40     .OHM.M     00 000 00 00          :  2  SN40
SP       .V         00 000 00 00          :  3  SP
CAL      .MM        00 000 00 00          :  4  CAL
LN160    .OHM.M     00 000 00 00          :  5  LN160
GAMMA    .CPS       00 000 00 00          :  6  GAMMA
~Parameter Information Block
#MNEM.UNIT   Information     Description
#---------- ---------------  ------------------------
 FILE.                         :File Type
 FIID.                         :File Type Identifier
 VERS.                         :System Version
 SER .                         :System Serial Number
 TRUK.                         :Truck Calibration Number
 TOOL.                         :Tool Serial Number
 TIME.                         :Time    HrHrMinMin
 LAT .                         :Latitude
 LON .                         :Longitude
 LMF .            MV           :LOG Measured FROM
 DMF .                         :Driller Measured From
 PD  .                         :Permanent Data
 PDEV.                         :Elevation Permanent Data
 EKB .M                        :Elevation Kelly Bushing
 ELEV.DF                       :Elevation DF
 EGL .M                        :Elevation Ground Level
 DRDP.                         :Drillers Depth
 CASD.                         :Casing Diameter
 CASB.                         :Casing Bottom
 CASX.                         :Casing Type
 CAST.                         :Casing Thickness
 TNOC.                         :Time Circulation Stopped
 LOGU.                         :Logging Unit
 RECB.            Bergsma      :Recorded By
 OSR1.                         :Other Services
 OSR2.                         :Other Services
 OSR3.                         :Other Services
 BS  .MM                       :Bit Size
 MST .                         :Mean Surface Temperature
 TGRD.                         :Temperature Gradiant
 MAGN.                         :Magnetic Declination
 MDEN.                         :Density Matrix
 MATR.                         :Neutron Matrix
 DTMT.                         :Delta T Matrix
 DTFL.                         :Delta T Fluid
 MUDS.                         :Mud Sample Source
 MRS .                         :Mud Resistivity
 MTP .                         :Mud Temperature
 MFRS.                         :Resistivity Mud Filtrate
 MFTP.                         :Temperature Mud Filtrate
 MCRS.                         :Resistivity Mud Cake
 MCTP.                         :Temperature Mud Cake
 FTYP.                         :Fluid Type
 FD  .K/M3                     :Fluid Density
 DFV .S                        :Fluid Viscosity
 FPH .                         :Fuild PH
 ELCO.                         :Electron Cutoff
~Other Information
#MNEM.UNIT  Information      Description
#---------- ---------------  ------------------------
# --------------------------
## COMMENTS    Top_Depth   Bot_Depth  LithCode  Lat    Long   Elev_Gl
##    Type of LithCode   Lithologie - 1970
##                    .00         .30        7.00     
##                    .35        4.60       11.00     
##                   4.65       77.95         .00     
##                  78.00       88.95        7.00     
##                  89.00       99.05       10.00     
##                  99.10       99.10         .00     
##    last_layer   99.1
# --------------------------
~A DEPTH    SN40     SP       CAL      LN160    GAMMA    
# ...
    64.000    52.000      .022   240.900    48.220    15.170
    64.050    51.960      .022   239.100    48.050    13.900
    64.100    51.900      .022   238.700    47.800    12.710
    64.150    51.840      .022   238.700    47.560    12.570
    64.200    51.760      .022   238.700    47.180    12.710
    64.250    51.710      .022   238.600    46.770    12.810
    64.300    51.660      .022   238.400    46.190    12.910
    64.350    51.750      .022   238.300    45.940    13.080
    64.400    51.840      .022   238.200    45.750    13.450
    64.450    51.990      .022   238.200    45.620    13.660
    64.500    52.080      .022   238.400    45.500    13.730
    64.550    52.140      .021   238.600    45.450    13.780
    64.600    52.200      .021   239.100    45.390    13.860
    64.650    52.210      .021   239.500    45.390    13.950
    64.700    51.470      .021   240.000    45.400    14.050
    64.750    50.550      .021   240.500    45.420    14.170
    64.800    49.380      .021   240.100    45.440    14.570
    64.850    46.550      .021   239.200    45.490    14.790
    64.900    45.390      .021   238.300    45.530    14.970
    64.950    44.150      .021   237.100    45.580    15.090
    65.000    43.770      .021   236.300    45.640    14.950
    65.050    43.850      .021   236.300    45.710    14.720
    65.100    44.250      .021   236.200    45.810    14.400
    65.150    44.830      .021   236.200    45.920    14.340
    65.200    45.830      .021   236.400    46.010    14.440
    65.250    47.710      .021   236.500    46.120    14.570
    65.300    49.100      .021   236.500    46.280    14.770
    65.350    50.030      .021   236.400    46.440    14.800
    65.400    50.560      .021   236.400    46.600    14.740
    65.450    50.270      .021   236.400    46.740    14.560
    65.500    49.920      .021   236.300    46.810    14.370
    65.550    49.610      .020   236.200    47.220    14.290
    65.600    49.330      .020   236.200    47.650    14.220
    65.650    49.050      .019   236.200    48.060    13.890
    65.700    48.820      .017   236.300    48.640    13.970
    65.750    48.690      .016   236.400    49.250    14.190
    65.800    48.620      .015   236.500    50.230    14.510
    65.850    48.660      .010   236.600    51.060    14.610
    65.900    48.690      .012   236.700    51.930    14.580
    65.950    48.770      .013   236.700    52.100    14.330
    66.000    48.860      .015   236.600    52.160    14.250
    66.050    48.920      .016   236.800    52.080    14.360
    66.100    48.970      .018   237.000    51.980    14.560
    66.150    48.990      .018   237.200    51.820    14.610
    66.200    48.940      .018   237.500    51.660    14.430
    66.250    48.660      .018   238.000    51.480    14.230
    66.300    48.010      .018   238.200    51.310    13.890
    66.350    46.890      .017   238.500    51.140    13.690
    66.400    46.800      .017   238.100    51.010    13.470
    66.450    46.970      .017   237.800    50.900    13.810
    66.500    47.120      .017   237.400    50.860    14.280
    66.550    47.460      .016   237.100    50.820    14.590
    66.600    47.800      .016   236.800    50.830    14.880
    66.650    48.210      .010   236.600    50.830    15.180
    66.700    48.410      .011   236.600    50.860    15.530
    66.750    48.610      .013   236.600    50.890    15.590
    66.800    48.560      .013   236.600    50.920    15.580
    66.850    48.160      .013   236.700    50.960    15.600
    66.900    47.770      .013   236.800    51.000    15.580
    66.950    47.410      .012   236.800    51.030    14.510
    67.000    47.120      .012   237.000    51.090    14.220
    67.050    47.130      .012   237.100    51.180    14.090
    67.100    47.150      .012   237.100    51.290    13.920
    67.150    47.170      .013   237.400    51.470    13.700
    67.200    47.200      .014   237.500    51.640    13.350
    67.250    47.220      .015   237.700    51.810    12.760
    67.300    47.270      .016   237.900    51.890    12.390
    67.350    47.300      .017   238.100    51.980    12.150
    67.400    47.540      .017   237.800    51.960    12.080
    67.450    47.750      .018   237.600    51.930    12.440
    67.500    47.910      .018   237.400    51.740    12.830
    67.550    47.990      .018   237.500    51.540    13.170
    67.600    47.920      .017   237.600    51.370    13.360
    67.650    47.820      .018   237.800    51.060    13.600
    67.700    47.710      .018   238.000    50.670    13.760
    67.750    47.600      .016   238.200    50.490    13.810
    67.800    47.540      .014   238.100    50.380    13.770
    67.850    47.720      .014   238.100    50.370    13.410
    67.900    48.180      .015   238.000    50.390    13.320
    67.950    48.560      .014   238.000    50.450    13.450
    68.000    48.890      .014   237.900    50.510    13.420
    68.050    49.190      .014   237.800    50.580    13.140
    68.100    49.260      .014   237.700    50.640    13.220
    68.150    49.280      .014   237.700    50.690    13.570
    68.200    49.310      .014   237.700    50.750    13.750
    68.250    49.230      .014   237.700    50.820    13.780
    68.300    49.160      .013   237.700    50.890    13.800
    68.350    48.720      .013   237.600    50.940    13.860
    68.400    47.430      .013   237.600    51.000    13.950
    68.450    47.040      .013   237.600    51.060    13.860
    68.500    47.070      .014   237.600    51.110    13.650
    68.550    47.140      .014   237.600    51.160    13.490
    68.600    47.310      .013   237.700    51.200    13.640
    68.650    47.450      .012   237.700    51.250    13.790
    68.700    47.580      .012   237.800    51.300    13.930
    68.750    48.140      .012   237.900    51.310    13.980
    68.800    48.350      .012   237.900    51.270    14.020
    68.850    48.320      .013   238.000    51.250    14.130
    68.900    48.190      .015   238.000    51.240    14.640
    68.950    48.080      .016   238.100    51.230    15.180
    69.000    48.030      .018   238.200    51.220    15.520
    69.050    47.980      .021   238.200    51.260    15.600
    69.100    48.000      .022   238.200    51.300    15.640
    69.150    48.060      .023   238.200    51.340    15.580
    69.200    48.150      .023   238.300    51.370    15.090
    69.250    48.350      .023   238.300    51.360    14.750
    69.300    48.580      .023   238.400    51.360    14.540
    69.350    48.790      .023   238.400    51.350    14.380
    69.400    49.090      .023   238.500    51.330    14.240
    69.450    49.350      .023   238.500    51.280    14.190
    69.500    49.620      .023   238.600    51.250    14.260
    69.550    49.800      .023   238.600    51.060    14.350
    69.600    49.880      .023   238.700    50.820    14.430
    69.650    49.940      .023   238.800    50.650    14.590
    69.700    50.010      .022   238.800    50.650    14.820
    69.750    50.130      .022   238.800    50.650    15.070
    69.800    50.280      .022   238.800    50.650    15.950
    69.850    50.450      .022   238.800    50.690    16.210
    69.900    50.570      .022   238.700    50.740    16.200
    69.950    50.610      .022   238.700    50.800    16.160
    70.000    50.600      .022   238.600    50.850    16.110
    70.050    50.310      .022   238.600    50.920    16.100
    70.100    49.970      .022   238.500    50.930    16.240
    70.150    49.610      .022   238.500    50.940    16.640
    70.200    49.680      .022   238.500    50.950    17.050
    70.250    49.860      .022   238.400    50.890    17.100
    70.300    50.040      .022   238.400    50.730    17.100
    70.350    50.250      .022   238.400    50.640    16.990
    70.400    50.480      .022   238.400    50.560    16.720
    70.450    50.680      .022   238.400    50.540    16.120
    70.500    50.880      .021   238.400    50.560    16.080
    70.550    51.050      .020   238.400    50.580    16.210
