~Version Information
 VERS.                2.0:  CWLS LOG ASCII STANDARD -VERSION 2.0
 WRAP.                 NO:  ONE LINE PER DEPTH STEP
~WELL INFORMATION BLOCK
#MNEM.UNIT       DATA		            DESCRIPTION OF MNEMONIC
#---------    -------------            ------------------------
 STRT.M      .150                        :START DEPTH
 STOP.M   #######                        :STOP DEPTH
 STEP.M      .050                        :STEP
 NULL.    -999999.0                      :NULL VALUE
 COMP.       SOFTDR                      :COMPANY
 WELL.                          B62B0927 :WELL
 FLD .    Heerlen                        :FIELD
 CNTY.                                   :COUNTY
 STAT.                                   :STATE
 SRVC.                                   :SERVICE COMPANY
 DATE.     29-MAY-97                     :LOG DATE
 UWI .                                   :UNIQUE WELL ID
 LIC .                                   :LICENSE NUMBER
~Curve Information Block
#MNEM.UNIT      API CODE     Curve Description
#---------    -------------  ------------------------
DEPTH    .M         00 000 00 00          :  1  DEPTH
GAM(NAT) .CPS       00 000 00 00          :  2  GAM(NAT)
SP       .V         00 000 00 00          :  3  SP
RES(16N) .OHM.M     00 000 00 00          :  4  RES(16N)
RES(64N) .OHM.M     00 000 00 00          :  5  RES(64N)
RES      .OHM       00 000 00 00          :  6  RES
~Parameter Information Block
#MNEM.UNIT   Information     Description
#---------- ---------------  ------------------------
 FILE.                         :File Type
 FIID.                         :File Type Identifier
 VERS.                         :System Version
 SER .                         :System Serial Number
 TRUK.                         :Truck Calibration Number
 TOOL.                         :Tool Serial Number
 TIME.                         :Time    HrHrMinMin
 LAT .                         :Latitude
 LON .                         :Longitude
 LMF .            MV           :LOG Measured FROM
 DMF .                         :Driller Measured From
 PD  .                         :Permanent Data
 PDEV.                         :Elevation Permanent Data
 EKB .M                        :Elevation Kelly Bushing
 ELEV.DF                       :Elevation DF
 EGL .M                        :Elevation Ground Level
 DRDP.                         :Drillers Depth
 CASD.                         :Casing Diameter
 CASB.                         :Casing Bottom
 CASX.                         :Casing Type
 CAST.                         :Casing Thickness
 TNOC.                         :Time Circulation Stopped
 LOGU.                         :Logging Unit
 RECB.            Bergsma      :Recorded By
 OSR1.                         :Other Services
 OSR2.                         :Other Services
 OSR3.                         :Other Services
 BS  .MM                       :Bit Size
 MST .                         :Mean Surface Temperature
 TGRD.                         :Temperature Gradiant
 MAGN.                         :Magnetic Declination
 MDEN.                         :Density Matrix
 MATR.                         :Neutron Matrix
 DTMT.                         :Delta T Matrix
 DTFL.                         :Delta T Fluid
 MUDS.                         :Mud Sample Source
 MRS .                         :Mud Resistivity
 MTP .                         :Mud Temperature
 MFRS.                         :Resistivity Mud Filtrate
 MFTP.                         :Temperature Mud Filtrate
 MCRS.                         :Resistivity Mud Cake
 MCTP.                         :Temperature Mud Cake
 FTYP.                         :Fluid Type
 FD  .K/M3                     :Fluid Density
 DFV .S                        :Fluid Viscosity
 FPH .                         :Fuild PH
 ELCO.                         :Electron Cutoff
~Other Information
#MNEM.UNIT  Information      Description
#---------- ---------------  ------------------------
# --------------------------
## COMMENTS    Top_Depth   Bot_Depth  LithCode  Lat    Long   Elev_Gl
##    Type of LithCode   Lithologie - 1970
##                    .15        3.55       62.00     
##                   3.55        5.50        2.00     
##                   5.50        8.70       26.00     
##                   8.70       15.10       63.00     
##                  15.10       19.15       26.00     
##                  19.15       20.70       43.00     
##                  20.70       22.60       26.00     
##                  22.60       30.05       63.00     
##                  30.05       30.85       26.00     
##                  30.85       52.70       63.00     
##                  52.70       54.00       26.00     
##                  54.00       58.15       63.00     
##                  58.15       59.85       26.00     
##                  59.85       66.75       63.00     
##                  66.75       70.35       26.00     
##                  70.35       72.25       63.00     
##                  72.25       73.10       26.00     
##                  73.10       74.40       63.00     
##                  74.40       75.15       26.00     
##                  75.15       75.95       63.00     
##                  75.95       76.75       26.00     
##                  76.75       77.40       63.00     
##                  77.40       78.20       26.00     
##                  78.20       79.70       63.00     
##                  79.70       80.75       26.00     
##                  80.75       81.70       58.00     
##                  81.70       83.15       26.00     
##                  83.15       84.95       58.00     
##                  84.95       87.35       22.00     
##                  87.35       88.60       23.00     
##                  88.60       89.30       58.00     
##                  89.30       91.10       23.00     
##                  91.10       92.35       58.00     
##                  92.35       94.30       23.00     
##                  94.30       99.05       26.00     
##                  99.05      100.50       23.00     
##                 100.50      103.10       26.00     
##                 103.10      105.80       40.00     
##                 105.80      107.05       43.00     
##                 107.05      110.35       57.00     
##                 110.35      112.35       15.00     
##                 112.35      116.10       63.00     
##                 116.10      120.45       32.00     
##                 120.45      121.95       63.00     
##                 121.95      122.70       12.00     
##                 122.70      124.70       15.00     
##                 124.70      127.95       19.00     
##                 127.95      129.55       58.00     
##                 129.55      130.60       38.00     
##                 130.60      132.70       57.00     
##                 132.70      133.60       59.00     
##                 133.60      135.20       57.00     
##                 135.20      135.85       59.00     
##                 135.85      136.50       57.00     
##                 136.50      137.30       58.00     
##    last_layer   137.3
##    Type of LithCode   Lithologie - 1970
##                   1.90        2.15       87.00     
##                   2.15        3.90       84.00     
##                   3.90        4.25       85.00     
##                   4.25       21.95         .00     
##                  21.95       22.35       87.00     
##                  22.35       24.95       84.00     
##                  24.95       25.30       85.00     
##                  25.30       37.95         .00     
##                  37.95       38.25       87.00     
##                  38.25       40.95       84.00     
##                  40.95       41.20       85.00     
##                  41.20       42.00         .00     
##                  42.00       44.95       74.00     
##                  44.95       46.95         .00     
##                  46.95       47.25       87.00     
##                  47.25       50.90       84.00     
##                  50.90       51.20       85.00     
##                  51.20       59.95         .00     
##                  59.95       60.35       87.00     
##                  60.35       62.95       84.00     
##                  62.95       63.25       85.00     
##                  63.25       76.90         .00     
##                  76.90       77.15       87.00     
##                  77.15       80.00       84.00     
##                  80.00       80.35       85.00     
##                  80.35      106.95         .00     
##                 106.95      107.25       87.00     
##                 107.25      115.45       84.00     
##                 115.45      115.80       85.00     
##                 115.80      116.40         .00     
##                 116.40      117.40       77.00     
##                 117.40      119.40       80.00     
##                 119.40      120.45       77.00     
##                 120.45      121.90         .00     
##                 121.90      122.35       87.00     
##                 122.35      127.90       84.00     
##                 127.90      128.30       85.00     
##                 128.30      130.95         .00     
##                 130.95      131.25       87.00     
##                 131.25      133.95       84.00     
##                 133.95      134.15       85.00     
##    last_layer   134.15
# --------------------------
~A DEPTH    GAM(NAT) SP       RES(16N) RES(64N) RES      
# ...
    46.250    37.000      .051    21.600    23.900   203.400
    46.300    66.300      .051    21.800    23.800   199.700
    46.350    45.300      .051    21.800    23.800   196.600
    46.400    62.200      .051    21.600    23.800   194.900
    46.450    62.000      .051    21.400    23.800   194.900
    46.500    76.800      .051    21.100    23.700   194.800
    46.550    61.800      .051    21.000    23.600   194.300
    46.600    50.600      .051    20.900    23.600   194.100
    46.650    52.700      .051    20.800    23.500   194.500
    46.700    61.300      .051    20.700    23.500   194.200
    46.750    61.600      .051    20.600    23.400   194.000
    46.800    71.400      .051    20.500    23.500   193.900
    46.850    59.900      .051    20.500    23.500   193.000
    46.900    62.600      .051    20.400    23.600   192.000
    46.950    68.300      .051    20.300    23.600   191.800
    47.000    56.800      .051    20.200    23.600   191.900
    47.050    57.000      .051    20.200    23.700   193.300
    47.100    63.900      .051    20.200    23.600   194.000
    47.150    52.600      .050    20.100    23.600   194.900
    47.200    69.300      .051    20.000    23.500   196.400
    47.250    64.900      .052    19.800    23.500   196.600
    47.300    73.400      .053    19.600    23.400   196.300
    47.350    59.300      .054    19.500    23.300   196.200
    47.400    73.600      .055    19.300    23.300   197.200
    47.450    94.500      .054    19.200    23.200   197.500
    47.500    85.800      .053    19.100    23.100   197.200
    47.550    62.200      .053    19.200    23.100   196.700
    47.600    70.200      .053    19.200    23.100   195.400
    47.650    93.000      .052    19.100    23.000   194.200
    47.700    81.500      .052    19.000    23.000   192.300
    47.750    97.700      .052    18.900    22.900   191.500
    47.800    61.900      .051    18.900    22.800   192.200
    47.850    64.400      .051    18.700    22.800   192.500
    47.900    77.100      .052    18.400    22.800   192.400
    47.950    72.900      .053    18.300    22.700   192.900
    48.000    46.200      .053    18.100    22.600   193.000
    48.050    92.400      .053    18.000    22.500   193.200
    48.100    62.600      .053    17.900    22.400   193.400
    48.150    62.800      .054    17.800    22.300   193.600
    48.200    81.300      .054    17.800    22.300   194.000
    48.250    61.500      .055    17.700    22.300   193.700
    48.300    63.300      .055    17.700    22.300   192.700
    48.350    53.400      .055    17.700    22.300   191.200
    48.400    83.800      .055    17.700    22.300   189.200
    48.450    74.300      .055    17.600    22.300   188.100
    48.500    55.800      .055    17.600    22.300   188.700
    48.550    58.700      .055    17.400    22.300   190.000
    48.600    62.000      .055    17.200    22.300   190.400
    48.650    52.300      .055    17.200    22.300   190.300
    48.700    41.200      .053    17.000    22.300   190.300
    48.750    65.600      .052    16.900    22.300   190.500
    48.800    71.300      .052    16.700    22.300   191.400
    48.850    58.000      .052    16.600    22.300   192.200
    48.900    57.600      .053    16.600    22.300   192.300
    48.950    54.900      .053    16.600    22.200   192.300
    49.000    75.400      .055    16.800    22.200   192.200
    49.050    68.600      .055    16.900    22.100   191.700
    49.100    59.700      .055    17.000    22.100   190.500
    49.150    73.300      .055    17.100    22.100   189.000
    49.200    78.200      .055    17.100    22.000   188.000
    49.250    72.500      .056    17.000    22.000   187.700
    49.300   105.600      .056    16.800    22.000   187.400
    49.350    71.400      .056    16.700    22.000   186.600
    49.400    63.300      .055    16.700    22.100   185.700
    49.450    38.800      .056    16.700    22.000   185.700
    49.500    50.600      .056    16.700    22.000   186.700
    49.550    58.400      .056    16.600    22.100   186.800
    49.600    47.000      .056    16.600    22.200   186.300
    49.650    56.900      .055    16.600    22.200   186.300
    49.700    71.400      .054    16.600    22.300   187.100
    49.750    57.500      .054    16.600    22.300   188.200
    49.800    73.300      .053    16.600    22.300   189.800
    49.850    42.500      .053    16.600    22.300   190.400
    49.900    53.000      .053    16.700    22.300   190.600
    49.950    78.600      .053    16.900    22.300   190.900
    50.000    59.600      .054    17.100    22.200   190.800
    50.050    48.200      .054    17.300    22.200   190.400
    50.100    54.700      .054    17.400    22.200   189.400
    50.150    56.000      .054    17.400    22.200   189.400
    50.200    57.300      .054    17.500    22.300   189.500
    50.250    63.500      .054    17.500    22.300   189.000
    50.300    59.600      .054    17.500    22.400   188.400
    50.350    50.200      .054    17.400    22.500   188.400
    50.400    36.600      .053    17.400    22.500   189.500
    50.450    47.400      .053    17.400    22.500   189.800
    50.500    79.200      .053    17.400    22.600   190.300
    50.550    67.800      .054    17.400    22.600   190.700
    50.600    69.100      .053    17.300    22.600   190.900
    50.650    67.600      .053    17.300    22.600   190.000
    50.700    79.300      .053    17.300    22.600   190.000
    50.750    63.500      .053    17.300    22.500   190.000
    50.800    81.800      .052    17.400    22.400   190.000
    50.850    65.700      .053    17.500    22.400   190.400
    50.900    61.600      .054    17.700    22.300   190.200
    50.950    63.200      .055    18.000    22.300   189.000
    51.000    46.000      .054    18.300    22.300   187.600
    51.050    55.000      .054    18.500    22.300   186.800
    51.100    40.000      .054    18.600    22.300   186.600
    51.150    49.300      .053    18.600    22.300   186.500
    51.200    54.700      .052    18.600    22.400   186.600
    51.250    66.800      .052    18.600    22.500   188.500
    51.300    88.300      .051    18.500    22.600   191.900
    51.350    49.700      .052    18.400    22.700   194.300
    51.400    59.600      .053    18.300    22.900   195.900
    51.450    74.000      .054    18.300    23.000   197.200
    51.500    69.300      .055    18.300    23.200   198.900
    51.550    95.400      .056    18.400    23.400   201.800
    51.600    49.700      .056    18.500    23.600   203.900
    51.650    51.500      .056    18.600    23.700   204.300
    51.700    77.500      .056    18.900    23.800   203.000
    51.750    69.300      .055    19.100    23.800   199.800
    51.800    54.800      .053    19.200    23.700   196.500
    51.850    61.600      .053    19.200    23.600   193.400
    51.900   100.100      .053    19.200    23.600   192.400
    51.950    83.700      .053    19.200    23.500   192.300
    52.000    62.100      .053    19.300    23.500   192.100
    52.050    62.500      .054    19.700    23.500   191.900
    52.100    72.400      .055    20.000    23.600   191.200
    52.150    76.100      .055    20.500    23.600   189.800
    52.200    73.300      .055    21.100    23.600   188.900
    52.250    62.300      .055    21.500    23.700   189.100
    52.300    78.400      .054    21.600    23.900   189.400
    52.350    63.500      .053    21.600    24.000   189.700
    52.400    58.500      .051    21.600    24.000   191.000
    52.450    51.200      .048    21.600    24.100   193.000
    52.500    48.900      .047    21.800    24.100   197.100
    52.550    63.200      .045    21.900    24.000   206.100
    52.600    60.200      .045    22.200    23.800   213.700
    52.650    44.500      .044    22.900    23.700   217.300
    52.700    65.200      .044    24.400    23.500   219.200
    52.750    54.600      .043    25.800    23.300   220.400
    52.800    56.500      .043    27.000    23.200   221.000
