~Version Information
 VERS.                2.0:  CWLS LOG ASCII STANDARD -VERSION 2.0
 WRAP.                 NO:  ONE LINE PER DEPTH STEP
~WELL INFORMATION BLOCK
#MNEM.UNIT       DATA		            DESCRIPTION OF MNEMONIC
#---------    -------------            ------------------------
 STRT.M      .150                        :START DEPTH
 STOP.M   #######                        :STOP DEPTH
 STEP.M      .050                        :STEP
 NULL.    -999999.0                      :NULL VALUE
 COMP.       SOFTDR                      :COMPANY
 WELL.                          B62B0927 :WELL
 FLD .    Heerlen                        :FIELD
 CNTY.                                   :COUNTY
 STAT.                                   :STATE
 SRVC.                                   :SERVICE COMPANY
 DATE.     29-MAY-97                     :LOG DATE
 UWI .                                   :UNIQUE WELL ID
 LIC .                                   :LICENSE NUMBER
~Curve Information Block
#MNEM.UNIT      API CODE     Curve Description
#---------    -------------  ------------------------
DEPTH    .M         00 000 00 00          :  1  DEPTH
GAM(NAT) .CPS       00 000 00 00          :  2  GAM(NAT)
SP       .V         00 000 00 00          :  3  SP
RES(16N) .OHM.M     00 000 00 00          :  4  RES(16N)
RES(64N) .OHM.M     00 000 00 00          :  5  RES(64N)
RES      .OHM       00 000 00 00          :  6  RES
~Parameter Information Block
#MNEM.UNIT   Information     Description
#---------- ---------------  ------------------------
 FILE.                         :File Type
 FIID.                         :File Type Identifier
 VERS.                         :System Version
 SER .                         :System Serial Number
 TRUK.                         :Truck Calibration Number
 TOOL.                         :Tool Serial Number
 TIME.                         :Time    HrHrMinMin
 LAT .                         :Latitude
 LON .                         :Longitude
 LMF .            MV           :LOG Measured FROM
 DMF .                         :Driller Measured From
 PD  .                         :Permanent Data
 PDEV.                         :Elevation Permanent Data
 EKB .M                        :Elevation Kelly Bushing
 ELEV.DF                       :Elevation DF
 EGL .M                        :Elevation Ground Level
 DRDP.                         :Drillers Depth
 CASD.                         :Casing Diameter
 CASB.                         :Casing Bottom
 CASX.                         :Casing Type
 CAST.                         :Casing Thickness
 TNOC.                         :Time Circulation Stopped
 LOGU.                         :Logging Unit
 RECB.            Bergsma      :Recorded By
 OSR1.                         :Other Services
 OSR2.                         :Other Services
 OSR3.                         :Other Services
 BS  .MM                       :Bit Size
 MST .                         :Mean Surface Temperature
 TGRD.                         :Temperature Gradiant
 MAGN.                         :Magnetic Declination
 MDEN.                         :Density Matrix
 MATR.                         :Neutron Matrix
 DTMT.                         :Delta T Matrix
 DTFL.                         :Delta T Fluid
 MUDS.                         :Mud Sample Source
 MRS .                         :Mud Resistivity
 MTP .                         :Mud Temperature
 MFRS.                         :Resistivity Mud Filtrate
 MFTP.                         :Temperature Mud Filtrate
 MCRS.                         :Resistivity Mud Cake
 MCTP.                         :Temperature Mud Cake
 FTYP.                         :Fluid Type
 FD  .K/M3                     :Fluid Density
 DFV .S                        :Fluid Viscosity
 FPH .                         :Fuild PH
 ELCO.                         :Electron Cutoff
~Other Information
#MNEM.UNIT  Information      Description
#---------- ---------------  ------------------------
# --------------------------
## COMMENTS    Top_Depth   Bot_Depth  LithCode  Lat    Long   Elev_Gl
##    Type of LithCode   Lithologie - 1970
##                    .15        3.55       62.00     
##                   3.55        5.50        2.00     
##                   5.50        8.70       26.00     
##                   8.70       15.10       63.00     
##                  15.10       19.15       26.00     
##                  19.15       20.70       43.00     
##                  20.70       22.60       26.00     
##                  22.60       30.05       63.00     
##                  30.05       30.85       26.00     
##                  30.85       52.70       63.00     
##                  52.70       54.00       26.00     
##                  54.00       58.15       63.00     
##                  58.15       59.85       26.00     
##                  59.85       66.75       63.00     
##                  66.75       70.35       26.00     
##                  70.35       72.25       63.00     
##                  72.25       73.10       26.00     
##                  73.10       74.40       63.00     
##                  74.40       75.15       26.00     
##                  75.15       75.95       63.00     
##                  75.95       76.75       26.00     
##                  76.75       77.40       63.00     
##                  77.40       78.20       26.00     
##                  78.20       79.70       63.00     
##                  79.70       80.75       26.00     
##                  80.75       81.70       58.00     
##                  81.70       83.15       26.00     
##                  83.15       84.95       58.00     
##                  84.95       87.35       22.00     
##                  87.35       88.60       23.00     
##                  88.60       89.30       58.00     
##                  89.30       91.10       23.00     
##                  91.10       92.35       58.00     
##                  92.35       94.30       23.00     
##                  94.30       99.05       26.00     
##                  99.05      100.50       23.00     
##                 100.50      103.10       26.00     
##                 103.10      105.80       40.00     
##                 105.80      107.05       43.00     
##                 107.05      110.35       57.00     
##                 110.35      112.35       15.00     
##                 112.35      116.10       63.00     
##                 116.10      120.45       32.00     
##                 120.45      121.95       63.00     
##                 121.95      122.70       12.00     
##                 122.70      124.70       15.00     
##                 124.70      127.95       19.00     
##                 127.95      129.55       58.00     
##                 129.55      130.60       38.00     
##                 130.60      132.70       57.00     
##                 132.70      133.60       59.00     
##                 133.60      135.20       57.00     
##                 135.20      135.85       59.00     
##                 135.85      136.50       57.00     
##                 136.50      137.30       58.00     
##    last_layer   137.3
##    Type of LithCode   Lithologie - 1970
##                   1.90        2.15       87.00     
##                   2.15        3.90       84.00     
##                   3.90        4.25       85.00     
##                   4.25       21.95         .00     
##                  21.95       22.35       87.00     
##                  22.35       24.95       84.00     
##                  24.95       25.30       85.00     
##                  25.30       37.95         .00     
##                  37.95       38.25       87.00     
##                  38.25       40.95       84.00     
##                  40.95       41.20       85.00     
##                  41.20       42.00         .00     
##                  42.00       44.95       74.00     
##                  44.95       46.95         .00     
##                  46.95       47.25       87.00     
##                  47.25       50.90       84.00     
##                  50.90       51.20       85.00     
##                  51.20       59.95         .00     
##                  59.95       60.35       87.00     
##                  60.35       62.95       84.00     
##                  62.95       63.25       85.00     
##                  63.25       76.90         .00     
##                  76.90       77.15       87.00     
##                  77.15       80.00       84.00     
##                  80.00       80.35       85.00     
##                  80.35      106.95         .00     
##                 106.95      107.25       87.00     
##                 107.25      115.45       84.00     
##                 115.45      115.80       85.00     
##                 115.80      116.40         .00     
##                 116.40      117.40       77.00     
##                 117.40      119.40       80.00     
##                 119.40      120.45       77.00     
##                 120.45      121.90         .00     
##                 121.90      122.35       87.00     
##                 122.35      127.90       84.00     
##                 127.90      128.30       85.00     
##                 128.30      130.95         .00     
##                 130.95      131.25       87.00     
##                 131.25      133.95       84.00     
##                 133.95      134.15       85.00     
##    last_layer   134.15
# --------------------------
~A DEPTH    GAM(NAT) SP       RES(16N) RES(64N) RES      
# ...
    79.250    77.900      .051    21.900    32.400   186.300
    79.300    82.600      .050    22.500    31.900   187.600
    79.350    78.800      .050    23.000    31.500   189.200
    79.400    80.100      .050    23.800    31.000   191.300
    79.450    75.500      .049    24.500    30.600   193.900
    79.500    59.700      .048    25.600    30.200   196.000
    79.550    40.000      .048    26.900    29.800   197.500
    79.600    43.200      .047    28.300    29.500   200.700
    79.650    52.200      .046    29.600    29.100   203.900
    79.700    36.600      .046    30.900    28.800   207.200
    79.750    27.900      .045    32.400    28.400   211.200
    79.800    36.100      .044    33.800    28.100   216.600
    79.850    43.500      .043    35.500    27.900   225.200
    79.900    31.600      .043    37.400    27.600   232.500
    79.950    38.200      .043    39.600    27.300   237.600
    80.000    19.700      .043    41.800    27.100   241.800
    80.050    38.500      .042    44.000    26.800   244.400
    80.100    31.600      .042    46.000    26.600   245.800
    80.150    37.600      .042    47.800    26.500   246.700
    80.200    23.500      .042    49.100    26.400   247.800
    80.250    32.900      .042    49.800    26.400   247.900
    80.300    20.500      .041    50.400    26.500   246.800
    80.350    23.000      .041    50.700    26.600   244.700
    80.400    21.700      .041    50.800    27.000   242.200
    80.450    26.300      .041    50.600    27.400   241.000
    80.500    37.500      .041    50.000    28.000   241.200
    80.550    30.200      .041    48.800    28.800   241.000
    80.600    19.800      .041    47.600    29.700   239.700
    80.650    36.700      .041    46.400    30.800   238.000
    80.700    42.200      .041    45.100    31.900   237.000
    80.750    35.300      .041    43.700    32.900   237.200
    80.800    30.700      .042    42.100    33.900   238.000
    80.850    48.300      .042    40.400    34.800   237.800
    80.900    34.900      .042    38.600    35.600   235.600
    80.950    33.100      .043    37.200    36.300   232.200
    81.000    30.500      .043    36.500    36.900   229.700
    81.050    29.900      .044    36.500    37.300   228.100
    81.100    28.600      .044    36.600    37.600   225.400
    81.150    48.600      .046    37.000    37.700   222.000
    81.200    52.800      .047    37.700    37.600   216.400
    81.250    61.900      .048    38.800    37.400   209.700
    81.300    71.800      .048    39.800    37.100   204.900
    81.350    56.700      .048    40.200    36.700   203.700
    81.400    54.500      .048    39.900    36.300   203.100
    81.450    56.500      .047    39.300    35.800   202.400
    81.500    47.400      .046    39.000    35.500   202.900
    81.550    56.400      .045    38.900    35.400   207.300
    81.600    55.500      .044    38.900    35.500   215.000
    81.650    36.900      .044    39.300    35.700   222.900
    81.700    33.400      .044    40.300    35.900   230.000
    81.750    38.800      .044    42.100    36.100   234.100
    81.800    22.300      .043    44.200    36.200   237.800
    81.850    27.600      .043    46.000    36.300   241.400
    81.900    17.600      .043    47.000    36.400   243.200
    81.950    20.100      .042    47.300    36.400   245.100
    82.000    29.000      .042    46.800    36.200   247.200
    82.050    29.100      .042    45.200    35.800   248.900
    82.100    18.800      .042    43.200    35.400   250.000
    82.150    27.000      .042    41.900    34.900   250.100
    82.200    22.700      .043    41.400    34.500   249.500
    82.250    26.700      .043    41.300    34.200   247.800
    82.300    36.100      .044    41.300    34.000   244.000
    82.350    44.900      .045    41.400    34.100   237.200
    82.400    56.400      .045    41.500    34.500   226.600
    82.450    35.300      .045    41.500    34.900   218.300
    82.500    12.700      .045    41.200    35.500   215.100
    82.550    34.100      .045    40.300    36.200   214.000
    82.600    16.800      .046    38.700    36.900   213.600
    82.650    27.300      .045    37.300    37.700   213.500
    82.700    27.500      .045    36.100    38.500   214.100
    82.750    43.200      .045    35.000    39.400   215.400
    82.800    33.300      .045    33.800    40.200   216.200
    82.850    45.700      .046    32.700    41.000   216.800
    82.900    26.900      .046    32.000    41.700   217.600
    82.950    34.100      .045    31.800    42.300   217.000
    83.000    32.100      .046    32.000    42.700   215.800
    83.050    35.400      .046    32.400    43.000   217.900
    83.100    59.900      .047    32.900    43.200   218.400
    83.150    42.300      .048    33.600    43.200   215.000
    83.200    58.600      .048    34.400    42.800   210.100
    83.250    57.700      .048    35.000    42.300   207.600
    83.300    56.500      .048    35.400    41.700   206.700
    83.350    73.500      .049    35.600    41.100   205.700
    83.400    82.000      .050    36.000    40.500   204.900
    83.450    75.500      .051    36.500    39.900   205.200
    83.500    71.000      .050    36.900    39.500   207.300
    83.550    84.700      .050    37.100    39.100   207.300
    83.600    73.700      .049    37.300    39.000   204.400
    83.650    77.300      .048    37.700    39.100   203.400
    83.700    65.500      .047    37.900    39.400   207.200
    83.750    57.800      .046    37.900    39.800   214.600
    83.800    62.500      .045    38.100    40.300   224.000
    83.850    41.100      .044    38.900    40.800   231.900
    83.900    44.900      .044    40.300    41.200   237.500
    83.950    49.300      .044    42.200    41.300   240.600
    84.000    29.700      .043    43.900    41.200   241.800
    84.050    28.200      .043    44.500    41.000   242.500
    84.100    42.500      .043    44.100    40.700   243.100
    84.150    49.900      .043    42.900    40.400   244.300
    84.200    44.500      .043    41.900    40.100   244.900
    84.250    42.300      .043    41.500    39.700   243.600
    84.300    38.600      .044    41.700    39.500   242.600
    84.350    39.700      .045    42.300    39.200   240.800
    84.400    63.600      .045    43.200    38.900   235.500
    84.450    79.000      .046    44.500    38.800   225.200
    84.500    77.400      .046    46.200    38.800   217.000
    84.550    54.900      .047    47.600    39.000   214.000
    84.600    58.800      .047    47.700    39.400   211.400
    84.650    55.000      .047    47.100    39.900   210.200
    84.700    54.800      .046    46.500    40.400   210.900
    84.750    54.800      .045    46.000    40.900   212.900
    84.800    46.400      .045    45.600    41.300   217.000
    84.850    32.100      .044    45.600    41.800   226.500
    84.900    26.200      .043    46.200    42.100   236.400
    84.950    55.000      .043    47.700    42.400   240.800
    85.000    36.800      .042    50.800    42.800   243.800
    85.050    45.300      .042    53.700    43.300   247.800
    85.100    22.600      .042    55.900    43.900   250.900
    85.150    39.400      .042    57.700    44.500   251.600
    85.200    51.500      .042    59.200    44.800   250.700
    85.250    44.100      .042    60.200    44.900   248.100
    85.300    34.100      .042    60.700    44.800   246.600
    85.350    38.600      .042    60.900    44.500   248.200
    85.400    43.400      .042    60.800    44.200   249.000
    85.450    37.100      .043    60.600    44.000   248.600
    85.500    35.600      .043    59.800    43.900   248.000
    85.550    47.300      .044    58.800    43.900   247.300
    85.600    59.800      .044    57.900    44.300   246.000
    85.650    44.300      .045    57.600    44.900   244.100
    85.700    50.100      .046    57.900    45.600   244.300
    85.750    47.200      .045    58.300    46.300   249.000
    85.800    68.900      .044    58.400    46.900   251.200
