~Version Information Block
 VERS.                2.00:     CWLS LOG ASCII STANDARD - VERSION 2.000000
 WRAP.                  NO:     One Line Per Depth Step
#
~Well Information Block
#MNEM.UNIT                     Data                         Information
#----------   ------------------------------------------   ----------------
 STRT.M                                         0.0000:
 STOP.M                                       171.0000:
 STEP.M                                         0.0200:
 NULL.                                       -999.2500:
 COMP.                                                :     COMPANY
 WELL.                                        B62B0838:     WELL
 FLD .                                                :     FIELD
 CNTY.                                                :     COUNTY
 STAT.                                                :     STATE
 CTRY.                                                :     COUNTRY
 SRVC.                                                :     SERVICE COMPANY
 DATE.                                                :     DATE
 API .                                                :     API NUMBER
 UWI .                                                :     UWI NUMBER
#
~Curve Information Block
#MNEM.UNIT       API CODE      Curve Description
#----------    -------------   -------------------
 DEPT.M                    :   Depth in Meters
 SN20.OHM-M                :   SN20
 LN100.OHM-M               :   LN100
 CALI.CM                   :   Calr
 GAM(NAT) .CPS             :   GAM(NAT)
#
~Parameter Information Block
#MNEM.UNIT            Value               Description
#----------    --------------------    -------------------
 PDAT.                            :    Permanent Datum
 EPD .M                     0.0000:    Elevation Of Perm. Datum
 WSTA.                         LOC:    
 E   .M                     0.0000:    E (Stretch Coefficient Of The Cable)
 TD  .M                   171.0000:    Total Depth
#
~Other Information Block
<DescLogPlotStart>   NEURALOG PLOT DEFINITION
PLOTDEFVERSION: 3
LASFILE: V:\a4\j4\p44009\boorgatmetingen\SCANS TE VERWERKEN IN DINO\wlg\B62B083
DEPTHSCALE: 200.000000
RESOLUTION: 600
DEPTHLABELFREQ: 50.000000
HEAVYGRIDFREQ: 50.000000
MEDIUMGRIDFREQ: 25.000000
LIGHTGRIDFREQ: 5.000000
#
#   TRACK 1
#
STARTTRACK: 
 LEFTX: 13.760000 inch
 RIGHTX: 15.010000 inch
 SCALETYPE: LINEAR
 NUMCHARTDIVISIONS: 10
CURVE: CALI  30.000000  50.000000  (0,0,255)      Solid             2     N    
ENDTRACK: 
#
#   TRACK 2
#
STARTTRACK: 
 LEFTX: 16.551667 inch
 RIGHTX: 21.551667 inch
 SCALETYPE: LINEAR
 NUMCHARTDIVISIONS: 10
CURVE: GAM(NAT)   0.000000   50.000000  (0,131,131)    Solid             2     N    
ENDTRACK: 
#
#   TRACK 3
#
STARTTRACK: 
 LEFTX: 15.343333 inch
 RIGHTX: 21.240000 inch
 SCALETYPE: LINEAR
 NUMCHARTDIVISIONS: 10
CURVE: SN20  0.000000   100.000000 (255,0,255)    Solid             2     Y    
CURVE: LN100  0.000000   100.000000 (255,0,0)      Dot               2     Y    
ENDTRACK: 
<DescLogPlotEnd>
~Other Information
#MNEM.UNIT  Information      Description
#---------- ---------------  ------------------------
# --------------------------
## COMMENTS    Top_Depth   Bot_Depth  LithCode  Lat    Long   Elev_Gl 
##	0.0	31.2	0.0
##	31.25	97.0	25.0
##	97.05	97.5	11.0
##	97.55	104.0	12.0
##	104.05	110.1	11.0
##	110.15	111.7	12.0
##	111.75	113.1	11.0
##	113.15	116.6	12.0
##	116.65	124.1	11.0
##	124.15	125.9	12.0
##	125.95	139.0	11.0
##	139.05	140.0	10.0
##	140.05	145.5	11.0
##	145.55	146.3	10.0
##	146.35	148.0	12.0
##	148.05	149.4	10.0
##	149.45	150.0	11.0
##	150.05	151.9	10.0
##	151.95	152.6	11.0
##	152.65	155.0	10.0
##	155.05	160.9	14.0
##	160.95	163.2	11.0
##	163.25	164.0	10.0
##	164.05	167.8	11.0
##	167.85	170.0	10.0
##	170.05	171.95	11.0
# --------------------------
~A  DEPTH         SN20             LN100            CALI             GAM(NAT)  
# ...
     136.340      16.47823629      15.77834591      38.20571181      33.24973153
     136.360      16.47823629      15.80188550      38.18783069      33.61130591
     136.380      16.47823629      15.82542509      38.18783069      33.78995426
     136.400      16.47823629      15.84896467      38.18783069      34.10454329
     136.420      16.47823629      15.87250426      38.20940623      34.47612069
     136.440      16.47823629      15.89604385      38.21927040      34.70480394
     136.460      16.47823629      15.91958344      38.24074074      34.89799999
     136.480      16.47823629      15.94312302      38.24074074      35.02594102
     136.500      16.47823629      15.96666261      38.27531792      35.00628897
     136.520      16.47823629      15.99020220      38.31163712      34.93642600
     136.540      16.47823629      16.01374179      38.32150128      34.82325417
     136.560      16.47823629      16.03728138      38.35782048      34.64820913
     136.580      16.47823629      16.06082096      38.37301587      34.54010011
     136.600      16.47823629      16.08436055      38.39947090      34.54780707
     136.620      16.47823629      16.10790014      38.38507380      34.46905648
     136.640      16.47823629      16.13143973      38.37301587      34.27876760
     136.660      16.47823629      16.15497931      38.39947090      34.26614812
     136.680      16.48342110      16.17851890      38.39947090      34.34460009
     136.700      16.48954211      16.20205849      38.39947090      34.65505580
     136.720      16.50084794      16.22559808      38.39947090      34.72269192
     136.740      16.51215376      16.24913767      38.42014295      34.81887760
     136.760      16.52292669      16.27267725      38.42592593      34.98550372
     136.780      16.52715017      16.29621684      38.42592593      35.22380238
     136.800      16.53476540      16.31975643      38.42592593      35.36016233
     136.820      16.54607123      16.34324221      38.42592593      35.58353159
     136.840      16.54607123      16.36504575      38.39947090      35.85627721
     136.860      16.54607123      16.38684930      38.37301587      36.21194430
     136.880      16.54607123      16.40865284      38.37301587      36.44669107
     136.900      16.54607123      16.43045638      38.34656085      36.83028872
     136.920      16.54607123      16.45225992      38.32010582      37.13934227
     136.940      16.54607123      16.47406347      38.34656085      37.55716537
     136.960      16.54607123      16.49586701      38.32010582      37.84294379
     136.980      16.54607123      16.51767055      38.30041771      37.95231654
     137.000      16.55099686      16.53947410      38.32010582      38.20254051
     137.020      16.55737705      16.56127764      38.29365079      37.83390191
     137.040      16.55737705      16.58308118      38.29365079      37.77056524
     137.060      16.55737705      16.60488473      38.27388224      37.74494855
     137.080      16.55737705      16.62668827      38.26719577      37.83801545
     137.100      16.55737705      16.63651781      38.28023763      38.11832168
     137.120      16.55737705      16.63651781      38.29365079      38.34122421
     137.140      16.55737705      16.70492531      38.32010582      38.31700574
     137.160      16.55737705      16.73176044      38.36274018      38.19183739
     137.180      16.55737705      16.75859557      38.39947090      37.80486980
     137.200      16.55737705      16.77218768      38.40892354      37.58514339
     137.220      16.55737705      16.77218768      38.44524274      37.33392663
     137.240      16.55737705      16.77218768      38.50529101      37.18792557
     137.260      16.55737705      16.78349350      38.51788112      37.10686507
     137.280      16.55737705      16.79479932      38.53174603      37.18373885
     137.300      16.55737705      16.80654812      38.53174603      37.28719838
     137.320      16.55737705      16.82207743      38.51601844      37.38699725
     137.340      16.55737705      16.83760674      38.47969925      37.52903903
     137.360      16.55737705      16.91916337      38.39947090      37.61448600
     137.380      16.55737705      16.91916337      38.36174077      37.63589619
     137.400      16.55737705      16.91916337      38.32010582      37.62959139
     137.420      16.55737705      16.94494726      38.30796745      37.69589654
     137.440      16.55737705      16.97178239      38.29365079      37.87045112
     137.460      16.55737705      16.98699830      38.26178409      38.85389412
     137.480      16.55737705      16.98699830      38.22546490      39.79540074
     137.500      16.55737705      16.98699830      38.21428571      39.79540074
     137.520      16.55737705      16.99998215      38.21428571      38.81024509
     137.540      16.55737705      17.02681728      38.24074074      38.56983231
     137.560      16.55737705      17.05365241      38.24074074      38.54413257
     137.580      16.55737705      17.05483324      38.27888239      38.57401112
     137.600      16.55737705      17.05483324      38.31520158      38.81591308
     137.620      16.55737705      17.12266817      38.37301587      39.06091404
     137.640      16.55737705      17.12266817      38.37301587      39.27938463
     137.660      16.55737705      17.28665285      38.42239240      39.51582230
     137.680      16.55737705      17.36163888      38.42592593      39.74846682
     137.700      16.55737705      17.37716819      38.42592593      39.97116566
     137.720      16.55737705      17.40400332      38.42455522      40.10239159
     137.740      16.55737705      17.40531374      38.42592593      40.18176119
     137.760      16.55737705      17.40531374      38.39947090      40.26200689
     137.780      16.63651781      17.50717457      38.36850769      40.35339871
     137.800      16.63651781      17.56084483      38.33218850      40.29055843
     137.820      16.63651781      17.66552220      38.32010582      39.97441694
     137.840      16.63651781      17.68795930      38.32010582      39.66012851
     137.860      16.63651781      17.68795930      38.27614097      39.29980797
     137.880      16.63651781      17.77696587      38.24074074      39.10905434
     137.900      16.63651781      17.80101752      38.22995761      38.83158607
     137.920      16.63651781      17.81933031      38.21428571      38.61260128
     137.940      16.72681364      18.12881100      38.21428571      38.75297035
     137.960      16.78048390      18.15564613      38.22820632      39.00173204
     137.980      16.83415416      18.23271085      38.21428571      38.65924054
     138.000      16.88911368      18.25325042      38.21428571      38.28137515
     138.020      16.95280051      18.25325042      38.23134379      37.79856698
     138.040      17.13240440      18.34212741      38.24074074      37.22492964
     138.060      17.17319925      18.36896254      38.24074074      36.95178257
     138.080      17.21556369      18.39579767      38.26719577      36.78068692
     138.100      17.25792813      18.40022612      38.29365079      36.41359486
     138.120      17.29627404      18.40022612      38.32010582      36.41359486
     138.140      17.35833692      18.49913025      38.32010582      36.41359486
     138.160      17.46305938      18.53589599      38.32010582      37.25904633
     138.180      17.56778184      18.53589599      38.32010582      37.25904633
     138.200      17.67250430      18.53589599      38.32010582      37.25903644
     138.220      17.77722676      18.53589599      38.32010582      37.21891359
     138.240      17.88194922      18.53589599      38.34656085      37.19569977
     138.260      17.98667168      18.58045018      38.34656085      37.07295208
     138.280      18.09139413      18.64542627      38.34656085      36.42218386
     138.300      18.19611659      18.68287168      38.32010582      36.26277818
