~Version Information
 VERS.                2.0:  CWLS LOG ASCII STANDARD -VERSION 2.0
 WRAP.                 NO:  ONE LINE PER DEPTH STEP
~WELL INFORMATION BLOCK
#MNEM.UNIT       DATA		            DESCRIPTION OF MNEMONIC
#---------    -------------            ------------------------
 STRT.M      .000                        :START DEPTH
 STOP.M    79.950                        :STOP DEPTH
 STEP.M      .050                        :STEP
 NULL.    -999999.0                      :NULL VALUE
 COMP.       WML                         :COMPANY
 WELL.                          B62B0898 :WELL
 FLD .    Voerendaal                     :FIELD
 CNTY.                                   :COUNTY
 STAT.                                   :STATE
 SRVC.                                   :SERVICE COMPANY
 DATE.     17-NOV-90                     :LOG DATE
 UWI .                                   :UNIQUE WELL ID
 LIC .                                   :LICENSE NUMBER
~Curve Information Block
#MNEM.UNIT      API CODE     Curve Description
#---------    -------------  ------------------------
DEPTH    .M         00 000 00 00          :  1  DEPTH
UFLOW    .M/S       00 000 00 00          :  2  UFLOW
TEMP     .DEGC      00 000 00 00          :  3  TEMP
SN40     .OHM.M     00 000 00 00          :  4  SN40
SP       .V         00 000 00 00          :  5  SP
CAL      .MM        00 000 00 00          :  6  CAL
TEMP     .DEGC      00 000 00 00          :  7  TEMP
GAMMA    .CPS       00 000 00 00          :  8  GAMMA
LN160    .OHM.M     00 000 00 00          :  9  LN160
~Parameter Information Block
#MNEM.UNIT   Information     Description
#---------- ---------------  ------------------------
 FILE.                         :File Type
 FIID.                         :File Type Identifier
 VERS.                         :System Version
 SER .                         :System Serial Number
 TRUK.                         :Truck Calibration Number
 TOOL.                         :Tool Serial Number
 TIME.                         :Time    HrHrMinMin
 LAT .                         :Latitude
 LON .                         :Longitude
 LMF .            MV           :LOG Measured FROM
 DMF .                         :Driller Measured From
 PD  .                         :Permanent Data
 PDEV.                         :Elevation Permanent Data
 EKB .M                        :Elevation Kelly Bushing
 ELEV.DF                       :Elevation DF
 EGL .M                        :Elevation Ground Level
 DRDP.                         :Drillers Depth
 CASD.                         :Casing Diameter
 CASB.                         :Casing Bottom
 CASX.                         :Casing Type
 CAST.                         :Casing Thickness
 TNOC.                         :Time Circulation Stopped
 LOGU.                         :Logging Unit
 RECB.            Veenendaal   :Recorded By
 OSR1.                         :Other Services
 OSR2.                         :Other Services
 OSR3.                         :Other Services
 BS  .MM                       :Bit Size
 MST .                         :Mean Surface Temperature
 TGRD.                         :Temperature Gradiant
 MAGN.                         :Magnetic Declination
 MDEN.                         :Density Matrix
 MATR.                         :Neutron Matrix
 DTMT.                         :Delta T Matrix
 DTFL.                         :Delta T Fluid
 MUDS.                         :Mud Sample Source
 MRS .                         :Mud Resistivity
 MTP .                         :Mud Temperature
 MFRS.                         :Resistivity Mud Filtrate
 MFTP.                         :Temperature Mud Filtrate
 MCRS.                         :Resistivity Mud Cake
 MCTP.                         :Temperature Mud Cake
 FTYP.                         :Fluid Type
 FD  .K/M3                     :Fluid Density
 DFV .S                        :Fluid Viscosity
 FPH .                         :Fuild PH
 ELCO.                         :Electron Cutoff
~Other Information
#MNEM.UNIT  Information      Description
#---------- ---------------  ------------------------
# --------------------------
## COMMENTS    Top_Depth   Bot_Depth  LithCode  Lat    Long   Elev_Gl
##    Type of LithCode   Lithologie - 1970
##                    .00         .80         .00     
##                    .85        2.25       19.00     
##                   2.30        6.15       12.00     
##                   6.20       28.50        7.00     
##                  28.55       40.50        9.00     
##                  40.55       74.60         .00     
##                  74.65       78.00       10.00     
##                  78.05       78.05         .00     
##    last_layer   78.05
# --------------------------
~A DEPTH    UFLOW    TEMP     SN40     SP       CAL      TEMP     GAMMA    LN160    
# ...
    60.300    15.940    10.710    47.200      .078   560.400    11.380     4.850    73.460
    60.350    16.050    10.710    47.390      .077   560.600    11.390     4.810    72.990
    60.400    16.130    10.710    47.590      .077   565.000    11.390     4.760    72.440
    60.450    16.170    10.710    47.740      .077   565.700    11.390     4.760    72.020
    60.500    16.190    10.710    47.800      .076   566.100    11.390     4.780    71.570
    60.550    16.210    10.710    47.750      .076   567.300    11.390     4.810    71.110
    60.600    16.150    10.700    47.580      .075   572.400    11.390     4.820    70.860
    60.650    16.040    10.700    47.350      .075   577.000    11.390     4.790    70.600
    60.700    15.840    10.700    47.050      .074   579.500    11.390     4.750    70.230
    60.750    15.540    10.690    46.390      .074   582.700    11.400     4.750    69.950
    60.800    15.060    10.690    46.160      .073   591.100    11.400     4.850    69.710
    60.850    14.900    10.690    45.920      .072   593.200    11.400     4.920    69.480
    60.900    15.000    10.690    45.680      .072   592.300    11.400     4.950    69.320
    60.950    15.230    10.690    45.440      .071   591.500    11.400     4.930    69.190
    61.000    15.460    10.690    45.180      .070   590.000    11.400     4.890    69.050
    61.050    15.750    10.690    44.970      .070   587.600    11.400     4.870    68.920
    61.100    15.980    10.690    44.820      .069   561.200    11.400     4.910    68.790
    61.150    16.420    10.700    44.720      .067   558.500    11.410     4.940    68.640
    61.200    16.480    10.700    44.650      .066   556.800    11.410     4.970    68.430
    61.250    16.460    10.710    44.590      .066   554.400    11.410     5.030    68.230
    61.300    16.350    10.710    44.550      .065   546.600    11.410     5.080    68.020
    61.350    16.130    10.720    44.490      .065   546.900    11.410     5.140    67.960
    61.400    15.810    10.730    44.370      .065   546.300    11.410     5.210    68.010
    61.450    15.410    10.730    44.240      .064   544.300    11.410     5.240    67.980
    61.500    14.950    10.740    44.080      .064   546.700    11.410     5.240    68.140
    61.550    14.560    10.750    43.860      .064   550.700    11.410     5.170    68.330
    61.600    13.910    10.750    43.650      .064   550.200    11.410     5.060    68.470
    61.650    13.500    10.760    43.380      .064   550.100    11.410     4.850    68.640
    61.700    13.210    10.760    43.140      .064   550.700    11.410     4.800    68.730
    61.750    13.140    10.770    42.870      .063   550.900    11.410     4.780    68.800
    61.800    13.210    10.770    42.550      .063   551.000    11.420     4.800    68.850
    61.850    13.330    10.780    42.240      .063   550.600    11.420     4.780    68.780
    61.900    13.620    10.780    42.050      .062   550.500    11.420     4.740    68.700
    61.950    14.330    10.780    42.050      .062   550.700    11.420     4.730    68.630
    62.000    15.270    10.780    42.140      .061   551.200    11.420     4.750    68.630
    62.050    16.000    10.790    42.260      .061   551.700    11.420     4.810    68.580
    62.100    16.240    10.790    42.370      .061   552.300    11.420     4.860    68.510
    62.150    16.340    10.790    42.430      .060   552.000    11.420     4.890    68.450
    62.200    16.360    10.800    42.240      .060   550.800    11.420     4.870    68.380
    62.250    16.300    10.800    41.940      .059   548.100    11.420     4.830    68.350
    62.300    16.200    10.800    41.690      .059   546.400    11.420     4.760    68.370
    62.350    16.010    10.800    41.410      .058   536.700    11.420     4.740    68.410
    62.400    15.740    10.800    41.220      .058   537.600    11.430     4.740    68.440
    62.450    15.510    10.800    41.100      .058   542.300    11.430     4.750    68.470
    62.500    15.330    10.800    41.050      .059   548.800    11.430     4.740    68.530
    62.550    15.120    10.800    41.180      .060   551.200    11.430     4.730    68.590
    62.600    15.080    10.800    41.380      .061   549.000    11.430     4.740    68.720
    62.650    15.130    10.800    41.570      .063   547.000    11.430     4.810    68.810
    62.700    15.220    10.810    41.660      .065   546.000    11.430     4.840    68.870
    62.750    15.390    10.810    41.710      .066   544.600    11.430     4.870    68.920
    62.800    15.600    10.810    41.710      .067   544.300    11.430     4.950    68.970
    62.850    16.010    10.810    41.690      .067   545.000    11.440     5.010    69.000
    62.900    16.470    10.810    41.710      .067   546.700    11.440     5.050    69.010
    62.950    16.800    10.810    41.720      .065   549.300    11.440     5.080    68.990
    63.000    16.850    10.810    41.750      .064   550.400    11.440     5.100    68.960
    63.050    16.880    10.810    41.860      .063   550.700    11.440     5.060    68.870
    63.100    16.910    10.810    41.960      .063   553.400    11.440     4.990    68.830
    63.150    16.860    10.810    42.130      .063   554.600    11.440     4.960    68.790
    63.200    16.900    10.810    42.280      .062   555.300    11.440     4.940    68.780
    63.250    17.160    10.800    42.530      .062   555.700    11.440     4.920    68.770
    63.300    17.720    10.800    42.820      .061   555.100    11.450     4.840    68.770
    63.350    18.030    10.790    43.100      .061   554.100    11.450     4.720    68.760
    63.400    18.510    10.790    43.440      .060   553.400    11.450     4.280    68.750
    63.450    18.750    10.790    43.730      .059   551.500    11.450     4.030    68.770
    63.500    18.840    10.780    43.990      .059   544.500    11.450     3.840    68.800
    63.550    18.790    10.780    44.190      .058   541.200    11.450     3.810    68.860
    63.600    18.660    10.780    44.300      .058   542.200    11.450     3.770    68.950
    63.650    18.480    10.780    44.360      .057   543.700    11.450     3.690    69.060
    63.700    18.360    10.780    44.420      .055   543.300    11.450     3.610    69.150
    63.750    18.340    10.780    44.440      .054   543.400    11.450     3.520    69.260
    63.800    18.480    10.780    44.420      .053   544.200    11.450     3.520    69.410
    63.850    18.730    10.780    44.420      .053   544.800    11.450     3.670    69.560
    63.900    19.110    10.780    44.420      .053   545.400    11.450     3.810    69.770
    63.950    19.670    10.780    44.460      .052   547.000    11.450     4.010    70.110
    64.000    19.960    10.780    44.510      .051   551.700    11.460     4.240    70.480
    64.050    20.260    10.780    44.610      .051   555.900    11.460     4.380    70.920
    64.100    20.370    10.790    44.710      .050   558.300    11.460     4.570    71.380
    64.150    20.350    10.790    44.830      .050   558.500    11.460     4.930    71.850
    64.200    20.270    10.790    44.950      .049   557.500    11.460     5.160    72.290
    64.250    19.940    10.790    45.080      .048   555.000    11.460     5.290    72.790
    64.300    19.460    10.790    45.240      .048   548.900    11.460     5.270    73.300
    64.350    18.730    10.790    45.410      .048   547.800    11.460     5.230    73.550
    64.400    18.440    10.790    45.550      .047   549.300    11.460     5.320    73.560
    64.450    18.350    10.780    45.780      .047   548.800    11.460     5.380    73.440
    64.500    18.380    10.780    46.010      .047   548.300    11.460     5.340    73.200
    64.550    18.540    10.780    46.210      .047   547.500    11.460     5.300    72.760
    64.600    18.760    10.780    46.370      .047   544.700    11.460     5.280    72.190
    64.650    18.930    10.790    46.640      .047   544.600    11.460     5.300    71.420
