~Version Information
 VERS.                2.0:  CWLS LOG ASCII STANDARD -VERSION 2.0
 WRAP.                 NO:  ONE LINE PER DEPTH STEP
~WELL INFORMATION BLOCK
#MNEM.UNIT       DATA		            DESCRIPTION OF MNEMONIC
#---------    -------------            ------------------------
 STRT.M      .450                        :START DEPTH
 STOP.M   #######                        :STOP DEPTH
 STEP.M      .050                        :STEP
 NULL.    -999999.0                      :NULL VALUE
 COMP.       SCHIFOOD                    :COMPANY
 WELL.                          B62B0899 :WELL
 FLD .    Heerlen                        :FIELD
 CNTY.                                   :COUNTY
 STAT.                                   :STATE
 SRVC.                                   :SERVICE COMPANY
 DATE.     23-JAN-91                     :LOG DATE
 UWI .                                   :UNIQUE WELL ID
 LIC .                                   :LICENSE NUMBER
~Curve Information Block
#MNEM.UNIT      API CODE     Curve Description
#---------    -------------  ------------------------
DEPTH    .M         00 000 00 00          :  1  DEPTH
SN40     .OHM.M     00 000 00 00          :  2  SN40
SP       .V         00 000 00 00          :  3  SP
CAL      .MM        00 000 00 00          :  4  CAL
LN160    .OHM.M     00 000 00 00          :  5  LN160
GAMMA    .CPS       00 000 00 00          :  6  GAMMA
~Parameter Information Block
#MNEM.UNIT   Information     Description
#---------- ---------------  ------------------------
 FILE.                         :File Type
 FIID.                         :File Type Identifier
 VERS.                         :System Version
 SER .                         :System Serial Number
 TRUK.                         :Truck Calibration Number
 TOOL.                         :Tool Serial Number
 TIME.                         :Time    HrHrMinMin
 LAT .                         :Latitude
 LON .                         :Longitude
 LMF .            MV           :LOG Measured FROM
 DMF .                         :Driller Measured From
 PD  .                         :Permanent Data
 PDEV.                         :Elevation Permanent Data
 EKB .M                        :Elevation Kelly Bushing
 ELEV.DF                       :Elevation DF
 EGL .M                        :Elevation Ground Level
 DRDP.                         :Drillers Depth
 CASD.                         :Casing Diameter
 CASB.                         :Casing Bottom
 CASX.                         :Casing Type
 CAST.                         :Casing Thickness
 TNOC.                         :Time Circulation Stopped
 LOGU.                         :Logging Unit
 RECB.            Veenendaal   :Recorded By
 OSR1.                         :Other Services
 OSR2.                         :Other Services
 OSR3.                         :Other Services
 BS  .MM                       :Bit Size
 MST .                         :Mean Surface Temperature
 TGRD.                         :Temperature Gradiant
 MAGN.                         :Magnetic Declination
 MDEN.                         :Density Matrix
 MATR.                         :Neutron Matrix
 DTMT.                         :Delta T Matrix
 DTFL.                         :Delta T Fluid
 MUDS.                         :Mud Sample Source
 MRS .                         :Mud Resistivity
 MTP .                         :Mud Temperature
 MFRS.                         :Resistivity Mud Filtrate
 MFTP.                         :Temperature Mud Filtrate
 MCRS.                         :Resistivity Mud Cake
 MCTP.                         :Temperature Mud Cake
 FTYP.                         :Fluid Type
 FD  .K/M3                     :Fluid Density
 DFV .S                        :Fluid Viscosity
 FPH .                         :Fuild PH
 ELCO.                         :Electron Cutoff
~Other Information
#MNEM.UNIT  Information      Description
#---------- ---------------  ------------------------
# --------------------------
## COMMENTS    Top_Depth   Bot_Depth  LithCode  Lat    Long   Elev_Gl
##    Type of LithCode   Lithologie - 1970
##                    .00         .00         .00     
##                    .45        5.75         .00     
##                   5.80        7.15       13.00     
##                   7.20        8.50        2.00     
##                   8.55       10.20       23.00     
##                  10.25       11.30       11.00     
##                  11.35       15.15       23.00     
##                  15.20       18.40       21.00     
##                  18.45       27.30       12.00     
##                  27.35       39.00       11.00     
##                  39.05       47.15       12.00     
##                  47.20       49.00       10.00     
##                  49.05       51.00        7.00     
##                  51.05       54.00       10.00     
##                  54.05       55.80        9.00     
##                  55.85       57.00       20.00     
##                  57.05       58.00        9.00     
##                  58.05       60.00       20.00     
##                  60.05       63.20       11.00     
##                  63.25       67.00        8.00     
##                  67.05       70.20        9.00     
##                  70.25       74.00        7.00     
##                  74.05       75.70        9.00     
##                  75.75       78.00        7.00     
##                  78.05       84.00        8.00     
##                  84.05       92.00        9.00     
##                  92.05       94.10       10.00     
##                  94.15       97.50        9.00     
##                  97.55      100.55       10.00     
##                 100.60      100.60         .00     
##                 100.65      126.40     #######     
##    last_layer   126.4
# --------------------------
~A DEPTH    SN40     SP       CAL      LN160    GAMMA    
# ...
    13.300    26.750      .086   565.700    39.590     9.610
    13.350    26.800      .086   565.100    39.620     9.820
    13.400    26.860      .086   564.500    39.650     9.930
    13.450    26.910      .086   564.200    39.700     9.990
    13.500    26.960      .085   564.200    39.760     9.530
    13.550    27.010      .085   564.600    39.810     9.420
    13.600    27.070      .085   565.300    39.880     9.340
    13.650    27.120      .085   565.900    39.960     9.120
    13.700    27.170      .085   566.300    40.060     8.930
    13.750    27.220      .085   566.600    40.150     8.780
    13.800    27.290      .085   566.600    40.240     8.470
    13.850    27.360      .085   566.600    40.340     8.310
    13.900    27.440      .085   566.500    40.410     8.270
    13.950    27.530      .085   566.100    40.540     8.370
    14.000    27.630      .085   565.500    40.660     8.780
    14.050    27.740      .085   565.100    40.780     9.010
    14.100    27.850      .085   565.100    40.920     9.070
    14.150    27.970      .085   565.100    41.060     9.280
    14.200    28.080      .085   565.300    41.190     9.460
    14.250    28.190      .085   565.500    41.320     9.250
    14.300    28.300      .085   565.700    41.470     8.900
    14.350    28.420      .085   565.700    41.640     8.790
    14.400    28.560      .085   565.800    41.790     8.680
    14.450    28.690      .085   565.800    41.940     8.650
    14.500    28.830      .085   566.000    42.100     8.710
    14.550    28.950      .085   566.200    42.250     8.850
    14.600    29.070      .085   566.300    42.400     8.940
    14.650    29.220      .085   566.400    42.510     9.140
    14.700    29.330      .085   566.500    42.630     9.310
    14.750    29.450      .085   566.400    42.780     9.360
    14.800    29.600      .085   566.100    42.870     9.150
    14.850    29.740      .085   565.400    42.970     8.650
    14.900    29.860      .085   563.800    43.050     8.170
    14.950    29.970      .085   562.600    43.130     8.180
    15.000    30.090      .084   560.900    43.220     8.120
    15.050    30.260      .084   558.300    43.340     7.650
    15.100    30.440      .084   557.700    43.420     7.210
    15.150    30.560      .084   558.400    43.490     6.780
    15.200    30.650      .084   560.100    43.610     6.340
    15.250    30.830      .084   561.200    43.740     6.310
    15.300    31.030      .084   561.700    43.900     6.510
    15.350    31.240      .084   561.000    44.040     6.700
    15.400    31.470      .084   557.800    44.180     6.900
    15.450    31.680      .084   555.500    44.350     7.100
    15.500    31.890      .084   554.600    44.510     7.300
    15.550    32.070      .084   551.000    44.680     7.120
    15.600    32.260      .084   550.500    44.820     6.720
    15.650    32.440      .084   550.900    44.960     6.670
    15.700    32.580      .084   551.600    45.100     6.700
    15.750    32.730      .084   554.400    45.270     6.820
    15.800    32.870      .084   556.000    45.410     7.000
    15.850    33.020      .084   554.300    45.560     7.120
    15.900    33.160      .084   552.500    45.720     7.130
    15.950    33.290      .083   553.100    45.860     7.070
    16.000    33.440      .083   552.700    46.030     6.470
    16.050    33.540      .083   551.000    46.260     5.990
    16.100    33.630      .083   549.800    46.520     5.830
    16.150    33.750      .083   549.100    46.820     5.660
    16.200    33.880      .083   547.500    47.090     5.550
    16.250    34.000      .083   545.500    47.400     5.390
    16.300    34.100      .083   546.500    47.610     5.420
    16.350    34.200      .083   546.500    47.780     5.620
    16.400    34.260      .083   546.000    47.830     5.560
    16.450    34.350      .083   549.200    47.850     5.350
    16.500    34.440      .083   549.100    47.860     5.090
    16.550    34.540      .083   547.100    47.840     5.060
    16.600    34.630      .083   550.900    47.820     5.240
    16.650    34.780      .083   549.600    47.770     5.710
    16.700    34.900      .083   548.200    47.760     5.730
    16.750    35.070      .083   548.800    47.750     5.750
    16.800    35.270      .083   551.800    47.740     5.760
    16.850    35.460      .083   550.800    47.720     5.690
    16.900    35.600      .083   548.600    47.700     5.450
    16.950    35.760      .083   549.200    47.660     5.260
    17.000    35.890      .083   548.900    47.560     5.080
    17.050    35.990      .083   547.600    47.440     4.960
    17.100    36.080      .083   547.000    47.310     4.850
    17.150    36.140      .083   548.400    47.130     4.790
    17.200    36.190      .083   550.000    46.930     4.860
    17.250    36.180      .083   549.600    46.780     4.940
    17.300    36.170      .083   548.400    46.570     4.880
    17.350    36.160      .083   551.100    46.330     4.830
    17.400    36.130      .083   551.500    46.090     4.890
    17.450    36.070      .083   550.600    45.760     5.170
    17.500    35.960      .083   552.000    45.460     5.440
    17.550    35.820      .083   552.600    45.290     5.470
    17.600    35.660      .083   554.000    45.130     5.520
    17.650    35.470      .083   554.400    44.840     5.710
    17.700    35.280      .083   554.100    44.660     6.030
    17.750    34.950      .083   553.500    44.470     6.280
    17.800    34.680      .083   553.000    44.300     6.540
    17.850    34.340      .083   552.900    44.160     6.800
    17.900    33.970      .083   553.300    43.980     7.060
    17.950    33.660      .083   554.200    43.800     7.380
    18.000    33.330      .083   555.500    43.620     7.660
    18.050    33.090      .083   555.700    43.380     7.600
    18.100    32.730      .083   556.100    43.050     7.420
    18.150    32.380      .083   556.900    42.720     7.480
    18.200    31.820      .084   557.300    42.350     7.690
    18.250    31.510      .084   558.300    42.040     7.750
    18.300    30.960      .084   562.100    41.780     7.760
    18.350    30.450      .084   562.500    41.390     7.810
    18.400    29.930      .084   562.200    41.070     7.960
    18.450    29.410      .084   561.800    40.810     8.470
    18.500    29.070      .084   560.000    40.560     8.700
    18.550    28.720      .084   558.400    40.400     8.970
    18.600    28.510      .084   555.900    40.230     9.110
    18.650    28.280      .084   556.700    39.980     9.020
    18.700    28.000      .085   558.200    39.630     9.040
    18.750    27.770      .085   559.900    39.280     9.120
    18.800    27.540      .085   561.600    38.980     9.210
    18.850    27.250      .085   562.700    38.800     9.470
    18.900    26.990      .085   563.500    38.630     9.640
    18.950    26.790      .085   563.700    38.450     9.790
    19.000    26.490      .085   563.700    38.330     9.580
    19.050    26.260      .085   563.900    38.200     8.900
    19.100    26.050      .086   564.400    38.040     8.220
    19.150    25.640      .086   564.400    37.870     7.940
    19.200    25.440      .086   564.000    37.720     7.830
    19.250    25.070      .086   563.500    37.570     7.830
    19.300    24.740      .086   563.100    37.430     8.040
    19.350    24.550      .086   563.000    37.310     8.230
    19.400    24.310      .086   563.000    37.210     8.360
    19.450    24.170      .086   562.400    37.110     8.330
    19.500    24.070      .086   558.500    37.010     8.150
    19.550    24.000      .086   554.700    36.900     8.010
    19.600    23.930      .086   552.600    36.800     7.970
    19.650    23.870      .086   552.100    36.720     8.100
    19.700    23.840      .086   552.200    36.630     8.130
    19.750    23.820      .086   552.500    36.540     8.240
    19.800    23.810      .086   553.300    36.440     9.070
    19.850    23.830      .086   554.400    36.350     9.280
