~Version Information
 VERS.                2.0:  CWLS LOG ASCII STANDARD -VERSION 2.0
 WRAP.                 NO:  ONE LINE PER DEPTH STEP
~WELL INFORMATION BLOCK
#MNEM.UNIT       DATA		            DESCRIPTION OF MNEMONIC
#---------    -------------            ------------------------
 STRT.M      .450                        :START DEPTH
 STOP.M   #######                        :STOP DEPTH
 STEP.M      .050                        :STEP
 NULL.    -999999.0                      :NULL VALUE
 COMP.       SCHIFOOD                    :COMPANY
 WELL.                          B62B0899 :WELL
 FLD .    Heerlen                        :FIELD
 CNTY.                                   :COUNTY
 STAT.                                   :STATE
 SRVC.                                   :SERVICE COMPANY
 DATE.     23-JAN-91                     :LOG DATE
 UWI .                                   :UNIQUE WELL ID
 LIC .                                   :LICENSE NUMBER
~Curve Information Block
#MNEM.UNIT      API CODE     Curve Description
#---------    -------------  ------------------------
DEPTH    .M         00 000 00 00          :  1  DEPTH
SN40     .OHM.M     00 000 00 00          :  2  SN40
SP       .V         00 000 00 00          :  3  SP
CAL      .MM        00 000 00 00          :  4  CAL
LN160    .OHM.M     00 000 00 00          :  5  LN160
GAMMA    .CPS       00 000 00 00          :  6  GAMMA
~Parameter Information Block
#MNEM.UNIT   Information     Description
#---------- ---------------  ------------------------
 FILE.                         :File Type
 FIID.                         :File Type Identifier
 VERS.                         :System Version
 SER .                         :System Serial Number
 TRUK.                         :Truck Calibration Number
 TOOL.                         :Tool Serial Number
 TIME.                         :Time    HrHrMinMin
 LAT .                         :Latitude
 LON .                         :Longitude
 LMF .            MV           :LOG Measured FROM
 DMF .                         :Driller Measured From
 PD  .                         :Permanent Data
 PDEV.                         :Elevation Permanent Data
 EKB .M                        :Elevation Kelly Bushing
 ELEV.DF                       :Elevation DF
 EGL .M                        :Elevation Ground Level
 DRDP.                         :Drillers Depth
 CASD.                         :Casing Diameter
 CASB.                         :Casing Bottom
 CASX.                         :Casing Type
 CAST.                         :Casing Thickness
 TNOC.                         :Time Circulation Stopped
 LOGU.                         :Logging Unit
 RECB.            Veenendaal   :Recorded By
 OSR1.                         :Other Services
 OSR2.                         :Other Services
 OSR3.                         :Other Services
 BS  .MM                       :Bit Size
 MST .                         :Mean Surface Temperature
 TGRD.                         :Temperature Gradiant
 MAGN.                         :Magnetic Declination
 MDEN.                         :Density Matrix
 MATR.                         :Neutron Matrix
 DTMT.                         :Delta T Matrix
 DTFL.                         :Delta T Fluid
 MUDS.                         :Mud Sample Source
 MRS .                         :Mud Resistivity
 MTP .                         :Mud Temperature
 MFRS.                         :Resistivity Mud Filtrate
 MFTP.                         :Temperature Mud Filtrate
 MCRS.                         :Resistivity Mud Cake
 MCTP.                         :Temperature Mud Cake
 FTYP.                         :Fluid Type
 FD  .K/M3                     :Fluid Density
 DFV .S                        :Fluid Viscosity
 FPH .                         :Fuild PH
 ELCO.                         :Electron Cutoff
~Other Information
#MNEM.UNIT  Information      Description
#---------- ---------------  ------------------------
# --------------------------
## COMMENTS    Top_Depth   Bot_Depth  LithCode  Lat    Long   Elev_Gl
##    Type of LithCode   Lithologie - 1970
##                    .00         .00         .00     
##                    .45        5.75         .00     
##                   5.80        7.15       13.00     
##                   7.20        8.50        2.00     
##                   8.55       10.20       23.00     
##                  10.25       11.30       11.00     
##                  11.35       15.15       23.00     
##                  15.20       18.40       21.00     
##                  18.45       27.30       12.00     
##                  27.35       39.00       11.00     
##                  39.05       47.15       12.00     
##                  47.20       49.00       10.00     
##                  49.05       51.00        7.00     
##                  51.05       54.00       10.00     
##                  54.05       55.80        9.00     
##                  55.85       57.00       20.00     
##                  57.05       58.00        9.00     
##                  58.05       60.00       20.00     
##                  60.05       63.20       11.00     
##                  63.25       67.00        8.00     
##                  67.05       70.20        9.00     
##                  70.25       74.00        7.00     
##                  74.05       75.70        9.00     
##                  75.75       78.00        7.00     
##                  78.05       84.00        8.00     
##                  84.05       92.00        9.00     
##                  92.05       94.10       10.00     
##                  94.15       97.50        9.00     
##                  97.55      100.55       10.00     
##                 100.60      100.60         .00     
##                 100.65      126.40     #######     
##    last_layer   126.4
# --------------------------
~A DEPTH    SN40     SP       CAL      LN160    GAMMA    
# ...
   118.900    45.650      .086   450.800    60.140     6.390
   118.950    46.070      .086   454.400    60.210     6.500
   119.000    46.270      .086   455.200    60.290     6.690
   119.050    46.340      .087   456.500    60.380     6.780
   119.100    45.660      .087   457.500    60.470     6.910
   119.150    45.170      .088   458.500    60.570     6.870
   119.200    45.030      .089   458.400    60.670     6.650
   119.250    44.990      .089   456.300    60.750     6.570
   119.300    45.020      .090   453.700    60.870     6.570
   119.350    45.110      .091   451.600    60.990     6.670
   119.400    45.190      .091   451.300    61.040     6.870
   119.450    45.360      .092   451.400    61.080     6.960
   119.500    45.460      .092   451.800    61.120     6.850
   119.550    45.510      .093   452.600    61.120     6.480
   119.600    45.550      .094   453.200    61.080     6.380
   119.650    45.660      .094   453.800    61.050     6.390
   119.700    45.810      .094   454.000    60.940     6.530
   119.750    45.980      .094   454.300    60.840     6.810
   119.800    46.070      .094   454.900    60.740     7.080
   119.850    46.080      .094   456.000    60.650     7.360
   119.900    45.990      .094   457.500    60.450     7.390
   119.950    45.860      .094   457.900    60.170     7.300
   120.000    45.750      .094   457.600    59.920     6.760
   120.050    45.680      .094   456.000    59.810     6.400
   120.100    45.660      .094   455.600    59.710     6.270
   120.150    45.660      .094   455.600    59.690     6.170
   120.200    45.660      .094   455.600    59.680     6.120
   120.250    45.660      .095   455.300    59.680     6.120
   120.300    45.660      .095   454.900    59.710     6.180
   120.350    45.590      .095   454.700    59.740     6.250
   120.400    45.470      .095   454.700    59.760     6.310
   120.450    45.310      .095   454.800    59.790     6.220
   120.500    45.060      .095   454.800    59.790     5.950
   120.550    44.670      .095   454.500    59.800     5.820
   120.600    44.220      .096   453.600    59.810     5.790
   120.650    43.870      .096   452.200    59.800     5.770
   120.700    43.490      .096   451.700    59.760     5.720
   120.750    43.320      .096   451.900    59.700     5.650
   120.800    43.220      .096   452.500    59.620     5.620
   120.850    43.200      .096   454.800    59.480     5.620
   120.900    43.220      .096   455.500    59.260     5.660
   120.950    43.250      .097   456.400    58.990     5.690
   121.000    43.300      .097   456.400    58.630     5.530
   121.050    43.340      .097   455.200    58.190     5.450
   121.100    43.360      .097   453.600    57.570     5.450
   121.150    43.390      .097   453.400    56.610     5.330
   121.200    43.420      .097   453.600    56.130     5.180
   121.250    43.490      .097   454.100    54.940     5.070
   121.300    43.590      .097   455.000    54.530     4.950
   121.350    43.730      .097   456.800    54.170     4.890
   121.400    43.840      .097   457.900    54.000     4.850
   121.450    43.890      .097   458.200    53.890     4.920
   121.500    43.930      .098   457.600    53.790     5.300
   121.550    43.840      .098   455.600    53.720     5.680
   121.600    43.680      .098   454.400    53.660     6.050
   121.650    43.310      .098   453.900    53.570     6.430
   121.700    42.560      .098   454.300    53.450     6.770
   121.750    42.080      .098   454.700    53.270     6.670
   121.800    41.750      .098   454.100    52.990     6.550
   121.850    41.550      .098   451.400    52.730     6.360
   121.900    41.460      .098   451.100    52.380     6.110
   121.950    41.350      .098   450.700    52.120     6.090
   122.000    41.310      .098   449.800    52.020     6.140
   122.050    41.280      .098   449.500    51.990     6.230
   122.100    41.220      .098   449.600    52.000     6.400
   122.150    41.130      .098   450.200    52.040     6.700
   122.200    40.960      .098   450.800    52.070     7.360
   122.250    40.730      .098   451.900    52.210     7.450
   122.300    40.450      .097   452.700    52.360     7.500
   122.350    40.200      .096   453.500    52.560     7.590
   122.400    39.960      .094   453.700    52.850     7.750
   122.450    39.790      .093   453.700    53.070     8.010
   122.500    39.630      .091   453.600    53.310     8.260
   122.550    39.530      .089   453.800    53.610     8.660
   122.600    39.510      .088   453.800    53.840     8.860
   122.650    39.500      .086   452.800    53.990     9.150
   122.700    39.520      .084   450.600    54.040     9.000
   122.750    39.570      .082   450.300    54.040     8.780
   122.800    39.670      .081   450.800    54.030     8.650
   122.850    39.770      .079   451.900    53.920     8.610
   122.900    39.860      .077   453.100    53.820     8.570
   122.950    39.820      .076   455.000    53.620     8.540
   123.000    39.790      .075   455.000    53.220     8.340
   123.050    39.760      .074   452.200    52.800     8.070
   123.100    39.740      .074   448.100    52.150     7.830
   123.150    39.760      .074   446.900    51.550     7.960
   123.200    39.820      .074   446.800    51.060     7.810
   123.250    39.980      .074   447.300    50.900     7.750
   123.300    40.210      .074   447.600    50.780     7.780
   123.350    40.490      .074   450.500    50.730     7.780
   123.400    40.760      .074   452.500    50.740     7.700
   123.450    40.930      .074   453.400    50.770     6.950
   123.500    41.000      .074   454.000    50.810     7.160
   123.550    40.950      .074   454.800    50.850     7.570
   123.600    40.770      .074   454.600    50.900     7.650
   123.650    40.600      .074   453.800    50.960     7.690
   123.700    40.500      .074   453.800    51.030     7.740
   123.750    40.430      .074   453.800    51.090     7.970
   123.800    40.410      .074   453.900    51.170     8.200
   123.850    40.490      .074   454.000    51.260     8.430
   123.900    40.730      .074   454.200    51.350     8.360
   123.950    41.210      .075   453.700    51.450     7.820
   124.000    41.830      .075   451.300    51.570     7.380
   124.050    42.460      .075   450.000    51.690     7.240
   124.100    42.410      .075   449.800    51.780     6.720
   124.150    42.240      .075   450.000    51.840     6.360
   124.200    41.900      .075   450.400    51.880     6.440
   124.250    41.720      .076   451.100    51.900     6.850
   124.300    41.030      .076   451.800    51.930     6.970
   124.350    40.850      .076   452.000    51.950     7.110
   124.400    40.840      .076   451.900    51.970     7.160
   124.450    40.900      .076   451.800    52.000     7.270
   124.500    41.090      .076   452.300    52.040     7.220
   124.550    41.410      .076   453.100    52.060     6.760
   124.600    41.780      .076   454.300    52.040     6.310
   124.650    42.170      .076   454.900    51.950     6.450
   124.700    42.240      .077   455.400    51.800     6.570
   124.750    42.050      .077   455.400    51.510     6.620
   124.800    41.840      .077   454.800    50.680     6.570
   124.850    41.790      .077   453.500    50.400     6.350
   124.900    41.830      .077   452.900    49.860     6.220
   124.950    41.840      .077   452.700    49.500     5.980
   125.000    41.890      .077   452.900    49.360     5.930
   125.050    41.840      .077   452.900    49.180     5.870
   125.100    41.740      .077   453.100    48.920     5.690
   125.150    41.650      .077   453.500    48.750     5.700
   125.200    41.510      .077   454.400    48.590     5.690
   125.250    40.710      .077   454.400    48.520     5.660
   125.300    40.130      .077   453.300    48.500     5.630
   125.350    39.910      .077   451.500    48.490     5.630
   125.400    39.840      .076   450.100    48.510     5.680
   125.450    39.910      .074   449.300    48.550     5.750
