~Version Information
 VERS.                2.0:  CWLS LOG ASCII STANDARD -VERSION 2.0
 WRAP.                 NO:  ONE LINE PER DEPTH STEP
~WELL INFORMATION BLOCK
#MNEM.UNIT       DATA		            DESCRIPTION OF MNEMONIC
#---------    -------------            ------------------------
 STRT.M      .000                        :START DEPTH
 STOP.M    68.050                        :STOP DEPTH
 STEP.M      .050                        :STEP
 NULL.    -999999.0                      :NULL VALUE
 COMP.       WML                         :COMPANY
 WELL.                          B62B0903 :WELL
 FLD .    Nuth                           :FIELD
 CNTY.                                   :COUNTY
 STAT.                                   :STATE
 SRVC.                                   :SERVICE COMPANY
 DATE.     13-APR-92                     :LOG DATE
 UWI .                                   :UNIQUE WELL ID
 LIC .                                   :LICENSE NUMBER
~Curve Information Block
#MNEM.UNIT      API CODE     Curve Description
#---------    -------------  ------------------------
DEPTH    .M         00 000 00 00          :  1  DEPTH
GAMMA    .CPS       00 000 00 00          :  2  GAMMA
SN40     .OHM.M     00 000 00 00          :  3  SN40
CAL      .MM        00 000 00 00          :  4  CAL
SP       .V         00 000 00 00          :  5  SP
LN160    .OHM.M     00 000 00 00          :  6  LN160
~Parameter Information Block
#MNEM.UNIT   Information     Description
#---------- ---------------  ------------------------
 FILE.                         :File Type
 FIID.                         :File Type Identifier
 VERS.                         :System Version
 SER .                         :System Serial Number
 TRUK.                         :Truck Calibration Number
 TOOL.                         :Tool Serial Number
 TIME.                         :Time    HrHrMinMin
 LAT .                         :Latitude
 LON .                         :Longitude
 LMF .            MV           :LOG Measured FROM
 DMF .                         :Driller Measured From
 PD  .                         :Permanent Data
 PDEV.                         :Elevation Permanent Data
 EKB .M                        :Elevation Kelly Bushing
 ELEV.DF                       :Elevation DF
 EGL .M                        :Elevation Ground Level
 DRDP.                         :Drillers Depth
 CASD.                         :Casing Diameter
 CASB.                         :Casing Bottom
 CASX.                         :Casing Type
 CAST.                         :Casing Thickness
 TNOC.                         :Time Circulation Stopped
 LOGU.                         :Logging Unit
 RECB.            Bergsma      :Recorded By
 OSR1.                         :Other Services
 OSR2.                         :Other Services
 OSR3.                         :Other Services
 BS  .MM                       :Bit Size
 MST .                         :Mean Surface Temperature
 TGRD.                         :Temperature Gradiant
 MAGN.                         :Magnetic Declination
 MDEN.                         :Density Matrix
 MATR.                         :Neutron Matrix
 DTMT.                         :Delta T Matrix
 DTFL.                         :Delta T Fluid
 MUDS.                         :Mud Sample Source
 MRS .                         :Mud Resistivity
 MTP .                         :Mud Temperature
 MFRS.                         :Resistivity Mud Filtrate
 MFTP.                         :Temperature Mud Filtrate
 MCRS.                         :Resistivity Mud Cake
 MCTP.                         :Temperature Mud Cake
 FTYP.                         :Fluid Type
 FD  .K/M3                     :Fluid Density
 DFV .S                        :Fluid Viscosity
 FPH .                         :Fuild PH
 ELCO.                         :Electron Cutoff
~Other Information
#MNEM.UNIT  Information      Description
#---------- ---------------  ------------------------
# --------------------------
## COMMENTS    Top_Depth   Bot_Depth  LithCode  Lat    Long   Elev_Gl
##    Type of LithCode   Lithologie - 1970
##                    .00        5.00         .00     
##                   5.05        6.80       10.00     
##                   6.85        8.00       11.00     
##                   8.05       11.00       10.00     
##                  11.05       15.00       12.00     
##                  15.05       17.00       10.00     
##                  17.05       18.40       12.00     
##                  18.45       23.00       10.00     
##                  23.05       25.40       12.00     
##                  25.45       28.00        6.00     
##                  28.05       28.35       19.00     
##                  28.40       30.00       11.00     
##                  30.05       31.00       12.00     
##                  31.05       34.00       11.00     
##                  34.05       38.90        6.00     
##                  38.95       40.80       23.00     
##                  40.85       47.45        6.00     
##                  47.50       52.00       21.00     
##                  52.05       60.00       22.00     
##                  60.05       68.00       23.00     
##                  68.05       68.05         .00     
##    last_layer   68.05
# --------------------------
~A DEPTH    GAMMA    SN40     CAL      SP       LN160    
# ...
    39.550    15.460    34.780   500.000      .010    58.030
    39.600    15.380    34.660   500.600      .010    58.350
    39.650    16.320    34.670   502.900      .010    58.600
    39.700    16.950    34.820   503.400      .011    58.880
    39.750    17.290    34.990   501.500      .011    59.090
    39.800    17.430    35.370   501.000      .011    59.290
    39.850    17.610    35.640   497.600      .011    59.470
    39.900    17.890    36.220   497.500      .011    59.590
    39.950    18.180    36.910   494.500      .011    59.700
    40.000    18.350    38.180   489.700      .011    59.820
    40.050    18.600    39.820   486.000      .010    59.930
    40.100    18.770    41.840   485.600      .010    60.030
    40.150    19.360    42.410   487.300      .010    60.140
    40.200    19.500    43.380   489.200      .009    60.240
    40.250    19.880    44.490   488.700      .009    60.340
    40.300    20.060    45.490   486.500      .009    60.450
    40.350    20.110    46.390   486.400      .009    60.570
    40.400    19.870    47.130   485.200      .008    60.800
    40.450    19.290    47.900   483.300      .008    61.750
    40.500    18.980    48.750   482.300      .008    62.270
    40.550    18.730    49.760   481.900      .008    62.860
    40.600    18.600    50.710   481.200      .008    63.620
    40.650    18.370    51.430   480.800      .008    64.030
    40.700    17.560    51.990   480.400      .008    65.330
    40.750    16.440    52.490   480.400      .008    66.330
    40.800    16.100    52.990   481.400      .008    68.530
    40.850    15.620    53.460   483.700      .008    69.680
    40.900    15.190    53.930   484.100      .008    70.550
    40.950    14.210    54.420   483.800      .008    71.540
    41.000    13.940    54.890   485.300      .007    72.380
    41.050    13.430    55.340   484.200      .007    73.150
    41.100    13.030    55.750   484.200      .007    74.350
    41.150    12.910    56.120   485.100      .007    75.080
    41.200    12.890    56.490   481.600      .007    75.770
    41.250    12.960    56.860   483.100      .007    76.480
    41.300    13.080    57.190   484.700      .007    77.200
    41.350    13.170    57.460   482.600      .007    77.850
    41.400    13.200    57.710   483.600      .007    78.450
    41.450    13.020    57.950   483.800      .007    78.920
    41.500    12.550    58.130   483.800      .007    79.570
    41.550    12.480    58.370   483.200      .007    80.380
    41.600    12.510    58.480   482.100      .007    80.930
    41.650    12.580    58.600   483.000      .007    81.460
    41.700    12.550    58.670   482.600      .007    81.900
    41.750    12.110    58.740   481.500      .007    82.360
    41.800    11.880    58.800   480.600      .007    82.700
    41.850    11.500    58.860   479.100      .007    83.020
    41.900    11.720    58.900   479.400      .007    83.340
    41.950    12.130    58.910   481.100      .007    83.570
    42.000    12.290    58.920   482.000      .007    83.760
    42.050    12.920    58.900   479.100      .007    83.930
    42.100    13.210    58.880   478.000      .007    84.060
    42.150    13.400    58.810   478.500      .007    84.200
    42.200    13.470    58.720   481.000      .007    84.290
    42.250    13.440    58.590   482.700      .007    84.380
    42.300    13.390    58.470   484.200      .007    84.430
    42.350    13.540    58.350   481.500      .007    84.460
    42.400    13.760    58.210   480.900      .007    84.450
    42.450    13.910    58.010   479.100      .007    84.440
    42.500    13.890    57.860   479.600      .007    84.430
    42.550    13.760    57.710   480.800      .007    84.420
    42.600    13.570    57.560   477.100      .007    84.370
    42.650    13.700    57.400   476.900      .007    84.330
    42.700    13.830    57.200   478.800      .007    84.270
    42.750    13.960    57.080   481.100      .007    84.210
    42.800    14.160    56.950   482.300      .006    84.130
    42.850    14.260    56.820   482.100      .006    84.070
    42.900    14.090    56.700   481.400      .006    84.010
    42.950    13.920    56.580   481.700      .007    83.980
    43.000    14.020    56.430   480.200      .007    84.000
    43.050    14.310    56.330   479.300      .007    84.020
    43.100    14.500    56.220   478.000      .007    84.000
    43.150    14.710    56.120   480.800      .007    83.950
    43.200    14.960    56.050   481.800      .007    83.880
    43.250    15.170    55.870   483.100      .007    83.810
    43.300    15.320    55.700   484.900      .007    83.750
    43.350    15.430    55.530   481.300      .007    83.710
    43.400    15.540    55.360   478.900      .007    83.670
    43.450    15.500    55.210   480.200      .007    83.620
    43.500    15.270    55.070   479.800      .007    83.570
    43.550    14.950    54.940   481.900      .007    83.530
    43.600    14.370    54.810   483.800      .007    83.470
    43.650    13.990    54.710   482.700      .007    83.400
    43.700    12.750    54.620   480.500      .007    83.340
    43.750    12.440    54.530   480.400      .007    83.210
    43.800    12.370    54.460   481.200      .008    82.960
    43.850    12.360    54.400   483.200      .008    82.760
    43.900    12.260    54.360   486.500      .007    82.460
    43.950    12.040    54.330   482.500      .007    82.200
    44.000    11.920    54.300   479.500      .007    81.980
    44.050    11.720    54.310   482.400      .007    81.820
    44.100    11.540    54.330   477.800      .007    81.630
    44.150    11.530    54.340   477.900      .007    81.410
    44.200    11.650    54.390   481.800      .007    81.120
    44.250    11.860    54.450   478.900      .007    80.770
    44.300    11.920    54.500   475.000      .007    80.500
    44.350    11.930    54.580   481.300      .007    80.220
    44.400    11.820    54.660   478.100      .007    79.930
    44.450    11.800    54.740   479.200      .007    79.630
    44.500    11.960    54.830   482.400      .007    79.330
    44.550    12.240    54.900   479.100      .007    79.030
    44.600    12.420    54.950   479.300      .007    78.730
    44.650    12.740    55.000   482.100      .007    78.430
    44.700    13.470    55.030   478.000      .007    78.150
    44.750    13.710    55.000   477.700      .007    77.880
    44.800    13.900    54.970   477.300      .007    77.610
    44.850    14.150    54.910   480.200      .007    77.330
    44.900    14.290    54.830   480.500      .008    77.050
    44.950    14.210    54.730   478.800      .008    76.740
    45.000    13.830    54.600   481.100      .008    76.500
    45.050    13.860    54.470   484.100      .008    76.260
    45.100    13.940    54.330   480.900      .008    76.020
    45.150    13.940    54.190   480.400      .008    75.750
    45.200    13.790    54.010   482.900      .008    75.470
    45.250    13.570    53.820   483.900      .008    75.180
    45.300    13.440    53.610   480.800      .008    74.910
    45.350    13.330    53.350   480.700      .008    74.650
    45.400    12.990    53.100   480.900      .008    74.390
    45.450    12.580    52.850   479.000      .008    74.090
    45.500    12.400    52.570   476.200      .008    73.790
    45.550    12.170    52.200   477.400      .008    73.540
    45.600    11.930    51.950   478.900      .008    73.190
    45.650    11.940    51.690   480.000      .008    72.800
    45.700    12.260    51.390   484.700      .008    72.490
    45.750    12.690    51.000   480.200      .008    72.190
    45.800    13.180    50.760   482.200      .008    71.950
    45.850    13.260    50.520   482.200      .008    71.580
    45.900    13.140    50.320   478.800      .008    71.200
    45.950    13.040    50.100   478.500      .008    70.830
    46.000    12.860    49.910   484.500      .008    70.460
    46.050    12.620    49.720   479.200      .008    70.050
    46.100    12.570    49.510   481.700      .008    69.600
