~Version Information
 VERS.                2.0:  CWLS LOG ASCII STANDARD -VERSION 2.0
 WRAP.                 NO:  ONE LINE PER DEPTH STEP
~WELL INFORMATION BLOCK
#MNEM.UNIT       DATA		            DESCRIPTION OF MNEMONIC
#---------    -------------            ------------------------
 STRT.M      .150                        :START DEPTH
 STOP.M   #######                        :STOP DEPTH
 STEP.M      .050                        :STEP
 NULL.    -999999.0                      :NULL VALUE
 COMP.       SOFTDR                      :COMPANY
 WELL.                          B62B0927 :WELL
 FLD .    Heerlen                        :FIELD
 CNTY.                                   :COUNTY
 STAT.                                   :STATE
 SRVC.                                   :SERVICE COMPANY
 DATE.     29-MAY-97                     :LOG DATE
 UWI .                                   :UNIQUE WELL ID
 LIC .                                   :LICENSE NUMBER
~Curve Information Block
#MNEM.UNIT      API CODE     Curve Description
#---------    -------------  ------------------------
DEPTH    .M         00 000 00 00          :  1  DEPTH
GAM(NAT) .CPS       00 000 00 00          :  2  GAM(NAT)
SP       .V         00 000 00 00          :  3  SP
RES(16N) .OHM.M     00 000 00 00          :  4  RES(16N)
RES(64N) .OHM.M     00 000 00 00          :  5  RES(64N)
RES      .OHM       00 000 00 00          :  6  RES
~Parameter Information Block
#MNEM.UNIT   Information     Description
#---------- ---------------  ------------------------
 FILE.                         :File Type
 FIID.                         :File Type Identifier
 VERS.                         :System Version
 SER .                         :System Serial Number
 TRUK.                         :Truck Calibration Number
 TOOL.                         :Tool Serial Number
 TIME.                         :Time    HrHrMinMin
 LAT .                         :Latitude
 LON .                         :Longitude
 LMF .            MV           :LOG Measured FROM
 DMF .                         :Driller Measured From
 PD  .                         :Permanent Data
 PDEV.                         :Elevation Permanent Data
 EKB .M                        :Elevation Kelly Bushing
 ELEV.DF                       :Elevation DF
 EGL .M                        :Elevation Ground Level
 DRDP.                         :Drillers Depth
 CASD.                         :Casing Diameter
 CASB.                         :Casing Bottom
 CASX.                         :Casing Type
 CAST.                         :Casing Thickness
 TNOC.                         :Time Circulation Stopped
 LOGU.                         :Logging Unit
 RECB.            Bergsma      :Recorded By
 OSR1.                         :Other Services
 OSR2.                         :Other Services
 OSR3.                         :Other Services
 BS  .MM                       :Bit Size
 MST .                         :Mean Surface Temperature
 TGRD.                         :Temperature Gradiant
 MAGN.                         :Magnetic Declination
 MDEN.                         :Density Matrix
 MATR.                         :Neutron Matrix
 DTMT.                         :Delta T Matrix
 DTFL.                         :Delta T Fluid
 MUDS.                         :Mud Sample Source
 MRS .                         :Mud Resistivity
 MTP .                         :Mud Temperature
 MFRS.                         :Resistivity Mud Filtrate
 MFTP.                         :Temperature Mud Filtrate
 MCRS.                         :Resistivity Mud Cake
 MCTP.                         :Temperature Mud Cake
 FTYP.                         :Fluid Type
 FD  .K/M3                     :Fluid Density
 DFV .S                        :Fluid Viscosity
 FPH .                         :Fuild PH
 ELCO.                         :Electron Cutoff
~Other Information
#MNEM.UNIT  Information      Description
#---------- ---------------  ------------------------
# --------------------------
## COMMENTS    Top_Depth   Bot_Depth  LithCode  Lat    Long   Elev_Gl
##    Type of LithCode   Lithologie - 1970
##                    .15        3.55       62.00     
##                   3.55        5.50        2.00     
##                   5.50        8.70       26.00     
##                   8.70       15.10       63.00     
##                  15.10       19.15       26.00     
##                  19.15       20.70       43.00     
##                  20.70       22.60       26.00     
##                  22.60       30.05       63.00     
##                  30.05       30.85       26.00     
##                  30.85       52.70       63.00     
##                  52.70       54.00       26.00     
##                  54.00       58.15       63.00     
##                  58.15       59.85       26.00     
##                  59.85       66.75       63.00     
##                  66.75       70.35       26.00     
##                  70.35       72.25       63.00     
##                  72.25       73.10       26.00     
##                  73.10       74.40       63.00     
##                  74.40       75.15       26.00     
##                  75.15       75.95       63.00     
##                  75.95       76.75       26.00     
##                  76.75       77.40       63.00     
##                  77.40       78.20       26.00     
##                  78.20       79.70       63.00     
##                  79.70       80.75       26.00     
##                  80.75       81.70       58.00     
##                  81.70       83.15       26.00     
##                  83.15       84.95       58.00     
##                  84.95       87.35       22.00     
##                  87.35       88.60       23.00     
##                  88.60       89.30       58.00     
##                  89.30       91.10       23.00     
##                  91.10       92.35       58.00     
##                  92.35       94.30       23.00     
##                  94.30       99.05       26.00     
##                  99.05      100.50       23.00     
##                 100.50      103.10       26.00     
##                 103.10      105.80       40.00     
##                 105.80      107.05       43.00     
##                 107.05      110.35       57.00     
##                 110.35      112.35       15.00     
##                 112.35      116.10       63.00     
##                 116.10      120.45       32.00     
##                 120.45      121.95       63.00     
##                 121.95      122.70       12.00     
##                 122.70      124.70       15.00     
##                 124.70      127.95       19.00     
##                 127.95      129.55       58.00     
##                 129.55      130.60       38.00     
##                 130.60      132.70       57.00     
##                 132.70      133.60       59.00     
##                 133.60      135.20       57.00     
##                 135.20      135.85       59.00     
##                 135.85      136.50       57.00     
##                 136.50      137.30       58.00     
##    last_layer   137.3
##    Type of LithCode   Lithologie - 1970
##                   1.90        2.15       87.00     
##                   2.15        3.90       84.00     
##                   3.90        4.25       85.00     
##                   4.25       21.95         .00     
##                  21.95       22.35       87.00     
##                  22.35       24.95       84.00     
##                  24.95       25.30       85.00     
##                  25.30       37.95         .00     
##                  37.95       38.25       87.00     
##                  38.25       40.95       84.00     
##                  40.95       41.20       85.00     
##                  41.20       42.00         .00     
##                  42.00       44.95       74.00     
##                  44.95       46.95         .00     
##                  46.95       47.25       87.00     
##                  47.25       50.90       84.00     
##                  50.90       51.20       85.00     
##                  51.20       59.95         .00     
##                  59.95       60.35       87.00     
##                  60.35       62.95       84.00     
##                  62.95       63.25       85.00     
##                  63.25       76.90         .00     
##                  76.90       77.15       87.00     
##                  77.15       80.00       84.00     
##                  80.00       80.35       85.00     
##                  80.35      106.95         .00     
##                 106.95      107.25       87.00     
##                 107.25      115.45       84.00     
##                 115.45      115.80       85.00     
##                 115.80      116.40         .00     
##                 116.40      117.40       77.00     
##                 117.40      119.40       80.00     
##                 119.40      120.45       77.00     
##                 120.45      121.90         .00     
##                 121.90      122.35       87.00     
##                 122.35      127.90       84.00     
##                 127.90      128.30       85.00     
##                 128.30      130.95         .00     
##                 130.95      131.25       87.00     
##                 131.25      133.95       84.00     
##                 133.95      134.15       85.00     
##    last_layer   134.15
# --------------------------
~A DEPTH    GAM(NAT) SP       RES(16N) RES(64N) RES      
# ...
   132.050    97.500      .040    17.400    26.900   130.600
   132.100   101.800      .039    17.800    26.600   129.700
   132.150    99.500      .039    18.200    26.300   127.700
   132.200   126.400      .039    18.500    26.000   124.400
   132.250    95.700      .039    18.800    25.800   122.100
   132.300    71.100      .038    19.200    25.600   123.400
   132.350    83.700      .038    19.700    25.500   126.100
   132.400    80.000      .037    20.300    25.300   127.100
   132.450    96.800      .037    20.900    25.200   125.800
   132.500    88.300      .037    21.600    25.100   125.500
   132.550    94.200      .037    22.200    25.000   127.200
   132.600    85.500      .037    22.500    25.000   126.800
   132.650   101.500      .037    22.700    25.100   126.200
   132.700    84.900      .037    23.000    25.200   128.600
   132.750    76.600      .036    23.300    25.400   132.800
   132.800    81.800      .036    23.700    25.500   136.500
   132.850    72.300      .036    24.500    25.600   139.800
   132.900    90.100      .036    25.300    25.800   143.400
   132.950    75.400      .036    25.900    25.900   145.300
   133.000    71.900      .036    26.500    26.100   145.600
   133.050    55.700      .035    26.900    26.300   145.500
   133.100    78.200      .035    26.800    26.600   145.500
   133.150    75.700      .035    26.300    26.800   145.900
   133.200    60.800      .035    25.900    27.100   147.100
   133.250    60.900      .035    25.300    27.300   147.700
   133.300    67.800      .035    24.800    27.600   147.600
   133.350    71.800      .035    24.500    27.800   145.900
   133.400    69.100      .035    24.300    28.100   142.000
   133.450    75.000      .035    24.100    28.500   139.000
   133.500    73.500      .035    24.000    28.900   137.400
   133.550    87.700      .035    23.700    29.400   135.300
   133.600    73.600      .035    23.500    29.900   132.700
   133.650    90.000      .035    23.300    30.500   131.200
   133.700    95.600      .035    23.200    31.100   131.100
   133.750    89.300      .035    23.100    31.600   131.800
   133.800    84.500      .034    23.100    32.100   132.200
   133.850    82.800      .034    23.300    32.600   131.400
   133.900    97.900      .037    23.700    33.000   128.400
   133.950   109.900      .039    24.100    33.400   126.200
   134.000    85.200      .040    24.500    33.800   126.500
   134.050    97.700      .040    24.900    34.200   127.200
   134.100   102.000      .040    25.400    34.600   127.300
   134.150   104.400      .040    25.800    35.000   127.800
   134.200    95.200      .040    26.200    35.200   128.400
   134.250    99.200      .040    26.400    35.300   129.100
   134.300    97.400      .039    26.700    35.400   129.500
   134.350    84.100      .039    26.900    35.300   129.900
   134.400   120.700      .039    27.100    35.200   130.800
   134.450    87.400      .039    27.300    35.100   132.500
   134.500    76.500      .039    27.600    35.000   134.200
   134.550   106.300      .039    28.000    34.900   134.900
   134.600    97.000      .039    28.600    34.800   135.200
   134.650    92.000      .039    29.400    34.700   135.800
   134.700   110.300      .039    30.100    34.500   135.400
   134.750    98.200      .039    30.900    34.200   134.300
   134.800    77.700      .039    31.700    34.100   133.900
   134.850    83.800      .039    32.300    33.900   133.600
   134.900   109.300      .039    32.800    33.700   134.000
   134.950    75.700      .039    33.200    33.500   135.900
   135.000    78.700      .037    33.700    33.300   138.100
   135.050    94.600      .036    34.300    33.100   140.100
   135.100    76.400      .036    34.800    33.000   141.800
   135.150    88.000      .035    35.300    33.000   143.200
   135.200    66.800      .035    36.000    33.200   144.400
   135.250    68.200      .033    36.900    33.400   146.600
   135.300    62.200      .031    37.600    33.800   147.200
   135.350    50.700      .030    37.800    34.100   147.500
   135.400    47.300      .030    38.100    34.500   147.500
   135.450    45.800      .030    38.400    34.800   146.600
   135.500    36.400      .030    38.900    35.100   144.600
   135.550    47.800      .030    39.100    35.300   143.400
   135.600    48.500      .031    38.400    35.500   147.800
   135.650    61.900      .032    37.200    35.700   148.300
   135.700    37.600      .032    36.700    35.900   146.900
   135.750    64.000      .032    36.500    36.000   145.200
   135.800    62.700      .033    36.100    36.300   143.800
   135.850    63.200      .033    36.100    36.600   144.700
   135.900    60.600      .034    36.200    37.000   142.900
   135.950    85.700      .037    36.700    37.400   140.200
   136.000    77.300      .037    37.500    37.700   137.800
   136.050    76.500      .038    38.600    38.100   137.400
   136.100   101.600      .038    39.100    38.400   136.900
   136.150   100.300      .038    39.400    38.800   136.700
   136.200    86.800      .038    39.400    39.100   136.900
   136.250    86.500      .038    39.400    39.200   136.400
   136.300    74.700      .037    39.500    39.400   136.000
   136.350    77.300      .037    39.700    39.500   136.800
   136.400    61.700      .037    40.000    39.600   138.300
   136.450    61.700 -999999.0     40.700    39.400   140.600
   136.500    43.500 -999999.0     42.000    39.100   143.300
   136.550    48.500 -999999.0     43.700    38.800   145.500
   136.600    47.500 -999999.0     45.200    38.500   146.000
   136.650    51.600 -999999.0     46.500    38.100   146.800
   136.700    47.500 -999999.0     47.400    37.600   148.300
   136.750    51.900 -999999.0     48.100    36.900   149.300
   136.800    40.800 -999999.0     49.000    36.200   150.100
   136.850    56.700 -999999.0     49.600    35.600   150.600
   136.900    36.400 -999999.0     49.900    35.200   151.900
   136.950    38.200 -999999.0     50.000    35.000   153.300
   137.000    44.600 -999999.0     50.200    34.800   154.400
   137.050    41.000 -999999.0     50.200    34.800   154.600
   137.100    48.500 -999999.0     50.100    34.700   154.400
   137.150    51.300 -999999.0     49.900    34.600   153.900
   137.200    46.400 -999999.0     49.200    34.400   153.700
   137.250    36.900 -999999.0     47.900    34.400   153.200
   137.300    49.400 -999999.0     46.000 -999999.0    152.200
   137.350    37.900 -999999.0     43.700 -999999.0    150.700
   137.400    41.400 -999999.0     41.600 -999999.0    149.900
   137.450 -999999.0  -999999.0     40.100 -999999.0    149.000
   137.500 -999999.0  -999999.0     39.400 -999999.0    147.400
   137.550 -999999.0  -999999.0     39.300 -999999.0    144.800
   137.600 -999999.0  -999999.0     39.600 -999999.0    141.300
   137.650 -999999.0  -999999.0     40.200 -999999.0    131.900
   137.700 -999999.0  -999999.0     40.700 -999999.0    115.200
   137.750 -999999.0  -999999.0     40.700 -999999.0     98.900
   137.800 -999999.0  -999999.0     40.700 -999999.0     90.800
   137.850 -999999.0  -999999.0     40.700 -999999.0     86.700
   137.900 -999999.0  -999999.0  -999999.0  -999999.0     84.700
   137.950 -999999.0  -999999.0  -999999.0  -999999.0     83.700
   138.000 -999999.0  -999999.0  -999999.0  -999999.0     82.800
   138.050 -999999.0  -999999.0  -999999.0  -999999.0     82.400
   138.100 -999999.0  -999999.0  -999999.0  -999999.0     82.500
   138.150 -999999.0  -999999.0  -999999.0  -999999.0     82.500
 -999999.0  -999999.0  -999999.0  -999999.0  -999999.0  -999999.0 
