~Version Information
 VERS.                2.0:  CWLS LOG ASCII STANDARD -VERSION 2.0
 WRAP.                 NO:  ONE LINE PER DEPTH STEP
~WELL INFORMATION BLOCK
#MNEM.UNIT       DATA		            DESCRIPTION OF MNEMONIC
#---------    -------------            ------------------------
 STRT.M      .000                        :START DEPTH
 STOP.M    68.050                        :STOP DEPTH
 STEP.M      .050                        :STEP
 NULL.    -999999.0                      :NULL VALUE
 COMP.       WML                         :COMPANY
 WELL.                          B62B0903 :WELL
 FLD .    Nuth                           :FIELD
 CNTY.                                   :COUNTY
 STAT.                                   :STATE
 SRVC.                                   :SERVICE COMPANY
 DATE.     13-APR-92                     :LOG DATE
 UWI .                                   :UNIQUE WELL ID
 LIC .                                   :LICENSE NUMBER
~Curve Information Block
#MNEM.UNIT      API CODE     Curve Description
#---------    -------------  ------------------------
DEPTH    .M         00 000 00 00          :  1  DEPTH
GAMMA    .CPS       00 000 00 00          :  2  GAMMA
SN40     .OHM.M     00 000 00 00          :  3  SN40
CAL      .MM        00 000 00 00          :  4  CAL
SP       .V         00 000 00 00          :  5  SP
LN160    .OHM.M     00 000 00 00          :  6  LN160
~Parameter Information Block
#MNEM.UNIT   Information     Description
#---------- ---------------  ------------------------
 FILE.                         :File Type
 FIID.                         :File Type Identifier
 VERS.                         :System Version
 SER .                         :System Serial Number
 TRUK.                         :Truck Calibration Number
 TOOL.                         :Tool Serial Number
 TIME.                         :Time    HrHrMinMin
 LAT .                         :Latitude
 LON .                         :Longitude
 LMF .            MV           :LOG Measured FROM
 DMF .                         :Driller Measured From
 PD  .                         :Permanent Data
 PDEV.                         :Elevation Permanent Data
 EKB .M                        :Elevation Kelly Bushing
 ELEV.DF                       :Elevation DF
 EGL .M                        :Elevation Ground Level
 DRDP.                         :Drillers Depth
 CASD.                         :Casing Diameter
 CASB.                         :Casing Bottom
 CASX.                         :Casing Type
 CAST.                         :Casing Thickness
 TNOC.                         :Time Circulation Stopped
 LOGU.                         :Logging Unit
 RECB.            Bergsma      :Recorded By
 OSR1.                         :Other Services
 OSR2.                         :Other Services
 OSR3.                         :Other Services
 BS  .MM                       :Bit Size
 MST .                         :Mean Surface Temperature
 TGRD.                         :Temperature Gradiant
 MAGN.                         :Magnetic Declination
 MDEN.                         :Density Matrix
 MATR.                         :Neutron Matrix
 DTMT.                         :Delta T Matrix
 DTFL.                         :Delta T Fluid
 MUDS.                         :Mud Sample Source
 MRS .                         :Mud Resistivity
 MTP .                         :Mud Temperature
 MFRS.                         :Resistivity Mud Filtrate
 MFTP.                         :Temperature Mud Filtrate
 MCRS.                         :Resistivity Mud Cake
 MCTP.                         :Temperature Mud Cake
 FTYP.                         :Fluid Type
 FD  .K/M3                     :Fluid Density
 DFV .S                        :Fluid Viscosity
 FPH .                         :Fuild PH
 ELCO.                         :Electron Cutoff
~Other Information
#MNEM.UNIT  Information      Description
#---------- ---------------  ------------------------
# --------------------------
## COMMENTS    Top_Depth   Bot_Depth  LithCode  Lat    Long   Elev_Gl
##    Type of LithCode   Lithologie - 1970
##                    .00        5.00         .00     
##                   5.05        6.80       10.00     
##                   6.85        8.00       11.00     
##                   8.05       11.00       10.00     
##                  11.05       15.00       12.00     
##                  15.05       17.00       10.00     
##                  17.05       18.40       12.00     
##                  18.45       23.00       10.00     
##                  23.05       25.40       12.00     
##                  25.45       28.00        6.00     
##                  28.05       28.35       19.00     
##                  28.40       30.00       11.00     
##                  30.05       31.00       12.00     
##                  31.05       34.00       11.00     
##                  34.05       38.90        6.00     
##                  38.95       40.80       23.00     
##                  40.85       47.45        6.00     
##                  47.50       52.00       21.00     
##                  52.05       60.00       22.00     
##                  60.05       68.00       23.00     
##                  68.05       68.05         .00     
##    last_layer   68.05
# --------------------------
~A DEPTH    GAMMA    SN40     CAL      SP       LN160    
# ...
    46.150    13.050    49.280   477.300      .008    69.150
    46.200    13.260    49.040   479.400      .008    68.590
    46.250    13.300    48.810   482.700      .008    68.180
    46.300    13.560    48.560   477.100      .008    67.770
    46.350    13.720    48.310   475.600      .008    67.360
    46.400    13.800    48.010   477.700      .008    66.950
    46.450    13.940    47.770   475.800      .008    66.530
    46.500    14.040    47.530   478.900      .008    66.080
    46.550    14.220    47.290   481.500      .008    65.640
    46.600    14.440    46.990   478.500      .008    65.180
    46.650    14.540    46.700   475.400      .008    64.730
    46.700    14.670    46.480   479.100      .008    64.260
    46.750    14.730    46.190   478.200      .008    63.790
    46.800    14.760    45.910   480.500      .008    63.320
    46.850    14.860    45.630   481.400      .008    62.870
    46.900    14.940    45.320   484.800      .008    62.420
    46.950    15.050    45.010   484.600      .008    61.990
    47.000    15.400    44.750   489.000      .008    61.530
    47.050    15.800    44.420   489.000      .008    61.160
    47.100    16.230    44.100   482.500      .008    60.780
    47.150    16.410    43.760   485.600      .008    60.410
    47.200    16.340    43.410   486.700      .008    60.030
    47.250    16.250    43.050   477.700      .008    59.630
    47.300    16.310    42.680   481.700      .008    59.270
    47.350    16.610    42.300   482.600      .008    58.920
    47.400    16.850    41.950   479.300      .008    58.580
    47.450    17.010    41.610   483.800      .008    58.150
    47.500    16.980    41.280   475.700      .008    57.730
    47.550    16.690    40.970   472.900      .008    57.320
    47.600    16.320    40.650   477.000      .008    56.940
    47.650    16.110    40.350   479.100      .008    56.540
    47.700    15.870    40.060   480.400      .008    56.200
    47.750    15.690    39.780   485.900      .009    55.850
    47.800    15.520    39.510   477.000      .009    55.490
    47.850    15.190    39.270   479.600      .009    55.170
    47.900    15.250    38.990   482.700      .009    54.850
    47.950    15.300    38.720   478.400      .009    54.520
    48.000    15.130    38.410   484.000      .009    54.250
    48.050    15.110    38.190   484.200      .009    53.980
    48.100    15.100    37.970   483.200      .009    53.720
    48.150    15.060    37.750   485.200      .009    53.450
    48.200    15.010    37.520   486.400      .009    53.180
    48.250    15.230    37.290   472.100      .009    52.910
    48.300    15.630    37.090   475.500      .009    52.610
    48.350    15.970    36.830   479.800      .009    52.250
    48.400    16.370    36.520   479.000      .009    51.890
    48.450    16.740    36.350   478.200      .009    51.490
    48.500    16.870    36.170   483.500      .009    51.080
    48.550    16.800    36.000   485.700      .009    50.730
    48.600    16.590    35.820   479.100      .009    50.360
    48.650    16.380    35.640   476.700      .009    50.080
    48.700    16.070    35.490   482.500      .009    49.810
    48.750    16.070    35.340   479.300      .009    49.460
    48.800    16.090    35.200   478.400      .009    49.110
    48.850    15.970    35.050   481.800      .009    48.790
    48.900    15.890    34.890   484.900      .009    48.460
    48.950    15.980    34.740   484.100      .008    48.140
    49.000    16.140    34.570   481.300      .008    47.840
    49.050    16.180    34.420   485.500      .008    47.510
    49.100    16.300    34.260   485.000      .007    47.320
    49.150    16.510    34.110   477.600      .007    47.130
    49.200    16.600    33.950   476.000      .006    46.930
    49.250    16.650    33.780   480.000      .006    46.710
    49.300    16.640    33.610   483.500      .006    46.470
    49.350    16.580    33.460   480.700      .006    46.230
    49.400    16.430    33.330   477.000      .006    45.980
    49.450    16.150    33.190   481.500      .006    45.730
    49.500    16.060    33.050   485.500      .006    45.470
    49.550    15.910    32.920   481.000      .006    45.220
    49.600    15.720    32.790   479.000      .006    44.920
    49.650    15.630    32.680   482.200      .006    44.720
    49.700    15.910    32.570   486.400      .006    44.520
    49.750    16.120    32.440   478.100      .006    44.320
    49.800    16.190    32.330   475.100      .006    44.120
    49.850    16.130    32.220   477.700      .006    43.950
    49.900    16.040    32.110   480.900      .006    43.780
    49.950    16.080    32.000   483.700      .006    43.620
    50.000    16.240    31.880   477.700      .006    43.470
    50.050    16.330    31.760   477.600      .006    43.350
    50.100    16.400    31.640   482.800      .006    43.230
    50.150    16.240    31.510   481.200      .006    43.100
    50.200    15.840    31.380   478.300      .006    42.960
    50.250    15.530    31.250   477.800      .006    42.810
    50.300    15.200    31.110   482.500      .006    42.670
    50.350    14.940    30.970   478.600      .006    42.520
    50.400    15.020    30.830   472.500      .006    42.380
    50.450    15.310    30.720   475.900      .006    42.240
    50.500    15.540    30.610   480.300      .006    42.100
    50.550    15.690    30.500   486.300      .006    41.980
    50.600    15.800    30.410   481.500      .006    41.830
    50.650    15.740    30.320   478.100      .006    41.700
    50.700    15.500    30.230   481.100      .006    41.540
    50.750    15.240    30.150   484.500      .006    41.410
    50.800    15.080    30.080   480.100      .006    41.290
    50.850    15.050    30.000   483.100      .006    41.190
    50.900    15.250    29.930   483.700      .006    41.090
    50.950    15.270    29.850   479.800      .006    40.990
    51.000    15.270    29.780   480.700      .006    40.880
    51.050    15.260    29.720   484.700      .006    40.800
    51.100    15.300    29.650   485.500      .006    40.640
    51.150    15.390    29.580   476.000      .006    40.490
    51.200    15.540    29.510   481.700      .006    40.340
    51.250    15.710    29.450   479.700      .006    40.210
    51.300    16.130    29.400   477.400      .007    40.070
    51.350    16.610    29.340   479.200      .007    39.920
    51.400    17.010    29.290   482.600      .007    39.780
    51.450    17.220    29.230   485.700      .007    39.680
    51.500    17.200    29.180   471.900      .007    39.580
    51.550    16.870    29.130   478.400      .007    39.490
    51.600    16.840    29.090   477.900      .007    39.400
    51.650    17.020    29.050   478.000      .006    39.290
    51.700    17.150    29.000   481.400      .006    39.160
    51.750    17.170    28.970   488.900      .006    39.020
    51.800    17.120    28.960   486.600      .006    38.890
    51.850    16.930    28.940   484.500      .006    38.750
    51.900    16.710    28.930   481.600      .006    38.620
    51.950    17.020    28.920   484.900      .006    38.500
    52.000    17.290    28.920   472.700      .006    38.380
    52.050    17.820    28.920   475.100      .006    38.290
    52.100    18.220    28.920   480.900      .006    38.170
    52.150    18.400    28.920   477.800      .006    38.050
    52.200    18.580    28.920   478.900      .006    37.940
    52.250    18.900    28.910   481.800      .006    37.840
    52.300    19.160    28.900   484.600      .006    37.750
    52.350    19.320    28.870   473.900      .006    37.670
    52.400    19.310    28.840   473.300      .006    37.590
    52.450    18.980    28.810   477.900      .006    37.510
    52.500    18.810    28.730   481.900      .006    37.440
    52.550    18.970    28.650   477.800      .006    37.360
    52.600    18.280    28.570   479.800      .006    37.300
    52.650    18.080    28.490   484.100      .006    37.260
    52.700    18.230    28.410   487.900      .006    37.230
