~Version Information
 VERS.                2.0:  CWLS LOG ASCII STANDARD -VERSION 2.0
 WRAP.                 NO:  ONE LINE PER DEPTH STEP
~WELL INFORMATION BLOCK
#MNEM.UNIT       DATA		            DESCRIPTION OF MNEMONIC
#---------    -------------            ------------------------
 STRT.M      .000                        :START DEPTH
 STOP.M    79.950                        :STOP DEPTH
 STEP.M      .050                        :STEP
 NULL.    -999999.0                      :NULL VALUE
 COMP.       WML                         :COMPANY
 WELL.                          B62B0898 :WELL
 FLD .    Voerendaal                     :FIELD
 CNTY.                                   :COUNTY
 STAT.                                   :STATE
 SRVC.                                   :SERVICE COMPANY
 DATE.     17-NOV-90                     :LOG DATE
 UWI .                                   :UNIQUE WELL ID
 LIC .                                   :LICENSE NUMBER
~Curve Information Block
#MNEM.UNIT      API CODE     Curve Description
#---------    -------------  ------------------------
DEPTH    .M         00 000 00 00          :  1  DEPTH
UFLOW    .M/S       00 000 00 00          :  2  UFLOW
TEMP     .DEGC      00 000 00 00          :  3  TEMP
SN40     .OHM.M     00 000 00 00          :  4  SN40
SP       .V         00 000 00 00          :  5  SP
CAL      .MM        00 000 00 00          :  6  CAL
TEMP     .DEGC      00 000 00 00          :  7  TEMP
GAMMA    .CPS       00 000 00 00          :  8  GAMMA
LN160    .OHM.M     00 000 00 00          :  9  LN160
~Parameter Information Block
#MNEM.UNIT   Information     Description
#---------- ---------------  ------------------------
 FILE.                         :File Type
 FIID.                         :File Type Identifier
 VERS.                         :System Version
 SER .                         :System Serial Number
 TRUK.                         :Truck Calibration Number
 TOOL.                         :Tool Serial Number
 TIME.                         :Time    HrHrMinMin
 LAT .                         :Latitude
 LON .                         :Longitude
 LMF .            MV           :LOG Measured FROM
 DMF .                         :Driller Measured From
 PD  .                         :Permanent Data
 PDEV.                         :Elevation Permanent Data
 EKB .M                        :Elevation Kelly Bushing
 ELEV.DF                       :Elevation DF
 EGL .M                        :Elevation Ground Level
 DRDP.                         :Drillers Depth
 CASD.                         :Casing Diameter
 CASB.                         :Casing Bottom
 CASX.                         :Casing Type
 CAST.                         :Casing Thickness
 TNOC.                         :Time Circulation Stopped
 LOGU.                         :Logging Unit
 RECB.            Veenendaal   :Recorded By
 OSR1.                         :Other Services
 OSR2.                         :Other Services
 OSR3.                         :Other Services
 BS  .MM                       :Bit Size
 MST .                         :Mean Surface Temperature
 TGRD.                         :Temperature Gradiant
 MAGN.                         :Magnetic Declination
 MDEN.                         :Density Matrix
 MATR.                         :Neutron Matrix
 DTMT.                         :Delta T Matrix
 DTFL.                         :Delta T Fluid
 MUDS.                         :Mud Sample Source
 MRS .                         :Mud Resistivity
 MTP .                         :Mud Temperature
 MFRS.                         :Resistivity Mud Filtrate
 MFTP.                         :Temperature Mud Filtrate
 MCRS.                         :Resistivity Mud Cake
 MCTP.                         :Temperature Mud Cake
 FTYP.                         :Fluid Type
 FD  .K/M3                     :Fluid Density
 DFV .S                        :Fluid Viscosity
 FPH .                         :Fuild PH
 ELCO.                         :Electron Cutoff
~Other Information
#MNEM.UNIT  Information      Description
#---------- ---------------  ------------------------
# --------------------------
## COMMENTS    Top_Depth   Bot_Depth  LithCode  Lat    Long   Elev_Gl
##    Type of LithCode   Lithologie - 1970
##                    .00         .80         .00     
##                    .85        2.25       19.00     
##                   2.30        6.15       12.00     
##                   6.20       28.50        7.00     
##                  28.55       40.50        9.00     
##                  40.55       74.60         .00     
##                  74.65       78.00       10.00     
##                  78.05       78.05         .00     
##    last_layer   78.05
# --------------------------
~A DEPTH    UFLOW    TEMP     SN40     SP       CAL      TEMP     GAMMA    LN160    
# ...
    16.950    28.880    10.510 -999999.0  -999999.0    360.400    10.400     7.540 -999999.0 
    17.000    29.480    10.510 -999999.0  -999999.0    360.700    10.410     7.540 -999999.0 
    17.050    29.670    10.510 -999999.0  -999999.0    360.700    10.410     7.560 -999999.0 
    17.100    29.460    10.510 -999999.0  -999999.0    360.900    10.410     7.600 -999999.0 
    17.150    29.000    10.510 -999999.0  -999999.0    360.900    10.410     7.660 -999999.0 
    17.200    28.880    10.510 -999999.0  -999999.0    361.000    10.420     7.670 -999999.0 
    17.250    29.180    10.510 -999999.0  -999999.0    361.000    10.420     7.680 -999999.0 
    17.300    29.560    10.510 -999999.0  -999999.0    361.000    10.430     7.720 -999999.0 
    17.350    29.750    10.510 -999999.0  -999999.0    361.000    10.430     7.830 -999999.0 
    17.400    29.800    10.510 -999999.0  -999999.0    361.000    10.430     7.960 -999999.0 
    17.450    29.860    10.510 -999999.0  -999999.0    360.900    10.440     8.080 -999999.0 
    17.500    29.940    10.520 -999999.0  -999999.0    360.800    10.440     8.110 -999999.0 
    17.550    29.870    10.520 -999999.0  -999999.0    360.600    10.440     8.080 -999999.0 
    17.600    29.690    10.520 -999999.0  -999999.0    360.600    10.450     8.010 -999999.0 
    17.650    29.460    10.520 -999999.0  -999999.0    360.500    10.450     7.970 -999999.0 
    17.700    29.290    10.520 -999999.0  -999999.0    360.500    10.460     7.970 -999999.0 
    17.750    29.270    10.520 -999999.0  -999999.0    360.600    10.460     7.980 -999999.0 
    17.800    29.450    10.510 -999999.0  -999999.0    360.600    10.460     7.970 -999999.0 
    17.850    29.790    10.510 -999999.0  -999999.0    360.600    10.470     7.930 -999999.0 
    17.900    30.000    10.500 -999999.0  -999999.0    360.700    10.470     7.890 -999999.0 
    17.950    30.140    10.500 -999999.0  -999999.0    360.700    10.480     7.880 -999999.0 
    18.000    30.160    10.490 -999999.0  -999999.0    360.700    10.480     7.880 -999999.0 
    18.050    30.150    10.490 -999999.0  -999999.0    360.700    10.480     7.900 -999999.0 
    18.100    30.140    10.480 -999999.0  -999999.0    360.800    10.490     7.980 -999999.0 
    18.150    30.040    10.480 -999999.0  -999999.0    360.900    10.490     8.110 -999999.0 
    18.200    29.770    10.480 -999999.0  -999999.0    360.900    10.490     8.190 -999999.0 
    18.250    29.330    10.480 -999999.0  -999999.0    360.900    10.490     8.340 -999999.0 
    18.300    29.060    10.480 -999999.0  -999999.0    360.900    10.500     8.410 -999999.0 
    18.350    28.830    10.480 -999999.0  -999999.0    361.000    10.500     8.480 -999999.0 
    18.400    28.500    10.480 -999999.0  -999999.0    361.000    10.500     8.460 -999999.0 
    18.450    28.330    10.480 -999999.0  -999999.0    361.000    10.500     8.400 -999999.0 
    18.500    28.140    10.480 -999999.0  -999999.0    360.900    10.500     8.370 -999999.0 
    18.550    27.790    10.480 -999999.0  -999999.0    360.900    10.510     8.360 -999999.0 
    18.600    26.790    10.480 -999999.0  -999999.0    360.800    10.510     8.290 -999999.0 
    18.650    26.830    10.480 -999999.0  -999999.0    360.800    10.510     8.150 -999999.0 
    18.700    27.110    10.480 -999999.0  -999999.0    360.700    10.510     8.040 -999999.0 
    18.750    27.380    10.480 -999999.0  -999999.0    360.700    10.510     8.070 -999999.0 
    18.800    27.570    10.480 -999999.0  -999999.0    360.700    10.520     8.120 -999999.0 
    18.850    27.660    10.480 -999999.0  -999999.0    360.800    10.520     8.230 -999999.0 
    18.900    27.670    10.480 -999999.0  -999999.0    360.900    10.520     8.270 -999999.0 
    18.950    27.700    10.480 -999999.0  -999999.0    361.000    10.520     8.260 -999999.0 
    19.000    27.890    10.480 -999999.0  -999999.0    360.900    10.520     8.250 -999999.0 
    19.050    28.050    10.480 -999999.0  -999999.0    360.900    10.530     8.250 -999999.0 
    19.100    28.260    10.480 -999999.0  -999999.0    360.900    10.530     8.260 -999999.0 
    19.150    28.450    10.480 -999999.0  -999999.0    360.800    10.530     8.270 -999999.0 
    19.200    28.470    10.480 -999999.0  -999999.0    360.700    10.530     8.300 -999999.0 
    19.250    28.260    10.480 -999999.0  -999999.0    360.600    10.530     8.380 -999999.0 
    19.300    28.070    10.480 -999999.0  -999999.0    360.500    10.540     8.560 -999999.0 
    19.350    27.730    10.480 -999999.0  -999999.0    360.400    10.540     8.660 -999999.0 
    19.400    27.160    10.480 -999999.0  -999999.0    360.400    10.540     8.710 -999999.0 
    19.450    26.410    10.480 -999999.0  -999999.0    360.400    10.540     8.730 -999999.0 
    19.500    26.120    10.480 -999999.0  -999999.0    360.400    10.540     8.740 -999999.0 
    19.550    25.870    10.480 -999999.0  -999999.0    360.400    10.550     8.770 -999999.0 
    19.600    25.900    10.480 -999999.0  -999999.0    360.500    10.550     8.850 -999999.0 
    19.650    26.100    10.480 -999999.0  -999999.0    360.500    10.550     9.010 -999999.0 
    19.700    26.320    10.480 -999999.0  -999999.0    360.500    10.550     9.200 -999999.0 
    19.750    27.050    10.480 -999999.0  -999999.0    360.500    10.550     9.280 -999999.0 
    19.800    27.400    10.480 -999999.0  -999999.0    360.500    10.550     9.290 -999999.0 
    19.850    27.620    10.480 -999999.0  -999999.0    360.600    10.560     9.310 -999999.0 
    19.900    27.780    10.470 -999999.0  -999999.0    360.800    10.560     9.390 -999999.0 
    19.950    28.170    10.470 -999999.0  -999999.0    360.900    10.560     9.510 -999999.0 
    20.000    28.300    10.470 -999999.0  -999999.0    361.000    10.560     9.610 -999999.0 
    20.050    28.190    10.470 -999999.0  -999999.0    361.100    10.560     9.640 -999999.0 
    20.100    27.910    10.470 -999999.0  -999999.0    361.100    10.570     9.510 -999999.0 
    20.150    27.450    10.480 -999999.0  -999999.0    361.100    10.570     9.370 -999999.0 
    20.200    26.320    10.480 -999999.0  -999999.0    361.100    10.570     9.350 -999999.0 
    20.250    26.190    10.480 -999999.0  -999999.0    361.000    10.570     9.350 -999999.0 
    20.300    26.530    10.470 -999999.0  -999999.0    361.000    10.570     9.350 -999999.0 
    20.350    26.970    10.470 -999999.0  -999999.0    361.000    10.570     9.330 -999999.0 
    20.400    26.880    10.470 -999999.0  -999999.0    361.100    10.570     9.080 -999999.0 
    20.450    26.650    10.470 -999999.0  -999999.0    361.100    10.570     8.540 -999999.0 
    20.500    26.740    10.480 -999999.0  -999999.0    361.100    10.580     8.260 -999999.0 
    20.550    27.110    10.480 -999999.0  -999999.0    361.000    10.580     8.280 -999999.0 
    20.600    27.210    10.480 -999999.0  -999999.0    361.000    10.580     7.910 -999999.0 
    20.650    26.830    10.480 -999999.0  -999999.0    361.100    10.580     7.810 -999999.0 
    20.700    26.420    10.480 -999999.0  -999999.0    361.200    10.580     7.740 -999999.0 
    20.750    26.420    10.480 -999999.0  -999999.0    361.300    10.580     7.870 -999999.0 
    20.800    26.630    10.470 -999999.0  -999999.0    361.300    10.580     8.080 -999999.0 
    20.850    27.610    10.470 -999999.0  -999999.0    361.300    10.580     8.230 -999999.0 
    20.900    28.500    10.470 -999999.0  -999999.0    361.200    10.580     8.380 -999999.0 
    20.950    28.820    10.470 -999999.0  -999999.0    361.200    10.590     8.550 -999999.0 
    21.000    29.130    10.470 -999999.0  -999999.0    361.100    10.590     8.800 -999999.0 
    21.050    29.590    10.470 -999999.0  -999999.0    361.100    10.590     8.900 -999999.0 
    21.100    29.830    10.470 -999999.0  -999999.0    361.200    10.590     8.840 -999999.0 
    21.150    29.590    10.470 -999999.0  -999999.0    361.200    10.590     8.820 -999999.0 
    21.200    28.810    10.470 -999999.0  -999999.0    361.200    10.590     8.790 -999999.0 
