~Version Information
 VERS.                2.0:  CWLS LOG ASCII STANDARD -VERSION 2.0
 WRAP.                 NO:  ONE LINE PER DEPTH STEP
~WELL INFORMATION BLOCK
#MNEM.UNIT       DATA		            DESCRIPTION OF MNEMONIC
#---------    -------------            ------------------------
 STRT.M      .450                        :START DEPTH
 STOP.M   #######                        :STOP DEPTH
 STEP.M      .050                        :STEP
 NULL.    -999999.0                      :NULL VALUE
 COMP.       SCHIFOOD                    :COMPANY
 WELL.                          B62B0897 :WELL
 FLD .    Heerlen                        :FIELD
 CNTY.                                   :COUNTY
 STAT.                                   :STATE
 SRVC.                                   :SERVICE COMPANY
 DATE.     10-DEC-90                     :LOG DATE
 UWI .                                   :UNIQUE WELL ID
 LIC .                                   :LICENSE NUMBER
~Curve Information Block
#MNEM.UNIT      API CODE     Curve Description
#---------    -------------  ------------------------
DEPTH    .M         00 000 00 00          :  1  DEPTH
SN40     .OHM.M     00 000 00 00          :  2  SN40
SP       .V         00 000 00 00          :  3  SP
CAL      .MM        00 000 00 00          :  4  CAL
LN160    .OHM.M     00 000 00 00          :  5  LN160
GAMMA    .CPS       00 000 00 00          :  6  GAMMA
~Parameter Information Block
#MNEM.UNIT   Information     Description
#---------- ---------------  ------------------------
 FILE.                         :File Type
 FIID.                         :File Type Identifier
 VERS.                         :System Version
 SER .                         :System Serial Number
 TRUK.                         :Truck Calibration Number
 TOOL.                         :Tool Serial Number
 TIME.                         :Time    HrHrMinMin
 LAT .                         :Latitude
 LON .                         :Longitude
 LMF .            MV           :LOG Measured FROM
 DMF .                         :Driller Measured From
 PD  .                         :Permanent Data
 PDEV.                         :Elevation Permanent Data
 EKB .M                        :Elevation Kelly Bushing
 ELEV.DF                       :Elevation DF
 EGL .M                        :Elevation Ground Level
 DRDP.                         :Drillers Depth
 CASD.                         :Casing Diameter
 CASB.                         :Casing Bottom
 CASX.                         :Casing Type
 CAST.                         :Casing Thickness
 TNOC.                         :Time Circulation Stopped
 LOGU.                         :Logging Unit
 RECB.            Bergsma      :Recorded By
 OSR1.                         :Other Services
 OSR2.                         :Other Services
 OSR3.                         :Other Services
 BS  .MM                       :Bit Size
 MST .                         :Mean Surface Temperature
 TGRD.                         :Temperature Gradiant
 MAGN.                         :Magnetic Declination
 MDEN.                         :Density Matrix
 MATR.                         :Neutron Matrix
 DTMT.                         :Delta T Matrix
 DTFL.                         :Delta T Fluid
 MUDS.                         :Mud Sample Source
 MRS .                         :Mud Resistivity
 MTP .                         :Mud Temperature
 MFRS.                         :Resistivity Mud Filtrate
 MFTP.                         :Temperature Mud Filtrate
 MCRS.                         :Resistivity Mud Cake
 MCTP.                         :Temperature Mud Cake
 FTYP.                         :Fluid Type
 FD  .K/M3                     :Fluid Density
 DFV .S                        :Fluid Viscosity
 FPH .                         :Fuild PH
 ELCO.                         :Electron Cutoff
~Other Information
#MNEM.UNIT  Information      Description
#---------- ---------------  ------------------------
# --------------------------
## COMMENTS    Top_Depth   Bot_Depth  LithCode  Lat    Long   Elev_Gl
##    Type of LithCode   Lithologie - 1970
##                    .00         .00         .00     
##                    .45        6.00         .00     
##                   6.05        8.10        2.00     
##                   8.15       15.30       23.00     
##                  15.35       18.50       22.00     
##                  18.55       20.80       11.00     
##                  20.85       22.35       12.00     
##                  22.40       23.40       11.00     
##                  23.45       25.30       12.00     
##                  25.35       26.25       11.00     
##                  26.30       27.80       12.00     
##                  27.85       35.10       11.00     
##                  35.15       47.80       12.00     
##                  47.85       50.40        6.00     
##                  50.45       52.00       23.00     
##                  52.05       53.20       11.00     
##                  53.25       54.60       12.00     
##                  54.65       55.50       11.00     
##                  55.55       56.50       12.00     
##                  56.55       57.25       11.00     
##                  57.30       58.60       12.00     
##                  58.65       64.40       11.00     
##                  64.45       71.10        9.00     
##                  71.15       74.20        7.00     
##                  74.25       75.90        9.00     
##                  75.95       78.90        7.00     
##                  78.95       93.30        9.00     
##                  93.35       95.20       10.00     
##                  95.25       97.60        9.00     
##                  97.65       99.95       10.00     
##                 100.00      100.00         .00     
##                 100.05      126.75     #######     
##    last_layer   126.75
# --------------------------
~A DEPTH    SN40     SP       CAL      LN160    GAMMA    
# ...
    13.250    28.310      .075   542.200    39.800    11.510
    13.300    28.350      .075   541.200    39.820    11.290
    13.350    28.390      .075   540.600    39.870    11.230
    13.400    28.430      .074   540.100    39.930    11.240
    13.450    28.470      .074   539.900    39.990    11.260
    13.500    28.520      .074   539.800    40.050    11.310
    13.550    28.570      .074   539.500    40.130    11.440
    13.600    28.630      .073   539.300    40.250    11.530
    13.650    28.660      .073   539.200    40.330    11.600
    13.700    28.690      .073   539.100    40.420    11.650
    13.750    28.730      .073   539.000    40.510    11.770
    13.800    28.790      .072   538.900    40.650    11.830
    13.850    28.850      .072   538.900    40.790    11.840
    13.900    28.930      .072   538.800    40.960    11.790
    13.950    29.010      .072   538.800    41.130    11.770
    14.000    29.090      .072   538.900    41.320    11.830
    14.050    29.140      .072   538.900    41.530    12.040
    14.100    29.200      .072   538.900    41.740    12.200
    14.150    29.270      .072   538.900    41.970    12.310
    14.200    29.370      .072   538.900    42.200    12.060
    14.250    29.480      .072   538.900    42.440    11.800
    14.300    29.580      .072   539.000    42.700    11.800
    14.350    29.680      .072   539.200    42.960    11.940
    14.400    29.770      .072   539.500    43.210    12.000
    14.450    29.870      .072   540.100    43.450    12.050
    14.500    30.000      .072   540.600    43.680    12.100
    14.550    30.120      .072   541.800    43.860    12.080
    14.600    30.240      .071   542.700    44.030    11.880
    14.650    30.380      .071   543.500    44.200    11.660
    14.700    30.540      .071   543.900    44.380    11.510
    14.750    30.710      .071   543.800    44.560    11.450
    14.800    30.870      .071   542.300    44.740    11.280
    14.850    31.050      .071   540.800    44.920    11.300
    14.900    31.240      .070   540.100    45.100    11.400
    14.950    31.430      .070   539.400    45.280    11.490
    15.000    31.610      .070   539.300    45.460    11.530
    15.050    31.830      .070   539.600    45.650    11.540
    15.100    32.010      .070   540.000    45.830    11.340
    15.150    32.360      .070   540.900    46.010    11.040
    15.200    32.530      .070   542.100    46.190    10.670
    15.250    32.880      .070   545.900    46.370    10.030
    15.300    33.080      .070   549.700    46.550     9.740
    15.350    33.340      .070   551.800    46.730     9.710
    15.400    33.610      .070   550.100    46.910     9.680
    15.450    33.860      .070   548.700    47.090     9.600
    15.500    34.060      .070   548.300    47.270     9.420
    15.550    34.270      .070   549.500    47.460     9.180
    15.600    34.500      .070   550.500    47.730     8.930
    15.650    34.700      .070   551.000    48.060     8.720
    15.700    34.910      .070   551.100    48.390     8.890
    15.750    35.120      .070   551.000    48.740     9.070
    15.800    35.340      .069   551.100    49.110     9.430
    15.850    35.580      .069   551.100    49.520     9.760
    15.900    35.860      .069   551.100    49.850     9.880
    15.950    36.230      .069   550.900    50.190     9.850
    16.000    36.500      .069   550.400    50.510     9.860
    16.050    36.800      .069   548.800    50.800     9.850
    16.100    36.950      .069   546.800    51.090     9.850
    16.150    37.090      .069   544.800    51.320     9.800
    16.200    37.230      .069   543.300    51.560     9.540
    16.250    37.480      .069   553.200    51.770     9.460
    16.300    37.680      .068   563.100    51.940     9.450
    16.350    37.950      .068   573.100    52.090     9.380
    16.400    38.250      .068   581.900    52.210     9.310
    16.450    38.490      .068   585.000    52.290     9.020
    16.500    38.640      .068   585.000    52.330     8.650
    16.550    38.730      .068   583.400    52.380     8.470
    16.600    38.830      .068   583.100    52.400     8.340
    16.650    38.890      .068   584.000    52.410     8.250
    16.700    38.930      .068   585.800    52.420     8.150
    16.750    38.940      .068   586.200    52.430     7.970
    16.800    38.950      .067   583.300    52.430     7.780
    16.850    38.900      .067   579.300    52.440     7.720
    16.900    38.850      .067   575.400    52.410     7.780
    16.950    38.790      .067   571.400    52.350     7.850
    17.000    38.700      .067   570.800    52.280     7.930
    17.050    38.630      .067   574.300    52.210     8.080
    17.100    38.550      .067   577.700    52.110     8.240
    17.150    38.460      .067   577.400    51.990     8.340
    17.200    38.360      .067   574.300    51.850     8.430
    17.250    38.250      .067   571.200    51.700     8.400
    17.300    38.130      .067   567.600    51.530     8.380
    17.350    37.990      .067   570.200    51.360     8.360
    17.400    37.850      .067   572.900    51.160     8.450
    17.450    37.720      .067   571.300    50.930     8.580
    17.500    37.540      .067   569.400    50.710     8.810
    17.550    37.350      .067   569.900    50.460     9.280
    17.600    37.160      .067   570.800    50.160     9.450
    17.650    36.970      .067   571.100    49.850     9.650
    17.700    36.770      .067   568.500    49.610     9.700
    17.750    36.550      .066   565.500    49.200     9.820
    17.800    36.350      .066   568.600    48.820     9.930
    17.850    36.130      .066   571.800    48.510     9.830
    17.900    35.890      .066   570.600    48.060     9.760
    17.950    35.640      .066   564.200    47.590     9.810
    18.000    35.340      .065   557.800    47.080     9.980
    18.050    35.040      .065   551.400    46.610    10.210
    18.100    34.740      .065   548.700    46.140    10.390
    18.150    34.380      .065   553.900    45.680    10.570
    18.200    34.130      .065   559.000    45.210    10.850
    18.250    33.860      .065   564.100    44.770    11.030
    18.300    33.560      .065   569.300    44.400    11.440
    18.350    33.250      .066   574.400    43.950    11.740
    18.400    32.920      .066   578.700    43.550    11.820
    18.450    32.630      .066   566.600    43.170    11.930
    18.500    32.160      .066   554.600    42.810    12.200
    18.550    31.820      .066   542.500    42.480    11.940
    18.600    31.510      .066   536.500    42.180    11.590
    18.650    31.150      .067   545.500    41.930    11.470
    18.700    30.780      .067   554.600    41.680    11.250
    18.750    30.420      .067   563.600    41.410    10.990
    18.800    30.110      .067   572.700    41.190    10.980
    18.850    29.790      .067   580.600    40.910    11.030
    18.900    29.440      .067   565.100    40.700    11.270
    18.950    29.040      .067   558.000    40.450    11.450
    19.000    28.640      .067   567.000    40.220    11.590
    19.050    28.240      .067   576.000    40.000    11.910
    19.100    27.840      .067   580.400    39.720    12.220
    19.150    27.460      .068   576.200    39.430    12.390
    19.200    27.100      .068   571.700    39.160    12.460
    19.250    26.770      .068   576.100    38.900    12.550
    19.300    26.500      .068   580.500    38.590    12.470
    19.350    26.130      .068   585.600    38.400    12.430
    19.400    25.850      .068   587.700    38.220    12.430
    19.450    25.540      .068   590.500    38.040    12.470
    19.500    25.240      .068   591.700    37.870    12.570
    19.550    24.970      .068   592.500    37.700    12.680
    19.600    24.730      .068   592.900    37.540    12.800
    19.650    24.510      .069   592.600    37.390    12.980
    19.700    24.310      .069   592.300    37.250    13.070
    19.750    24.140      .069   591.800    37.100    13.110
    19.800    23.990      .069   591.300    36.970    13.180
