~Version Information
 VERS.                2.0:  CWLS LOG ASCII STANDARD -VERSION 2.0
 WRAP.                 NO:  ONE LINE PER DEPTH STEP
~WELL INFORMATION BLOCK
#MNEM.UNIT       DATA		            DESCRIPTION OF MNEMONIC
#---------    -------------            ------------------------
 STRT.M      .450                        :START DEPTH
 STOP.M   #######                        :STOP DEPTH
 STEP.M      .050                        :STEP
 NULL.    -999999.0                      :NULL VALUE
 COMP.       SCHIFOOD                    :COMPANY
 WELL.                          B62B0897 :WELL
 FLD .    Heerlen                        :FIELD
 CNTY.                                   :COUNTY
 STAT.                                   :STATE
 SRVC.                                   :SERVICE COMPANY
 DATE.     10-DEC-90                     :LOG DATE
 UWI .                                   :UNIQUE WELL ID
 LIC .                                   :LICENSE NUMBER
~Curve Information Block
#MNEM.UNIT      API CODE     Curve Description
#---------    -------------  ------------------------
DEPTH    .M         00 000 00 00          :  1  DEPTH
SN40     .OHM.M     00 000 00 00          :  2  SN40
SP       .V         00 000 00 00          :  3  SP
CAL      .MM        00 000 00 00          :  4  CAL
LN160    .OHM.M     00 000 00 00          :  5  LN160
GAMMA    .CPS       00 000 00 00          :  6  GAMMA
~Parameter Information Block
#MNEM.UNIT   Information     Description
#---------- ---------------  ------------------------
 FILE.                         :File Type
 FIID.                         :File Type Identifier
 VERS.                         :System Version
 SER .                         :System Serial Number
 TRUK.                         :Truck Calibration Number
 TOOL.                         :Tool Serial Number
 TIME.                         :Time    HrHrMinMin
 LAT .                         :Latitude
 LON .                         :Longitude
 LMF .            MV           :LOG Measured FROM
 DMF .                         :Driller Measured From
 PD  .                         :Permanent Data
 PDEV.                         :Elevation Permanent Data
 EKB .M                        :Elevation Kelly Bushing
 ELEV.DF                       :Elevation DF
 EGL .M                        :Elevation Ground Level
 DRDP.                         :Drillers Depth
 CASD.                         :Casing Diameter
 CASB.                         :Casing Bottom
 CASX.                         :Casing Type
 CAST.                         :Casing Thickness
 TNOC.                         :Time Circulation Stopped
 LOGU.                         :Logging Unit
 RECB.            Bergsma      :Recorded By
 OSR1.                         :Other Services
 OSR2.                         :Other Services
 OSR3.                         :Other Services
 BS  .MM                       :Bit Size
 MST .                         :Mean Surface Temperature
 TGRD.                         :Temperature Gradiant
 MAGN.                         :Magnetic Declination
 MDEN.                         :Density Matrix
 MATR.                         :Neutron Matrix
 DTMT.                         :Delta T Matrix
 DTFL.                         :Delta T Fluid
 MUDS.                         :Mud Sample Source
 MRS .                         :Mud Resistivity
 MTP .                         :Mud Temperature
 MFRS.                         :Resistivity Mud Filtrate
 MFTP.                         :Temperature Mud Filtrate
 MCRS.                         :Resistivity Mud Cake
 MCTP.                         :Temperature Mud Cake
 FTYP.                         :Fluid Type
 FD  .K/M3                     :Fluid Density
 DFV .S                        :Fluid Viscosity
 FPH .                         :Fuild PH
 ELCO.                         :Electron Cutoff
~Other Information
#MNEM.UNIT  Information      Description
#---------- ---------------  ------------------------
# --------------------------
## COMMENTS    Top_Depth   Bot_Depth  LithCode  Lat    Long   Elev_Gl
##    Type of LithCode   Lithologie - 1970
##                    .00         .00         .00     
##                    .45        6.00         .00     
##                   6.05        8.10        2.00     
##                   8.15       15.30       23.00     
##                  15.35       18.50       22.00     
##                  18.55       20.80       11.00     
##                  20.85       22.35       12.00     
##                  22.40       23.40       11.00     
##                  23.45       25.30       12.00     
##                  25.35       26.25       11.00     
##                  26.30       27.80       12.00     
##                  27.85       35.10       11.00     
##                  35.15       47.80       12.00     
##                  47.85       50.40        6.00     
##                  50.45       52.00       23.00     
##                  52.05       53.20       11.00     
##                  53.25       54.60       12.00     
##                  54.65       55.50       11.00     
##                  55.55       56.50       12.00     
##                  56.55       57.25       11.00     
##                  57.30       58.60       12.00     
##                  58.65       64.40       11.00     
##                  64.45       71.10        9.00     
##                  71.15       74.20        7.00     
##                  74.25       75.90        9.00     
##                  75.95       78.90        7.00     
##                  78.95       93.30        9.00     
##                  93.35       95.20       10.00     
##                  95.25       97.60        9.00     
##                  97.65       99.95       10.00     
##                 100.00      100.00         .00     
##                 100.05      126.75     #######     
##    last_layer   126.75
# --------------------------
~A DEPTH    SN40     SP       CAL      LN160    GAMMA    
# ...
    85.850    25.510      .061   562.600    34.230    13.910
    85.900    25.540      .061   560.600    34.140    13.940
    85.950    25.570      .061   560.000    34.060    14.010
    86.000    25.600      .061   559.300    33.970    14.280
    86.050    25.630      .061   558.000    33.890    14.380
    86.100    25.650      .061   548.200    33.800    14.390
    86.150    25.670      .060   550.600    33.700    14.440
    86.200    25.650      .060   552.000    33.550    14.500
    86.250    25.650      .060   544.100    33.400    14.510
    86.300    25.640      .060   528.600    33.260    14.540
    86.350    25.640      .060   512.100    33.150    14.500
    86.400    25.640      .060   518.300    33.060    14.370
    86.450    25.640      .060   524.500    32.970    14.240
    86.500    25.650      .060   530.600    32.900    14.090
    86.550    25.620      .060   536.800    32.860    14.060
    86.600    25.590      .060   543.000    32.810    14.130
    86.650    25.570      .060   549.200    32.780    14.090
    86.700    25.550      .060   549.800    32.780    13.980
    86.750    25.520      .060   546.100    32.790    13.900
    86.800    25.480      .060   542.500    32.790    13.810
    86.850    25.450      .060   538.900    32.800    13.780
    86.900    25.420      .060   534.600    32.810    13.800
    86.950    25.380      .061   543.900    32.820    13.900
    87.000    25.330      .061   553.300    32.820    13.990
    87.050    25.280      .061   557.000    32.810    14.070
    87.100    25.210      .062   553.600    32.800    14.060
    87.150    25.120      .062   550.300    32.790    14.030
    87.200    25.020      .062   547.300    32.780    14.010
    87.250    24.890      .062   562.700    32.770    13.980
    87.300    24.770      .063   566.500    32.760    13.940
    87.350    24.640      .063   567.900    32.750    13.940
    87.400    24.510      .064   568.500    32.740    13.940
    87.450    24.390      .064   570.800    32.720    13.940
    87.500    24.270      .065   571.900    32.710    13.920
    87.550    24.160      .065   572.700    32.690    13.890
    87.600    24.030      .066   573.200    32.670    13.860
    87.650    23.910      .066   574.000    32.650    13.810
    87.700    23.760      .066   574.500    32.650    13.750
    87.750    23.610      .066   574.900    32.660    13.700
    87.800    23.460      .066   575.300    32.640    13.570
    87.850    23.290      .066   575.100    32.610    13.440
    87.900    23.110      .066   574.300    32.560    13.340
    87.950    22.970      .066   573.300    32.490    13.210
    88.000    22.830      .066   573.300    32.420    13.080
    88.050    22.760      .065   573.300    32.350    12.970
    88.100    22.690      .065   573.300    32.280    12.970
    88.150    22.650      .065   573.200    32.160    13.080
    88.200    22.590      .065   573.000    32.020    13.060
    88.250    22.570      .065   571.600    31.890    12.770
    88.300    22.550      .065   568.800    31.770    12.360
    88.350    22.530      .064   567.600    31.660    12.320
    88.400    22.500      .064   567.000    31.560    12.180
    88.450    22.490      .064   566.100    31.450    12.130
    88.500    22.480      .064   565.500    31.340    12.230
    88.550    22.480      .064   565.700    31.230    12.350
    88.600    22.470      .064   566.100    31.130    12.210
    88.650    22.470      .064   566.500    31.050    12.050
    88.700    22.460      .064   566.700    30.970    11.950
    88.750    22.460      .064   566.900    30.920    11.840
    88.800    22.450      .064   567.400    30.840    11.760
    88.850    22.440      .064   568.000    30.770    11.670
    88.900    22.440      .064   569.300    30.720    11.560
    88.950    22.460      .064   570.800    30.660    11.370
    89.000    22.470      .064   571.900    30.610    11.260
    89.050    22.480      .064   571.700    30.580    11.150
    89.100    22.490      .064   570.900    30.550    11.150
    89.150    22.510      .064   570.700    30.530    11.280
    89.200    22.530      .064   570.900    30.520    11.360
    89.250    22.550      .064   570.900    30.500    11.250
    89.300    22.570      .064   570.900    30.470    11.180
    89.350    22.570      .064   571.600    30.450    11.170
    89.400    22.580      .063   573.100    30.430    11.270
    89.450    22.580      .063   574.600    30.410    11.350
    89.500    22.570      .063   575.200    30.410    11.520
    89.550    22.560      .063   575.000    30.420    12.150
    89.600    22.550      .063   574.500    30.430    12.250
    89.650    22.540      .063   574.200    30.430    12.430
    89.700    22.530      .063   574.100    30.440    12.490
    89.750    22.530      .063   573.900    30.450    12.520
    89.800    22.520      .063   573.500    30.450    12.650
    89.850    22.520      .063   572.700    30.460    12.800
    89.900    22.510      .062   573.200    30.460    12.940
    89.950    22.510      .062   573.600    30.470    13.010
    90.000    22.510      .062   573.400    30.390    12.870
    90.050    22.530      .062   572.400    30.310    12.740
    90.100    22.550      .062   570.600    30.280    12.580
    90.150    22.590      .062   569.600    30.320    12.720
    90.200    22.630      .062   568.800    30.350    13.080
    90.250    22.680      .062   568.600    30.390    13.430
    90.300    22.730      .061   568.600    30.410    13.790
    90.350    22.790      .061   568.200    30.410    14.170
    90.400    22.850      .061   567.500    30.320    13.900
    90.450    22.920      .061   567.000    30.210    13.620
    90.500    22.990      .061   566.800    30.090    13.350
    90.550    23.020      .061   566.900    29.950    13.140
    90.600    23.050      .061   567.100    29.880    13.110
    90.650    23.060      .061   567.500    29.820    13.120
    90.700    23.070      .060   568.000    29.770    13.070
    90.750    23.080      .060   568.800    29.720    12.980
    90.800    23.070      .060   569.700    29.670    12.900
    90.850    23.060      .060   569.900    29.620    12.700
    90.900    23.050      .060   570.100    29.560    12.650
    90.950    23.030      .060   569.200    29.500    12.590
    91.000    23.020      .060   569.100    29.420    12.480
    91.050    22.980      .059   569.200    29.340    12.420
    91.100    22.930      .059   569.500    29.250    12.370
    91.150    22.900      .059   569.900    29.170    12.230
    91.200    22.870      .059   570.600    29.100    12.090
    91.250    22.820      .059   571.300    29.030    11.950
    91.300    22.760      .059   571.700    28.980    11.900
    91.350    22.710      .059   571.900    28.920    11.890
    91.400    22.640      .059   572.100    28.880    11.950
    91.450    22.570      .059   572.000    28.840    12.130
    91.500    22.510      .059   572.300    28.790    12.640
    91.550    22.440      .059   572.700    28.750    12.760
    91.600    22.380      .059   572.900    28.700    13.000
    91.650    22.320      .059   573.000    28.670    13.190
    91.700    22.250      .059   573.300    28.640    13.390
    91.750    22.180      .059   573.800    28.590    13.520
    91.800    22.110      .059   574.800    28.550    13.460
    91.850    22.050      .059   576.400    28.510    13.340
    91.900    21.980      .059   578.700    28.460    13.310
    91.950    21.910      .059   579.900    28.420    13.300
    92.000    21.820      .059   581.200    28.370    13.300
    92.050    21.720      .059   581.300    28.340    13.240
    92.100    21.620      .059   579.400    28.310    12.970
    92.150    21.530      .059   578.000    28.290    12.870
    92.200    21.430      .059   577.400    28.260    12.840
    92.250    21.330      .059   577.100    28.220    12.860
    92.300    21.230      .060   577.000    28.180    12.810
    92.350    21.140      .060   577.200    28.140    12.800
    92.400    21.040      .060   578.800    28.090    12.810
