~Version Information Block
 VERS.                2.00:     CWLS LOG ASCII STANDARD - VERSION 2.000000
 WRAP.                  NO:     One Line Per Depth Step
#
~Well Information Block
#MNEM.UNIT                     Data                         Information
#----------   ------------------------------------------   ----------------
 STRT.M                                         0.0000:
 STOP.M                                        32.0000:
 STEP.M                                         0.0200:
 NULL.                                       -999.2500:
 COMP.                                                :     COMPANY
 WELL.                                        B62B0912:     WELL
 FLD .                                                :     FIELD
 CNTY.                                                :     COUNTY
 STAT.                                                :     STATE
 CTRY.                                                :     COUNTRY
 SRVC.                                                :     SERVICE COMPANY
 DATE.                                                :     DATE
 API .                                                :     API NUMBER
 UWI .                                                :     UWI NUMBER
#
~Curve Information Block
#MNEM.UNIT       API CODE      Curve Description
#----------    -------------   -------------------
 DEPT.M                    :   Depth in Meters
 CAL .CM                   :   Cal
 GAM(NAT) .CPS             :   GAM(NAT)
 SP  .MV                   :   SP
 SN40.OHM-M                :   SN40
 LN160.OHM-M               :   LN160
#
~Parameter Information Block
#MNEM.UNIT            Value               Description
#----------    --------------------    -------------------
 PDAT.                            :    Permanent Datum
 EPD .M                     0.0000:    Elevation Of Perm. Datum
 WSTA.                         LOC:    
 E   .M                     0.0000:    E (Stretch Coefficient Of The Cable)
 TD  .M                    32.0000:    Total Depth
#
~Other Information Block
<DescLogPlotStart>   NEURALOG PLOT DEFINITION
PLOTDEFVERSION: 3
LASFILE: D:\NeurLrest_23_04_'08en 20_05\nlg_1\B62B0912.las
DEPTHSCALE: 200.000000
RESOLUTION: 600
DEPTHLABELFREQ: 50.000000
HEAVYGRIDFREQ: 50.000000
MEDIUMGRIDFREQ: 25.000000
LIGHTGRIDFREQ: 5.000000
#
#   TRACK 1
#
STARTTRACK: 
 LEFTX: 0.500000 inch
 RIGHTX: 3.000000 inch
 SCALETYPE: LINEAR
 NUMCHARTDIVISIONS: 10
CURVE: SP    0.000000   50.000000  (0,0,255)      Solid             2     N    
ENDTRACK: 
#
#   TRACK 2
#
STARTTRACK: 
 LEFTX: 3.500000 inch
 RIGHTX: 6.000000 inch
 SCALETYPE: LINEAR
 NUMCHARTDIVISIONS: 10
CURVE: CAL   0.000000   100.000000 (0,131,131)    Solid             2     N    
ENDTRACK: 
#
#   TRACK 3
#
STARTTRACK: 
 LEFTX: 6.000000 inch
 RIGHTX: 11.000000 inch
 SCALETYPE: LINEAR
 NUMCHARTDIVISIONS: 10
CURVE: SN40  0.000000   100.000000 (255,0,255)    Solid             2     N    
CURVE: LN160  0.000000   100.000000 (255,0,0)      Dot               2     N    
ENDTRACK: 
#
#   TRACK 4
#
STARTTRACK: 
 LEFTX: 11.000000 inch
 RIGHTX: 16.000000 inch
 SCALETYPE: LINEAR
 NUMCHARTDIVISIONS: 10
CURVE: GAM(NAT)   0.000000   50.000000  (255,131,0)    Solid             2     N    
ENDTRACK: 
<DescLogPlotEnd>
~A  DEPTH        CAL               GAM(NAT)         SP                SN40            LN160  
# ...
      18.560      45.85746835      17.22832312      32.74529570      58.05109244      50.20168067
      18.580      47.62312262      17.61811114      32.74529570      58.13132353      50.20168067
      18.600      49.38877688      18.00789916      32.75537634      58.21155462      50.20168067
      18.620      51.15443115      18.39768718      32.80226760      58.29178571      50.20168067
      18.640      52.92008541      18.78747520      32.84915886      58.37201681      50.20168067
      18.660      54.68573968      19.17726321      32.87970430      58.45224790      50.20168067
      18.680      56.45139395      19.56705123      32.90933923      58.53247899      50.20168067
      18.700      56.82123656      19.62184874      32.98051075      58.60504202      50.20168067
      18.720      56.82123656      19.62184874      33.03672390      58.60504202      50.20168067
      18.740      56.82123656      19.40336134      33.11721731      58.60504202      50.20168067
      18.760      56.82123656      19.40336134      33.19771072      58.36974790      50.20168067
      18.780      56.82123656      19.40336134      33.24932796      58.36974790      50.20168067
      18.800      52.04918921      19.50420168      33.32509539      58.33697479      50.30000000
      18.820      46.00242803      19.50420168      33.38373656      58.16806723      50.80672269
      18.840      40.73104550      19.59733261      33.45248006      58.16806723      50.80672269
      18.860      37.37173373      19.62184874      33.49937131      58.10770858      51.65792017
      18.880      34.01242196      19.62184874      33.54626257      57.99882353      51.76201681
      18.900      33.58429587      19.50420168      33.58534946      57.88993848      51.93340336
      18.920      33.94548907      19.50420168      33.61895161      57.78105342      52.72268908
      18.940      34.30668228      19.42579290      33.61973205      57.67216837      52.72268908
      18.960      34.66787548      19.17464082      33.65255376      57.56328331      52.82655462
      18.980      35.02906868      18.92348875      33.65255376      57.10104517      53.18132353
      19.000      35.39026188      18.67233668      33.65255376      56.47925420      53.26155462
      19.020      35.75145508      18.66386555      33.52017863      55.85746324      53.98044118
      19.040      36.11264828      18.66386555      33.52822797      55.23567227      54.06067227
      19.060      36.47384148      18.56302521      33.53627732      54.61388130      54.22474790
      19.080      36.83503469      18.56302521      33.54432666      54.40336134      54.60504202
      19.100      37.06317204      18.56302521      33.55803417      54.40336134      54.60504202
      19.120      37.06317204      18.56302521      33.56577350      53.32773109      55.00840336
      19.140      37.33840617      18.56302521      33.55174731      53.32773109      55.00840336
      19.160      37.46639785      18.56302521      33.59790149      53.32773109      55.00840336
      19.180      37.46639785      18.56302521      33.61895161      53.12605042      55.64705882
      19.200      30.74596774      18.56302521      33.65255376      53.12605042      55.64705882
      19.220      30.74596774      18.66386555      33.65255376      52.82712185      55.94598739
      19.240      29.92416753      18.66386555      33.65255376      52.08403361      56.68907563
      19.260      29.53629032      18.04201681      33.65255376      52.08403361      56.68907563
      19.280      29.53629032      18.04201681      33.65255376      51.43033613      56.92436975
      19.300      29.06586022      18.04201681      33.65255376      51.35010504      56.92436975
      19.320      29.06586022      17.94117647      33.60089317      51.08394958      56.96899160
      19.340      29.06586022      17.94117647      33.58534946      50.40336134      57.12605042
      19.360      29.06586022      17.82861480      33.55174731      50.40336134      57.12605042
      19.380      29.09777142      17.82352941      33.49382154      50.08245798      57.12605042
      19.400      28.72983871      17.82352941      33.44693028      49.56302521      57.12605042
      19.420      28.72983871      17.72268908      33.38373656      49.56302521      57.12605042
      19.440      28.72983871      17.72268908      33.31954561      48.72268908      56.92436975
      19.460      28.72983871      17.72268908      33.23905220      48.72268908      56.92436975
      19.480      28.72983871      17.23895365      33.18212366      48.58449580      56.84995798
      19.500      28.37864204      16.73664950      33.17887183      48.28571429      56.68907563
      19.520      28.32661290      16.46218487      33.09837843      48.28571429      56.68907563
      19.540      28.32661290      16.46218487      32.98428287      47.68067227      56.28571429
      19.560      28.32661290      16.37481160      32.90378946      47.68067227      56.28571429
      19.580      28.32661290      16.36134454      32.84610215      47.68067227      56.28571429
      19.600      28.32661290      16.36134454      32.80751387      47.44537815      56.07401422
      19.620      28.32661290      16.36134454      32.69591138      47.44537815      55.76543310
      19.640      28.32661290      16.36134454      32.61541797      47.27949580      55.45685197
      19.660      28.32661290      16.36134454      32.54368280      47.04201681      55.14827085
      19.680      28.32661290      16.36134454      32.45443115      47.04201681      54.83968972
      19.700      28.32661290      16.36134454      32.37393774      47.04201681      54.60504202
      19.720      28.32661290      16.56185416      32.29344433      47.04201681      54.60504202
      19.740      28.32661290      16.56302521      32.21295092      47.02503717      54.53533613
      19.760      28.32661290      16.56302521      32.15806018      46.90777634      54.40336134
      19.780      28.32661290      16.78151261      32.07325269      46.79051551      54.40336134
      19.800      28.32661290      16.78151261      31.97147069      46.67325469      54.28424370
      19.820      28.32661290      16.78151261      31.89097728      46.55599386      54.16806723
      19.840      28.32661290      16.68067227      31.83803763      46.43873303      54.16806723
      19.860      28.32661290      16.68067227      31.72999046      46.32147220      54.01937379
      19.880      28.32661290      16.68067227      31.64949705      46.20421138      53.80645281
      19.900      28.32661290      16.68067227      31.60260579      46.08695055      53.59353184
      19.920      28.32661290      16.68067227      31.53561828      45.96968972      53.38061086
      19.940      28.32661290      16.70988230      31.41482397      45.85242889      53.16768988
      19.960      28.32661290      16.94675836      31.32752341      45.76470588      52.95476891
      19.980      28.32661290      17.18363442      31.22725893      45.76470588      52.74184793
      20.000      28.32661290      17.42051048      31.06627211      45.75210084      52.52892696
      20.020      28.32661290      17.65738654      30.90528529      45.73109244      52.31600598
      20.040      28.32661290      17.89426260      30.74429847      45.73109244      52.10308500
      20.060      28.32661290      18.13113866      30.58331165      45.73109244      51.89016403
      20.080      28.32661290      18.36801472      30.42232484      45.73109244      51.84873950
      20.100      28.32661290      18.56302521      30.26133802      45.73109244      51.84873950
      20.120      28.32661290      18.56302521      30.08836282      45.73109244      51.59004202
      20.140      28.32661290      18.56302521      29.90576223      45.73109244      51.50981092
      20.160      28.32661290      18.56302521      29.71613770      45.73109244      51.42957983
      20.180      28.32661290      18.56302521      29.60204214      45.73109244      51.41176471
