~Version Information Block
 VERS.                2.00:     CWLS LOG ASCII STANDARD - VERSION 2.000000
 WRAP.                  NO:     One Line Per Depth Step
#
~Well Information Block
#MNEM.UNIT                     Data                         Information
#----------   ------------------------------------------   ----------------
 STRT.M                                         0.0000:
 STOP.M                                        32.0000:
 STEP.M                                         0.0200:
 NULL.                                       -999.2500:
 COMP.                                                :     COMPANY
 WELL.                                        B62B0912:     WELL
 FLD .                                                :     FIELD
 CNTY.                                                :     COUNTY
 STAT.                                                :     STATE
 CTRY.                                                :     COUNTRY
 SRVC.                                                :     SERVICE COMPANY
 DATE.                                                :     DATE
 API .                                                :     API NUMBER
 UWI .                                                :     UWI NUMBER
#
~Curve Information Block
#MNEM.UNIT       API CODE      Curve Description
#----------    -------------   -------------------
 DEPT.M                    :   Depth in Meters
 CAL .CM                   :   Cal
 GAM(NAT) .CPS             :   GAM(NAT)
 SP  .MV                   :   SP
 SN40.OHM-M                :   SN40
 LN160.OHM-M               :   LN160
#
~Parameter Information Block
#MNEM.UNIT            Value               Description
#----------    --------------------    -------------------
 PDAT.                            :    Permanent Datum
 EPD .M                     0.0000:    Elevation Of Perm. Datum
 WSTA.                         LOC:    
 E   .M                     0.0000:    E (Stretch Coefficient Of The Cable)
 TD  .M                    32.0000:    Total Depth
#
~Other Information Block
<DescLogPlotStart>   NEURALOG PLOT DEFINITION
PLOTDEFVERSION: 3
LASFILE: D:\NeurLrest_23_04_'08en 20_05\nlg_1\B62B0912.las
DEPTHSCALE: 200.000000
RESOLUTION: 600
DEPTHLABELFREQ: 50.000000
HEAVYGRIDFREQ: 50.000000
MEDIUMGRIDFREQ: 25.000000
LIGHTGRIDFREQ: 5.000000
#
#   TRACK 1
#
STARTTRACK: 
 LEFTX: 0.500000 inch
 RIGHTX: 3.000000 inch
 SCALETYPE: LINEAR
 NUMCHARTDIVISIONS: 10
CURVE: SP    0.000000   50.000000  (0,0,255)      Solid             2     N    
ENDTRACK: 
#
#   TRACK 2
#
STARTTRACK: 
 LEFTX: 3.500000 inch
 RIGHTX: 6.000000 inch
 SCALETYPE: LINEAR
 NUMCHARTDIVISIONS: 10
CURVE: CAL   0.000000   100.000000 (0,131,131)    Solid             2     N    
ENDTRACK: 
#
#   TRACK 3
#
STARTTRACK: 
 LEFTX: 6.000000 inch
 RIGHTX: 11.000000 inch
 SCALETYPE: LINEAR
 NUMCHARTDIVISIONS: 10
CURVE: SN40  0.000000   100.000000 (255,0,255)    Solid             2     N    
CURVE: LN160  0.000000   100.000000 (255,0,0)      Dot               2     N    
ENDTRACK: 
#
#   TRACK 4
#
STARTTRACK: 
 LEFTX: 11.000000 inch
 RIGHTX: 16.000000 inch
 SCALETYPE: LINEAR
 NUMCHARTDIVISIONS: 10
CURVE: GAM(NAT)   0.000000   50.000000  (255,131,0)    Solid             2     N    
ENDTRACK: 
<DescLogPlotEnd>
~A  DEPTH        CAL               GAM(NAT)         SP                SN40            LN160  
# ...
      16.920      30.74596774      13.75345330      39.06250000    -999.25000000      51.65003759
      16.940      30.74596774      13.85855079      39.06250000    -999.25000000      51.78094096
      16.960      30.74596774      13.96364827      38.85778703    -999.25000000      51.91184432
      16.980      30.74596774      14.06874575      38.82728495    -999.25000000      52.04274768
      17.000      30.74596774      14.17384323      38.82728495    -999.25000000      52.17365104
      17.020      30.74596774      14.27894072      38.79532605    -999.25000000      52.30455440
      17.040      30.74596774      14.38403820      38.72288198    -999.25000000      52.39050420
      17.060      30.74596774      14.44537815      38.65043791    -999.25000000      52.43712185
      17.080      30.74596774      14.44537815      38.57799384    -999.25000000      52.51735294
      17.100      30.36355359      14.44537815      38.50340357    -999.25000000      52.52100840
      17.120      30.34274194      14.44537815      38.49126344    -999.25000000      52.52100840
      17.140      30.34274194      14.44537815      38.45766129    -999.25000000      52.52100840
      17.160      29.93951613      14.55718081      38.39633195    -999.25000000      52.52100840
      17.180      29.93951613      14.56302521      38.30842438    -999.25000000      52.35449580
      17.200      29.93951613      14.56302521      38.22244624    -999.25000000      52.31932773
      17.220      29.53629032      14.67989184      38.18845387    -999.25000000      52.31932773
      17.240      29.53629032      14.81149553      38.04075616    -999.25000000      52.04012987
      17.260      29.06586022      14.94309921      37.98723118    -999.25000000      51.70461803
      17.280      29.06586022      15.07470290      37.91337149    -999.25000000      51.36910619
      17.300      29.06586022      15.20630659      37.84653573    -999.25000000      51.03359435
      17.320      29.14453260      15.33791027      37.75238467    -999.25000000      50.69808251
      17.340      29.22515609      15.46951396      37.67189126    -999.25000000      50.36257066
      17.360      29.30577957      15.60111765      37.59879032    -999.25000000      50.02705882
      17.380      29.38640305      15.73272133      37.53860995    -999.25000000      49.69154698
      17.400      29.46702653      15.86432502      37.46401318    -999.25000000      49.35603514
      17.420      29.54765002      15.99592871      37.35104492    -999.25000000      49.02052330
      17.440      29.62827350      16.12753239      37.26942421    -999.25000000      48.68501146
      17.460      29.70889698      16.25913608      37.22253295      71.61344538      48.34949962
      17.480      29.78952046      16.39073977      37.13176379      71.61344538      48.01398778
      17.500      29.87014395      16.52234345      36.99434183      69.73109244      47.67909664
      17.520      30.05845845      16.65394714      36.94556452      69.73109244      47.43840336
      17.540      30.91076384      16.82351727      36.86695716      69.73109244      47.19771008
      17.560      31.76306922      17.19482049      36.76177159      70.04294781      46.95701681
      17.580      32.42607527      17.56612372      36.63438692      70.38498563      46.71632353
      17.600      32.42607527      17.93742694      36.49106833      70.72702344      46.47563025
      17.620      32.42607527      18.30873017      36.41057492      71.06906126      46.23493697
      17.640      32.42607527      18.68003340      36.38664152      71.41109907      45.99424370
      17.660      32.42607527      19.05133662      36.28319025      71.75313689      45.75355042
      17.680      32.42607527      19.42263985      36.13187218      72.09517470      45.51285714
      17.700      32.42607527      19.79394307      35.98779483      72.43721252      45.27216387
      17.720      32.42607527      20.16524630      35.90730142      72.77925033      45.15966387
      17.740      32.42607527      20.53654953      35.86041016      73.12128815      45.15966387
      17.760      32.42607527      20.64705882      35.75674211      73.46332596      44.92436975
      17.780      32.35717774      20.64705882      35.56501474      73.80536378      44.92436975
      17.800      32.04317049      20.41142037      35.51812348      74.14740159      44.92436975
      17.820      31.72916324      20.02586799      35.46706989      74.48943941      44.92436975
      17.840      31.41515600      19.64031562      35.41521419      74.83147722      44.92436975
      17.860      31.10114875      19.25476325      35.31024540      75.17351504      44.92436975
      17.880      30.78714150      18.86921088      35.22975199      75.10829532      44.92436975
      17.900      30.47313425      18.48365850      35.14925858      75.03952581      44.92436975
      17.920      30.15912701      18.09810613      35.06876518      74.94655462      45.02278075
      17.940      29.93951613      17.71255376      35.02187392      74.46516807      45.22882878
      17.960      29.93951613      17.32700138      34.97498266      73.98378151      45.43487681
      17.980      29.93951613      16.94144901      34.72647849      73.50239496      45.64092485
      18.000      29.53629032      16.55589664      34.62844496      73.02100840      45.84697288
      18.020      29.53629032      16.17034427      34.51868122      72.53962185      46.05302091
      18.040      29.53629032      15.78479189      34.40891748      72.05823529      46.25906895
      18.060      29.53629032      15.39923952      34.29915374      71.57684874      46.46511698
      18.080      29.53629032      15.01368715      34.18960284      71.09546218      46.67116501
      18.100      29.53629032      14.68067227      34.10910943      70.61407563      46.87721304
      18.120      29.53629032      14.68067227      34.06221818      70.13268908      47.08326108
      18.140      29.20000867      14.68067227      33.92137097      69.73730742      47.28930911
      18.160      29.06586022      14.68067227      33.83402706      69.40301120      47.49535714
      18.180      29.06586022      14.68067227      33.75370708      69.06871499      47.70140518
      18.200      29.06586022      14.68067227      33.67304024      68.73441877      47.90745321
      18.220      29.53629032      14.68067227      33.59254683      68.40012255      48.11350124
      18.240      29.53629032      14.68067227      33.41733871      67.87092437      48.31954927
      18.260      30.21398983      14.75701410      33.33075356      67.18684874      48.52559731
      18.280      31.67761613      14.88259013      33.21759018      66.50277311      48.73076515
      18.300      33.14124243      15.00816617      33.16976674      65.81869748      48.91656347
      18.320      34.60486873      15.13374221      33.11491935      65.13462185      49.10236179
      18.340      36.06849502      15.25931824      33.04238207      64.45054622      49.28816011
      18.360      37.46639785      15.38489428      32.99549081      63.76647059      49.47395843
      18.380      37.46639785      15.51047032      32.98051075      63.08239496      49.65975674
      18.400      37.46639785      15.63604635      32.93531044      58.80672269      49.84555506
      18.420      37.66897701      15.76162239      32.87970430      58.80672269      50.03135338
      18.440      39.25841138      15.88719843      32.87513007      57.96638655      50.20168067
      18.460      40.84784575      16.01277446      32.81250000      57.96638655      50.20168067
      18.480      42.10349462      16.13835050      32.77889785      57.96638655      50.20168067
      18.500      42.10349462      16.26392654      32.73445630      57.96638655      50.20168067
      18.520      42.32615982      16.44874709      32.71169355      57.96638655      50.20168067
      18.540      44.09181408      16.83853510      32.71550902      57.97086134      50.20168067
