~Version Information Block
 VERS.                2.00:     CWLS LOG ASCII STANDARD - VERSION 2.000000
 WRAP.                  NO:     One Line Per Depth Step
#
~Well Information Block
#MNEM.UNIT                     Data                         Information
#----------   ------------------------------------------   ----------------
 STRT.M                                         0.0000:
 STOP.M                                        32.0000:
 STEP.M                                         0.0200:
 NULL.                                       -999.2500:
 COMP.                                                :     COMPANY
 WELL.                                        B62B0912:     WELL
 FLD .                                                :     FIELD
 CNTY.                                                :     COUNTY
 STAT.                                                :     STATE
 CTRY.                                                :     COUNTRY
 SRVC.                                                :     SERVICE COMPANY
 DATE.                                                :     DATE
 API .                                                :     API NUMBER
 UWI .                                                :     UWI NUMBER
#
~Curve Information Block
#MNEM.UNIT       API CODE      Curve Description
#----------    -------------   -------------------
 DEPT.M                    :   Depth in Meters
 CAL .CM                   :   Cal
 GAM(NAT) .CPS             :   GAM(NAT)
 SP  .MV                   :   SP
 SN40.OHM-M                :   SN40
 LN160.OHM-M               :   LN160
#
~Parameter Information Block
#MNEM.UNIT            Value               Description
#----------    --------------------    -------------------
 PDAT.                            :    Permanent Datum
 EPD .M                     0.0000:    Elevation Of Perm. Datum
 WSTA.                         LOC:    
 E   .M                     0.0000:    E (Stretch Coefficient Of The Cable)
 TD  .M                    32.0000:    Total Depth
#
~Other Information Block
<DescLogPlotStart>   NEURALOG PLOT DEFINITION
PLOTDEFVERSION: 3
LASFILE: D:\NeurLrest_23_04_'08en 20_05\nlg_1\B62B0912.las
DEPTHSCALE: 200.000000
RESOLUTION: 600
DEPTHLABELFREQ: 50.000000
HEAVYGRIDFREQ: 50.000000
MEDIUMGRIDFREQ: 25.000000
LIGHTGRIDFREQ: 5.000000
#
#   TRACK 1
#
STARTTRACK: 
 LEFTX: 0.500000 inch
 RIGHTX: 3.000000 inch
 SCALETYPE: LINEAR
 NUMCHARTDIVISIONS: 10
CURVE: SP    0.000000   50.000000  (0,0,255)      Solid             2     N    
ENDTRACK: 
#
#   TRACK 2
#
STARTTRACK: 
 LEFTX: 3.500000 inch
 RIGHTX: 6.000000 inch
 SCALETYPE: LINEAR
 NUMCHARTDIVISIONS: 10
CURVE: CAL   0.000000   100.000000 (0,131,131)    Solid             2     N    
ENDTRACK: 
#
#   TRACK 3
#
STARTTRACK: 
 LEFTX: 6.000000 inch
 RIGHTX: 11.000000 inch
 SCALETYPE: LINEAR
 NUMCHARTDIVISIONS: 10
CURVE: SN40  0.000000   100.000000 (255,0,255)    Solid             2     N    
CURVE: LN160  0.000000   100.000000 (255,0,0)      Dot               2     N    
ENDTRACK: 
#
#   TRACK 4
#
STARTTRACK: 
 LEFTX: 11.000000 inch
 RIGHTX: 16.000000 inch
 SCALETYPE: LINEAR
 NUMCHARTDIVISIONS: 10
CURVE: GAM(NAT)   0.000000   50.000000  (255,131,0)    Solid             2     N    
ENDTRACK: 
<DescLogPlotEnd>
~A  DEPTH        CAL               GAM(NAT)         SP                SN40            LN160  
# ...
      23.480      27.99059140      15.37729696      22.26142473      46.92532983      46.37016973
      23.500      27.99059140      15.59039569      22.26142473      46.80097164      46.40035569
      23.520      27.99059140      15.80349442      22.22782258      46.67661345      46.43054164
      23.540      27.99059140      16.01659315      22.19422043      46.55225525      46.46072760
      23.560      27.99059140      16.22969188      22.18145161      46.42789706      46.49091355
      23.580      27.99059140      16.44279061      22.16061828      46.33613445      46.52109951
      23.600      27.99059140      16.65588934      22.19422043      46.33613445      46.55128546
      23.620      28.00493193      16.86898806      22.17518644      46.25558824      46.58147142
      23.640      28.03516573      17.08208679      22.19422043      46.13445378      46.61165738
      23.660      28.06539954      17.29518552      22.22782258      46.13445378      46.64184333
      23.680      28.09563335      17.50828425      22.26142473      46.21573109      46.67202929
      23.700      28.12586715      17.72138298      22.29502688      46.34008929      46.70221524
      23.720      28.15610096      17.73949580      22.29502688      46.46444748      46.73240120
      23.740      28.18633476      17.73949580      22.29502688      46.58880567      46.76258715
      23.760      28.21656857      17.84033613      22.29502688      46.71316387      46.79277311
      23.780      28.24680238      17.84033613      22.29502688      46.83752206      46.82295906
      23.800      28.27703618      17.84033613      22.29502688      46.96188025      46.85314502
      23.820      28.30726999      18.05882353      22.29502688      47.08623845      46.88333098
      23.840      28.33750379      18.05882353      22.32583247      47.17647059      46.91351693
      23.860      28.36773760      18.24528056      22.32862903      47.17647059      46.94370289
      23.880      28.39381720      18.30472215      22.31880853      47.17647059      46.97388884
      23.900      28.39381720      18.35641095      22.32862903      47.17647059      47.00407480
      23.920      28.39381720      18.57983193      22.32862903      47.17647059      47.03426075
      23.940      28.39381720      18.57983193      22.32862903      46.97478992      47.06444671
      23.960      28.39381720      18.64825357      22.29502688      46.97478992      47.09463266
      23.980      28.39381720      18.83429214      22.24898110      46.97478992      47.12481862
      24.000      28.39381720      19.02033071      22.19964013      46.94957983      47.15500458
      24.020      28.39381720      19.20636929      22.25040226      46.86934874      47.18519053
      24.040      28.39381720      19.39240786      22.23251484      46.78911765      47.21537649
      24.060      28.39381720      19.57844643      22.21462741      46.77310924      47.24556244
      24.080      28.39381720      19.76448501      22.19673999      46.77310924      47.27574840
      24.100      28.39381720      19.95052358      22.22782258      46.77310924      47.30593435
      24.120      28.39381720      20.13656215      22.22782258      46.77310924      47.33612031
      24.140      28.39381720      20.32260072      22.22782258      46.66531513      47.36630627
      24.160      28.39381720      20.50863930      22.22782258      46.53781513      47.39649222
      24.180      28.39381720      20.68067227      22.22782258      46.53781513      47.42667818
      24.200      28.39381720      20.68067227      22.22901492      46.53781513      47.45686413
      24.220      28.39381720      20.68067227      22.26142473      46.53781513      47.48705009
      24.240      28.39381720      20.84741664      22.26142473      46.53781513      47.51723604
      24.260      28.39381720      21.14210174      22.26142473      46.53781513      47.54742200
      24.280      28.39381720      21.43678684      22.20707596      46.53781513      47.57760795
      24.300      28.39381720      21.73147194      22.16018470      46.53781513      47.60779391
      24.320      28.39381720      22.02615704      22.11329344      46.53781513      47.61344538
      24.340      28.39381720      22.15966387      22.06640219      46.53781513      47.61344538
      24.360      28.39381720      22.15966387      22.06651058      46.53781513      47.61344538
      24.380      28.39381720      22.46218487      22.12701613      46.53781513      47.61344538
      24.400      28.79704301      22.46218487      22.09373916      46.53781513      47.61344538
      24.420      28.79704301      22.46218487      22.04684790      46.53781513      47.61344538
      24.440      28.79704301      22.46218487      21.99995664      46.53781513      47.61344538
      24.460      28.79704301      22.46218487      21.95306538      46.53781513      47.61344538
      24.480      28.79704301      22.46218487      21.92540323      46.53781513      47.61344538
      24.500      28.79704301      22.46218487      21.89180108      46.53781513      47.61344538
      24.520      28.74601804      22.46218487      21.92540323      46.59427071      47.61344538
      24.540      28.68796913      22.68452589      21.92540323      46.66877101      47.61344538
      24.560      28.62992022      23.12119563      21.85301769      46.74327131      47.61344538
      24.580      28.57187131      23.55786537      21.82459677      46.81777161      47.61344538
      24.600      28.51382241      23.99453510      21.79099462      46.89227191      47.61344538
      24.620      28.45577350      24.43120484      21.76883888      46.96677221      47.61344538
      24.640      28.39772459      24.86787458      21.79099462      46.98338151      47.61344538
      24.660      28.33967569      25.18824509      21.75297000      46.99300924      47.61344538
      24.680      28.28162678      25.13120926      21.72379032      47.00263697      47.37815126
      24.700      28.22357787      25.07417344      21.65918748      47.01226471      47.37815126
      24.720      28.16552896      25.01713761      21.64589837      47.02189244      47.37815126
      24.740      28.10748006      24.96010178      21.56540496      47.03152017      47.37815126
      24.760      28.04943115      24.90306596      21.52217742      47.04114790      47.37815126
      24.780      27.99138224      24.84603013      21.47162244      47.05077563      47.17647059
      24.800      27.93333333      24.78899431      21.42473118      47.06040336      47.17647059
      24.820      27.87528443      24.73195848      21.34423777      47.07003109      47.17647059
      24.840      27.81723552      24.67492266      21.26374436      47.07965882      47.17647059
      24.860      27.75918661      24.61788683      21.18615591      47.08928655      47.17647059
      24.880      27.70113770      24.56085100      21.18615591      47.09891429      47.02067227
      24.900      27.64308880      24.50381518      21.12307059      47.10854202      46.97478992
      24.920      27.58736559      24.46218487      21.04257718      47.11816975      46.97478992
      24.940      27.58736559      24.46218487      20.93962452      47.12779748      46.97478992
      24.960      27.58736559      24.46218487      20.87688425      47.13742521      46.97478992
      24.980      27.58736559      24.46218487      20.82992976      47.14705294      46.97478992
      25.000      27.58736559      24.46218487      20.78297527      47.15668067      46.97478992
      25.020      27.63444751      24.63031987      20.73602078      47.16630840      46.97478992
      25.040      27.73781095      24.88147194      20.68906629      47.17593613      46.97478992
      25.060      27.84117439      25.13262402      20.64211180      47.17647059      46.97478992
      25.080      27.94453783      25.30252101      20.59515732      47.17647059      46.97478992
      25.100      28.04790127      25.30252101      20.54820283      47.17647059      46.94023109
