~Version Information Block
 VERS.                2.00:     CWLS LOG ASCII STANDARD - VERSION 2.000000
 WRAP.                  NO:     One Line Per Depth Step
#
~Well Information Block
#MNEM.UNIT                     Data                         Information
#----------   ------------------------------------------   ----------------
 STRT.M                                         0.0000:
 STOP.M                                       140.0000:
 STEP.M                                         0.2000:
 NULL.                                       -999.2500:
 COMP.                                                :     COMPANY
 WELL.   B62B0894                                     :     WELL
 FLD .                                                :     FIELD
 CNTY.                                                :     COUNTY
 STAT.                                                :     STATE
 CTRY.                                                :     COUNTRY
 SRVC.                                                :     SERVICE COMPANY
 DATE.                                                :     DATE
 API .                                                :     API NUMBER
 UWI .                                                :     UWI NUMBER
#
~Curve Information Block
#MNEM.UNIT       API CODE      Curve Description
#----------    -------------   -------------------
 DEPT.M                    :   Depth in Meters
 CALIPER.CM                :   Caliper
 GAM(NAT) .CPS             :   GAM(NAT)
#
~Parameter Information Block
#MNEM.UNIT            Value               Description
#----------    --------------------    -------------------
 PDAT.                            :    Permanent Datum
 EPD .M                     0.0000:    Elevation Of Perm. Datum
 WSTA.                         LOC:    
 E   .M                     0.0000:    E (Stretch Coefficient Of The Cable)
 TD  .M                   140.0000:    Total Depth
#
~Other Information Block
<DescLogPlotStart>   NEURALOG PLOT DEFINITION
PLOTDEFVERSION: 3
LASFILE: \\tsn.tno.nl\KG-Data\BENO\nitg\benonas01\j6b2\p62510\01.43 GO-20 Archi
DEPTHSCALE: 480.000000
RESOLUTION: 600
DEPTHLABELFREQ: 50.000000
HEAVYGRIDFREQ: 50.000000
MEDIUMGRIDFREQ: 25.000000
LIGHTGRIDFREQ: 5.000000
#
#   TRACK 1
#
STARTTRACK: 
 LEFTX: 0.380833 inch
 RIGHTX: 2.880833 inch
 SCALETYPE: LINEAR
 NUMCHARTDIVISIONS: 10
CURVE: CALIPER  0.000000   60.000000  (0,0,255)      Solid             2     N    
ENDTRACK: 
#
#   TRACK 2
#
STARTTRACK: 
 LEFTX: 3.619167 inch
 RIGHTX: 8.619167 inch
 SCALETYPE: LINEAR
 NUMCHARTDIVISIONS: 10
CURVE: GAM(NAT)   0.000000   50.000000  (0,131,131)    Solid             2     N    
ENDTRACK: 
<DescLogPlotEnd>
~A  DEPTH         CALIPER          GAM(NAT)  
# ...
      34.400      28.30000000      16.27526717
      34.600      28.26000000      16.22777591
      34.800      28.26000000      16.02650117
      35.000      28.30000000      16.22777591
      35.200      28.28875000      16.54646092
      35.400      28.26500000      15.28849379
      35.600      28.28000000      15.07044616
      35.800      28.26000000      14.86917142
      36.000      28.30000000      14.76853405
      36.200      28.22000000      14.75766282
      36.400      28.26000000      14.07681986
      36.600      28.30000000      13.19188192
      36.800      28.50000000      13.51075861
      37.000      28.42000000      14.11403172
      37.200      28.45600000      14.70501749
      37.400      28.38000000      14.58810562
      37.600      28.38000000      14.92960176
      37.800      28.42000000      15.11573298
      38.000      28.38000000      15.56261082
      38.200      28.43200000      15.23491158
      38.400      28.42000000      14.46403412
      38.600      28.42000000      13.58566157
      38.800      28.38000000      13.88742991
      39.000      28.30000000      14.88798102
      39.200      28.33000000      15.87520966
      39.400      28.30000000      16.02650117
      39.600      28.30000000      15.59443140
      39.800      28.30000000      15.43271673
      40.000      28.30000000      16.44402645
      40.200      28.30000000      17.19296018
      40.400      28.30000000      18.42876312
      40.600      28.30000000      19.16303254
      40.800      28.26000000      19.19907030
      41.000      28.22000000      18.70932573
      41.200      28.30600000      18.83071836
      41.400      28.42000000      19.60154790
      41.600      28.50000000      19.57047012
      41.800      28.50000000      18.57298605
      42.000      28.42000000      17.63669909
      42.200      28.16000000      17.13365362
      42.400      28.26000000      16.23204102
      42.600      28.30000000      15.14697848
      42.800      28.36000000      14.88076868
      43.000      28.30000000      15.12352039
      43.200      28.33000000      15.22110509
      43.400      28.30000000      15.10030191
      43.600      28.30000000      14.77553074
      43.800      28.34000000      14.80488331
      44.000      28.30000000      15.07044616
      44.200      28.36400000      14.98655772
      44.400      28.30000000      14.83562563
      44.600      28.30000000      14.95037619
      44.800      28.30000000      14.95303589
      45.000      28.30000000      15.37315698
      45.200      28.30000000      15.20367726
      45.400      28.30000000      14.99199693
      45.600      28.30000000      13.88589639
      45.800      28.30000000      13.65790483
      46.000      28.34000000      14.00560694
      46.200      28.36666667      14.03473667
      46.400      28.38000000      14.24953276
      46.600      28.50000000      15.17199406
      46.800      28.20000000      15.74136196
      47.000      28.14000000      15.35199118
      47.200      28.12000000      14.39231584
      47.400      28.34000000      13.46750851
      47.600      28.32000000      13.76283126
      47.800      28.30000000      13.84602482
      48.000      28.30000000      13.86279772
      48.200      28.30800000      13.38370393
      48.400      28.30000000      12.75578665
      48.600      28.30000000      12.43032060
      48.800      28.34000000      12.50213255
      49.000      28.34000000      12.28614559
      49.200      28.34000000      11.89941055
      49.400      28.34000000      11.87178320
      49.600      28.34000000      11.73652178
      49.800      28.34000000      12.05942397
      50.000      28.55600000      12.32783821
      50.200      28.46480000      12.48036996
      50.400      28.37360000      12.63290171
      50.600      28.30000000      11.91491350
      50.800      28.32000000      11.95068769
      51.000      28.34000000      12.30555422
      51.200      28.37000000      12.89158480
      51.400      28.50000000      13.00697273
      51.600      28.34000000      12.84808549
      51.800      28.34000000      12.26987588
      52.000      28.34000000      11.90779700
      52.200      28.37200000      12.44953036
      52.400      28.34000000      12.43432214
      52.600      28.34000000      12.30756697
      52.800      28.34000000      11.93386687
      53.000      28.34000000      12.13518953
      53.200      28.34000000      12.39908308
      53.400      28.34000000      12.23997220
      53.600      28.34000000      12.26395744
      53.800      28.34000000      12.35323717
      54.000      28.34000000      12.52096612
      54.200      28.36666667      11.93616715
      54.400      28.34000000      11.81846935
      54.600      28.34000000      12.11841664
      54.800      28.34000000      12.65514928
      55.000      28.34000000      13.17510902
      55.200      28.31529412      14.11439114
      55.400      28.33764706      14.11439114
      55.600      28.34000000      14.01375377
      55.800      28.34000000      13.17510902
      56.000      28.46000000      12.43710164
      56.200      28.51818182      11.17913452
      56.400      28.30000000      10.62821680
      56.600      28.34000000       9.82053002
      56.800      28.34000000       9.50184502
      57.000      28.34000000       9.92116739
      57.200      28.35800000      10.27151962
      57.400      28.34000000      11.40154311
      57.600      28.34000000      11.87827670
      57.800      28.34000000      12.25109024
      58.000      28.34000000      11.62337662
      58.200      28.30000000      11.90063497
      58.400      28.34000000      12.35323717
      58.600      28.34000000      12.79328605
      58.800      28.34000000      13.95068769
      59.000      28.34000000      14.60056549
      59.200      28.23000000      16.42905065
      59.400      28.38000000      16.31164039
      59.600      28.34000000      16.11036565
      59.800      28.34000000      16.14197058
      60.000      28.34000000      16.43983323
      60.200      28.39647059      16.16122107
      60.400      28.41882353      15.54162074
      60.600      28.34000000      15.21215316
      60.800      28.46000000      15.20462932
      61.000      28.50000000      15.80378109
      61.200      28.40545455      17.15028514
      61.400      28.34000000      16.21100302
      61.600      28.34000000      15.62160349
      61.800      28.34000000      14.21502851
      62.000      28.38000000      14.01375377
      62.200      28.50800000      13.59443140
      62.400      28.34000000      13.81300618
      62.600      28.34000000      13.76201658
      62.800      28.40000000      13.72631428
      63.000      28.38000000      13.99865817
      63.200      28.26444444      12.95706139
      63.400      28.38000000      12.95706139
      63.600      28.38000000      13.27574639
      63.800      28.34000000      13.37638376
      64.000      28.34000000      13.59443140
      64.200      28.38000000      14.01375377
      64.400      28.34000000      14.01375377
      64.600      28.34000000      13.59443140
      64.800      28.38000000      12.74399770
      65.000      28.30000000      12.33646427
      65.200      28.25250000      12.01777927
      65.400      28.38000000      11.81650453
      65.600      28.46000000      11.63899938
      65.800      28.54000000      11.59845689
      66.000      28.42000000      12.19077970
      66.200      28.38000000      12.65514928
      66.400      28.34000000      12.95706139
      66.600      28.42000000      12.95706139
      66.800      28.34000000      13.60171563
      67.000      28.38000000      13.96343509
      67.200      28.26000000      14.21502851
      67.400      28.38000000      13.91311640
      67.600      28.38000000      13.27574639
      67.800      28.30000000      12.95706139
      68.000      28.34000000      12.33646427
      68.200      28.25200000      12.65514928
      68.400      28.40000000      13.07447165
