~Version Information
 VERS.                2.0:  CWLS LOG ASCII STANDARD -VERSION 2.0
 WRAP.                 NO:  ONE LINE PER DEPTH STEP
~WELL INFORMATION BLOCK
#MNEM.UNIT       DATA		            DESCRIPTION OF MNEMONIC
#---------    -------------            ------------------------
 STRT.M      .450                        :START DEPTH
 STOP.M   #######                        :STOP DEPTH
 STEP.M      .050                        :STEP
 NULL.    -999999.0                      :NULL VALUE
 COMP.       SCHIFOOD                    :COMPANY
 WELL.                          B62B0899 :WELL
 FLD .    Heerlen                        :FIELD
 CNTY.                                   :COUNTY
 STAT.                                   :STATE
 SRVC.                                   :SERVICE COMPANY
 DATE.     23-JAN-91                     :LOG DATE
 UWI .                                   :UNIQUE WELL ID
 LIC .                                   :LICENSE NUMBER
~Curve Information Block
#MNEM.UNIT      API CODE     Curve Description
#---------    -------------  ------------------------
DEPTH    .M         00 000 00 00          :  1  DEPTH
SN40     .OHM.M     00 000 00 00          :  2  SN40
SP       .V         00 000 00 00          :  3  SP
CAL      .MM        00 000 00 00          :  4  CAL
LN160    .OHM.M     00 000 00 00          :  5  LN160
GAMMA    .CPS       00 000 00 00          :  6  GAMMA
~Parameter Information Block
#MNEM.UNIT   Information     Description
#---------- ---------------  ------------------------
 FILE.                         :File Type
 FIID.                         :File Type Identifier
 VERS.                         :System Version
 SER .                         :System Serial Number
 TRUK.                         :Truck Calibration Number
 TOOL.                         :Tool Serial Number
 TIME.                         :Time    HrHrMinMin
 LAT .                         :Latitude
 LON .                         :Longitude
 LMF .            MV           :LOG Measured FROM
 DMF .                         :Driller Measured From
 PD  .                         :Permanent Data
 PDEV.                         :Elevation Permanent Data
 EKB .M                        :Elevation Kelly Bushing
 ELEV.DF                       :Elevation DF
 EGL .M                        :Elevation Ground Level
 DRDP.                         :Drillers Depth
 CASD.                         :Casing Diameter
 CASB.                         :Casing Bottom
 CASX.                         :Casing Type
 CAST.                         :Casing Thickness
 TNOC.                         :Time Circulation Stopped
 LOGU.                         :Logging Unit
 RECB.            Veenendaal   :Recorded By
 OSR1.                         :Other Services
 OSR2.                         :Other Services
 OSR3.                         :Other Services
 BS  .MM                       :Bit Size
 MST .                         :Mean Surface Temperature
 TGRD.                         :Temperature Gradiant
 MAGN.                         :Magnetic Declination
 MDEN.                         :Density Matrix
 MATR.                         :Neutron Matrix
 DTMT.                         :Delta T Matrix
 DTFL.                         :Delta T Fluid
 MUDS.                         :Mud Sample Source
 MRS .                         :Mud Resistivity
 MTP .                         :Mud Temperature
 MFRS.                         :Resistivity Mud Filtrate
 MFTP.                         :Temperature Mud Filtrate
 MCRS.                         :Resistivity Mud Cake
 MCTP.                         :Temperature Mud Cake
 FTYP.                         :Fluid Type
 FD  .K/M3                     :Fluid Density
 DFV .S                        :Fluid Viscosity
 FPH .                         :Fuild PH
 ELCO.                         :Electron Cutoff
~Other Information
#MNEM.UNIT  Information      Description
#---------- ---------------  ------------------------
# --------------------------
## COMMENTS    Top_Depth   Bot_Depth  LithCode  Lat    Long   Elev_Gl
##    Type of LithCode   Lithologie - 1970
##                    .00         .00         .00     
##                    .45        5.75         .00     
##                   5.80        7.15       13.00     
##                   7.20        8.50        2.00     
##                   8.55       10.20       23.00     
##                  10.25       11.30       11.00     
##                  11.35       15.15       23.00     
##                  15.20       18.40       21.00     
##                  18.45       27.30       12.00     
##                  27.35       39.00       11.00     
##                  39.05       47.15       12.00     
##                  47.20       49.00       10.00     
##                  49.05       51.00        7.00     
##                  51.05       54.00       10.00     
##                  54.05       55.80        9.00     
##                  55.85       57.00       20.00     
##                  57.05       58.00        9.00     
##                  58.05       60.00       20.00     
##                  60.05       63.20       11.00     
##                  63.25       67.00        8.00     
##                  67.05       70.20        9.00     
##                  70.25       74.00        7.00     
##                  74.05       75.70        9.00     
##                  75.75       78.00        7.00     
##                  78.05       84.00        8.00     
##                  84.05       92.00        9.00     
##                  92.05       94.10       10.00     
##                  94.15       97.50        9.00     
##                  97.55      100.55       10.00     
##                 100.60      100.60         .00     
##                 100.65      126.40     #######     
##    last_layer   126.4
# --------------------------
~A DEPTH    SN40     SP       CAL      LN160    GAMMA    
# ...
    19.900    23.860      .086   555.500    36.250     9.200
    19.950    23.900      .086   556.200    36.150     9.200
    20.000    23.960      .086   556.200    36.050     9.520
    20.050    24.000      .086   555.000    35.920     9.850
    20.100    24.120      .085   553.200    35.790    10.000
    20.150    24.270      .085   552.500    35.600    10.040
    20.200    24.460      .085   552.100    35.430    10.160
    20.250    24.620      .085   551.100    35.260    10.120
    20.300    24.880      .085   550.600    35.110    10.080
    20.350    25.150      .085   550.100    34.950    10.210
    20.400    25.380      .085   550.000    34.810    10.360
    20.450    25.620      .085   551.000    34.720    10.200
    20.500    25.860      .085   552.000    34.640    10.100
    20.550    26.070      .085   554.100    34.550     9.960
    20.600    26.240      .085   554.100    34.450    10.080
    20.650    26.390      .085   554.000    34.420    10.190
    20.700    26.530      .085   556.500    34.390    10.350
    20.750    26.640      .085   558.900    34.350    10.580
    20.800    26.720      .085   559.700    34.310    10.620
    20.850    26.740      .085   560.800    34.280    10.490
    20.900    26.770      .085   562.000    34.250     9.570
    20.950    26.790      .085   562.200    34.230     9.230
    21.000    26.790      .085   561.100    34.220     9.200
    21.050    26.790      .085   560.100    34.170     9.180
    21.100    26.780      .085   556.600    34.120     9.060
    21.150    26.760      .085   555.300    34.030     8.780
    21.200    26.720      .086   554.600    33.920     8.610
    21.250    26.670      .086   553.500    33.750     8.400
    21.300    26.620      .086   553.600    33.480     8.180
    21.350    26.520      .086   554.200    33.240     8.220
    21.400    26.420      .086   554.600    32.660     8.230
    21.450    26.310      .086   554.300    32.350     8.280
    21.500    26.200      .086   553.100    31.990     8.500
    21.550    26.060      .086   551.300    31.670     8.790
    21.600    25.910      .086   550.900    31.380     9.110
    21.650    25.750      .086   551.500    31.160     9.580
    21.700    25.580      .086   552.600    31.000     9.600
    21.750    25.400      .086   553.100    30.880     9.620
    21.800    25.230      .086   554.200    30.820     9.690
    21.850    25.040      .086   555.600    30.780     9.710
    21.900    24.850      .087   557.100    30.760     9.830
    21.950    24.610      .087   558.500    30.750     9.990
    22.000    24.340      .087   559.300    30.740    10.130
    22.050    24.100      .087   562.100    30.750    10.130
    22.100    23.710      .087   565.500    30.750    10.190
    22.150    23.330      .087   566.900    30.770    10.260
    22.200    22.900      .087   567.200    30.780    10.320
    22.250    22.650      .088   567.200    30.780    10.600
    22.300    22.320      .088   566.900    30.780    10.890
    22.350    22.030      .088   566.400    30.770    10.850
    22.400    21.830      .088   566.600    30.760    10.680
    22.450    21.690      .088   567.400    30.740    10.580
    22.500    21.590      .088   567.500    30.730    10.890
    22.550    21.540      .088   566.800    30.680    11.060
    22.600    21.510      .088   564.300    30.640    11.390
    22.650    21.480      .088   562.300    30.590    11.740
    22.700    21.500      .088   559.600    30.530    11.740
    22.750    21.530      .088   558.300    30.470    11.770
    22.800    21.560      .088   558.000    30.390    11.840
    22.850    21.610      .087   558.500    30.310    12.030
    22.900    21.720      .087   559.300    30.230    12.050
    22.950    21.850      .087   559.700    30.140    11.870
    23.000    22.030      .087   558.300    30.020    11.750
    23.050    22.290      .087   557.100    29.900    11.750
    23.100    22.580      .087   557.300    29.780    11.760
    23.150    22.880      .087   558.300    29.660    11.620
    23.200    23.190      .087   560.800    29.570    11.440
    23.250    23.490      .086   561.400    29.470    11.250
    23.300    23.800      .086   562.200    29.370    11.080
    23.350    24.120      .086   563.100    29.280    10.920
    23.400    24.410      .086   564.200    29.190    11.040
    23.450    24.650      .086   564.500    29.120    11.000
    23.500    24.830      .086   563.500    29.050    11.040
    23.550    24.960      .086   562.900    29.010    11.150
    23.600    25.070      .086   562.600    28.970    11.240
    23.650    25.180      .086   562.000    28.940    11.300
    23.700    25.290      .086   561.000    28.920    11.230
    23.750    25.410      .086   559.800    28.910    10.820
    23.800    25.460      .086   558.600    28.890    10.310
    23.850    25.470      .086   557.800    28.880     9.690
    23.900    25.470      .086   557.700    28.870     9.200
    23.950    25.470      .086   558.700    28.840     8.990
    24.000    25.440      .086   559.300    28.810     8.890
    24.050    25.400      .086   559.500    28.760     8.890
    24.100    25.350      .086   559.500    28.720     8.920
    24.150    25.310      .086   558.900    28.670     8.970
    24.200    25.200      .086   557.600    28.620     9.040
    24.250    25.070      .086   557.200    28.570     9.390
    24.300    24.940      .086   556.900    28.500     9.680
    24.350    24.790      .086   556.200    28.460     9.590
    24.400    24.650      .086   556.100    28.430     9.250
    24.450    24.500      .087   555.800    28.390     8.910
    24.500    24.280      .087   555.500    28.380     8.690
    24.550    24.150      .087   555.600    28.360     8.670
    24.600    24.050      .087   556.200    28.350     8.740
    24.650    23.940      .087   560.800    28.330     8.980
    24.700    23.790      .087   562.000    28.320     9.020
    24.750    23.560      .087   561.000    28.320     9.080
    24.800    23.350      .087   560.600    28.320     9.210
    24.850    23.140      .087   560.900    28.330     9.200
    24.900    22.930      .087   564.100    28.330     9.010
    24.950    22.670      .087   566.100    28.340     8.960
    25.000    22.280      .087   560.100    28.340     8.860
    25.050    21.890      .087   554.100    28.340     8.810
    25.100    21.700      .087   548.100    28.340     8.800
    25.150    21.380      .087   542.000    28.310     9.170
    25.200    21.160      .087   536.400    28.270     9.550
    25.250    21.020      .087   542.900    28.220     9.930
    25.300    20.940      .087   549.100    28.150    10.320
    25.350    20.930      .087   549.100    28.060    10.740
    25.400    20.940      .087   549.100    27.980    11.170
    25.450    20.970      .087   549.400    27.820    11.510
    25.500    21.050      .087   550.300    27.670    11.860
    25.550    21.140      .087   551.000    27.520    12.200
    25.600    21.300      .087   551.300    27.370    12.460
    25.650    21.480      .087   551.500    27.210    11.960
    25.700    21.670      .087   551.700    27.030    11.490
    25.750    21.900      .087   551.800    26.880    11.350
    25.800    22.160      .087   551.900    26.720    11.420
    25.850    22.380      .086   552.400    26.570    11.560
    25.900    22.580      .086   552.900    26.380    11.420
    25.950    22.760      .086   554.000    26.260    11.360
    26.000    22.930      .086   556.500    26.130    11.440
    26.050    23.100      .086   561.100    25.940    11.630
    26.100    23.230      .086   564.500    25.730    11.690
    26.150    23.300      .086   565.700    25.510    11.680
    26.200    23.330      .086   566.900    25.290    11.430
    26.250    23.350      .086   567.200    25.080    11.220
    26.300    23.340      .086   567.300    24.860    10.970
    26.350    23.300      .086   567.400    24.670    10.940
    26.400    23.230      .086   567.400    24.550    10.990
    26.450    23.160      .086   567.300    24.430    11.040
