~Version Information
 VERS.                2.0:  CWLS LOG ASCII STANDARD -VERSION 2.0
 WRAP.                 NO:  ONE LINE PER DEPTH STEP
~WELL INFORMATION BLOCK
#MNEM.UNIT       DATA		            DESCRIPTION OF MNEMONIC
#---------    -------------            ------------------------
 STRT.M      .000                        :START DEPTH
 STOP.M    68.050                        :STOP DEPTH
 STEP.M      .050                        :STEP
 NULL.    -999999.0                      :NULL VALUE
 COMP.       WML                         :COMPANY
 WELL.                          B62B0903 :WELL
 FLD .    Nuth                           :FIELD
 CNTY.                                   :COUNTY
 STAT.                                   :STATE
 SRVC.                                   :SERVICE COMPANY
 DATE.     13-APR-92                     :LOG DATE
 UWI .                                   :UNIQUE WELL ID
 LIC .                                   :LICENSE NUMBER
~Curve Information Block
#MNEM.UNIT      API CODE     Curve Description
#---------    -------------  ------------------------
DEPTH    .M         00 000 00 00          :  1  DEPTH
GAMMA    .CPS       00 000 00 00          :  2  GAMMA
SN40     .OHM.M     00 000 00 00          :  3  SN40
CAL      .MM        00 000 00 00          :  4  CAL
SP       .V         00 000 00 00          :  5  SP
LN160    .OHM.M     00 000 00 00          :  6  LN160
~Parameter Information Block
#MNEM.UNIT   Information     Description
#---------- ---------------  ------------------------
 FILE.                         :File Type
 FIID.                         :File Type Identifier
 VERS.                         :System Version
 SER .                         :System Serial Number
 TRUK.                         :Truck Calibration Number
 TOOL.                         :Tool Serial Number
 TIME.                         :Time    HrHrMinMin
 LAT .                         :Latitude
 LON .                         :Longitude
 LMF .            MV           :LOG Measured FROM
 DMF .                         :Driller Measured From
 PD  .                         :Permanent Data
 PDEV.                         :Elevation Permanent Data
 EKB .M                        :Elevation Kelly Bushing
 ELEV.DF                       :Elevation DF
 EGL .M                        :Elevation Ground Level
 DRDP.                         :Drillers Depth
 CASD.                         :Casing Diameter
 CASB.                         :Casing Bottom
 CASX.                         :Casing Type
 CAST.                         :Casing Thickness
 TNOC.                         :Time Circulation Stopped
 LOGU.                         :Logging Unit
 RECB.            Bergsma      :Recorded By
 OSR1.                         :Other Services
 OSR2.                         :Other Services
 OSR3.                         :Other Services
 BS  .MM                       :Bit Size
 MST .                         :Mean Surface Temperature
 TGRD.                         :Temperature Gradiant
 MAGN.                         :Magnetic Declination
 MDEN.                         :Density Matrix
 MATR.                         :Neutron Matrix
 DTMT.                         :Delta T Matrix
 DTFL.                         :Delta T Fluid
 MUDS.                         :Mud Sample Source
 MRS .                         :Mud Resistivity
 MTP .                         :Mud Temperature
 MFRS.                         :Resistivity Mud Filtrate
 MFTP.                         :Temperature Mud Filtrate
 MCRS.                         :Resistivity Mud Cake
 MCTP.                         :Temperature Mud Cake
 FTYP.                         :Fluid Type
 FD  .K/M3                     :Fluid Density
 DFV .S                        :Fluid Viscosity
 FPH .                         :Fuild PH
 ELCO.                         :Electron Cutoff
~Other Information
#MNEM.UNIT  Information      Description
#---------- ---------------  ------------------------
# --------------------------
## COMMENTS    Top_Depth   Bot_Depth  LithCode  Lat    Long   Elev_Gl
##    Type of LithCode   Lithologie - 1970
##                    .00        5.00         .00     
##                   5.05        6.80       10.00     
##                   6.85        8.00       11.00     
##                   8.05       11.00       10.00     
##                  11.05       15.00       12.00     
##                  15.05       17.00       10.00     
##                  17.05       18.40       12.00     
##                  18.45       23.00       10.00     
##                  23.05       25.40       12.00     
##                  25.45       28.00        6.00     
##                  28.05       28.35       19.00     
##                  28.40       30.00       11.00     
##                  30.05       31.00       12.00     
##                  31.05       34.00       11.00     
##                  34.05       38.90        6.00     
##                  38.95       40.80       23.00     
##                  40.85       47.45        6.00     
##                  47.50       52.00       21.00     
##                  52.05       60.00       22.00     
##                  60.05       68.00       23.00     
##                  68.05       68.05         .00     
##    last_layer   68.05
# --------------------------
~A DEPTH    GAMMA    SN40     CAL      SP       LN160    
# ...
    32.950    20.610    19.800   477.100      .017    28.040
    33.000    19.810    19.960   481.900      .016    28.450
    33.050    19.020    20.110   487.900      .016    28.910
    33.100    18.740    20.270   486.900      .016    29.390
    33.150    18.570    20.430   484.800      .016    30.000
    33.200    18.210    20.600   490.500      .016    30.420
    33.250    17.900    20.970   493.100      .016    30.670
    33.300    17.800    21.330   486.300      .016    30.920
    33.350    17.490    21.790   482.000      .016    31.190
    33.400    16.720    22.160   494.000      .016    31.360
    33.450    13.670    22.730   489.800      .016    31.530
    33.500    12.690    23.310   486.600      .016    31.680
    33.550    12.090    23.750   486.200      .016    31.830
    33.600    11.790    24.330   493.000      .016    31.970
    33.650    11.220    24.950   485.000      .016    32.080
    33.700    10.760    25.770   478.700      .016    32.230
    33.750    10.360    26.160   483.200      .015    32.390
    33.800     9.950    26.900   483.000      .015    32.540
    33.850     9.750    27.560   481.000      .015    32.690
    33.900     9.290    28.220   488.900      .014    32.860
    33.950     9.180    29.050   486.400      .014    33.070
    34.000     8.910    30.780   484.200      .013    33.440
    34.050     8.430    31.790   488.600      .013    33.760
    34.100     7.970    33.670   485.400      .012    34.160
    34.150     7.760    34.260   482.500      .012    34.630
    34.200     7.560    35.470   481.100      .012    35.260
    34.250     7.520    36.310   486.100      .012    35.870
    34.300     7.510    36.970   491.600      .012    36.600
    34.350     7.570    37.750   491.000      .012    37.280
    34.400     7.690    38.320   485.100      .011    38.010
    34.450     8.080    38.890   486.300      .011    38.520
    34.500     8.270    39.330   487.800      .011    39.130
    34.550     8.450    39.870   478.200      .011    39.840
    34.600     8.590    40.160   477.400      .011    40.700
    34.650     8.750    40.440   484.900      .011    42.360
    34.700     8.800    40.700   476.800      .011    43.050
    34.750     8.770    40.930   481.100      .011    44.870
    34.800     8.680    41.130   489.700      .011    45.230
    34.850     8.560    41.310   485.600      .011    45.600
    34.900     8.520    41.470   484.600      .011    46.190
    34.950     8.720    41.640   487.900      .011    46.600
    35.000     9.030    41.770   483.900      .011    47.710
    35.050     9.410    41.900   483.700      .011    48.400
    35.100     9.580    41.980   490.800      .011    48.960
    35.150     9.550    41.990   491.600      .011    49.670
    35.200     9.460    41.970   483.400      .011    50.200
    35.250     9.580    41.900   476.400      .011    50.840
    35.300     9.780    41.830   480.200      .011    51.260
    35.350    10.110    41.750   484.900      .011    51.760
    35.400    10.470    41.670   486.100      .010    52.440
    35.450    10.580    41.590   486.000      .010    53.070
    35.500    10.780    41.490   492.800      .010    53.550
    35.550    10.870    41.390   487.800      .010    54.140
    35.600    10.930    41.290   482.900      .009    54.540
    35.650    10.940    41.170   481.800      .009    54.910
    35.700    10.540    41.090   489.100      .009    55.290
    35.750    10.620    41.010   489.300      .009    55.670
    35.800    10.810    40.920   488.800      .009    55.990
    35.850    11.050    40.880   495.100      .009    56.460
    35.900    11.220    40.840   494.200      .009    56.690
    35.950    11.320    40.820   491.200      .010    56.930
    36.000    11.460    40.830   493.900      .010    57.150
    36.050    11.510    40.850   496.700      .009    57.300
    36.100    11.520    40.930   491.800      .009    57.390
    36.150    10.860    41.010   489.800      .009    57.440
    36.200    10.560    41.120   491.200      .009    57.490
    36.250    10.500    41.290   493.200      .009    57.500
    36.300    10.430    41.430   491.200      .009    57.490
    36.350    10.350    41.650   494.600      .009    57.440
    36.400    10.290    41.830   490.700      .009    57.370
    36.450    10.540    42.010   492.400      .009    57.280
    36.500    10.800    42.140   495.700      .009    57.200
    36.550    11.110    42.220   487.600      .009    57.100
    36.600    11.190    42.280   487.900      .009    57.020
    36.650    11.200    42.340   491.500      .009    56.970
    36.700    11.170    42.480   485.300      .009    56.920
    36.750    11.120    42.630   479.700      .009    56.890
    36.800    11.130    42.780   482.800      .009    56.860
    36.850    11.130    42.910   489.000      .009    56.830
    36.900    10.610    43.000   487.600      .009    56.830
    36.950    10.580    43.090   483.700      .008    56.840
    37.000    10.710    43.170   488.600      .008    56.840
    37.050    11.040    43.250   484.800      .008    56.890
    37.100    11.670    43.320   481.300      .008    56.930
    37.150    12.270    43.350   484.400      .008    56.970
    37.200    12.760    43.350   489.800      .008    57.040
    37.250    13.050    43.330   483.700      .008    57.100
    37.300    13.270    43.290   479.500      .008    57.180
    37.350    13.930    43.220   483.300      .008    57.260
    37.400    14.420    43.140   485.900      .008    57.350
    37.450    14.480    43.050   485.400      .008    57.440
    37.500    14.320    42.960   489.800      .008    57.520
    37.550    14.100    42.870   488.800      .008    57.600
    37.600    13.880    42.800   483.800      .008    57.660
    37.650    13.630    42.670   482.100      .008    57.770
    37.700    13.200    42.530   485.900      .008    57.860
    37.750    12.910    42.420   481.900      .008    57.930
    37.800    12.800    42.200   489.300      .008    57.940
    37.850    12.620    41.990   486.700      .008    57.920
    37.900    12.280    41.810   487.200      .008    57.830
    37.950    12.070    41.660   487.500      .008    57.740
    38.000    12.190    41.500   483.600      .008    57.640
    38.050    12.270    41.370   487.800      .008    57.530
    38.100    12.310    41.230   484.000      .008    57.400
    38.150    12.460    41.090   483.100      .008    57.240
    38.200    12.670    40.970   489.400      .008    57.070
    38.250    12.930    40.860   489.000      .008    56.860
    38.300    13.080    40.760   489.400      .008    56.520
    38.350    13.370    40.680   490.200      .008    56.280
    38.400    13.620    40.600   484.800      .008    56.000
    38.450    13.950    40.600   484.700      .009    55.730
    38.500    14.180    40.610   487.200      .009    55.450
    38.550    14.380    40.630   487.400      .008    55.280
    38.600    14.350    40.670   488.300      .008    55.110
    38.650    14.280    40.690   490.600      .008    54.950
    38.700    14.500    40.710   491.000      .008    54.860
    38.750    15.170    40.670   493.900      .008    54.750
    38.800    15.780    40.610   496.100      .008    54.710
    38.850    15.910    40.530   494.200      .008    54.660
    38.900    16.050    40.450   496.300      .008    54.680
    38.950    16.170    40.390   493.800      .008    54.730
    39.000    16.210    40.230   494.200      .008    54.840
    39.050    15.950    40.020   493.000      .008    55.040
    39.100    15.260    39.700   493.800      .008    55.280
    39.150    14.870    39.110   493.700      .008    55.580
    39.200    14.590    38.580   491.600      .008    55.940
    39.250    14.600    37.980   490.100      .008    56.210
    39.300    14.940    37.490   492.700      .009    56.480
    39.350    15.250    36.620   493.400      .009    56.690
    39.400    15.450    35.940   489.200      .009    57.010
    39.450    15.560    35.270   490.900      .009    57.330
    39.500    15.560    34.960   494.900      .009    57.680
