~Version Information
 VERS.                2.0:  CWLS LOG ASCII STANDARD -VERSION 2.0
 WRAP.                 NO:  ONE LINE PER DEPTH STEP
~WELL INFORMATION BLOCK
#MNEM.UNIT       DATA		            DESCRIPTION OF MNEMONIC
#---------    -------------            ------------------------
 STRT.M      .000                        :START DEPTH
 STOP.M   #######                        :STOP DEPTH
 STEP.M      .050                        :STEP
 NULL.    -999999.0                      :NULL VALUE
 COMP.       SCHIFOOD                    :COMPANY
 WELL.                          B62B0896 :WELL
 FLD .    Hoensbroek                     :FIELD
 CNTY.                                   :COUNTY
 STAT.                                   :STATE
 SRVC.                                   :SERVICE COMPANY
 DATE.     17-JUL-90                     :LOG DATE
 UWI .                                   :UNIQUE WELL ID
 LIC .                                   :LICENSE NUMBER
~Curve Information Block
#MNEM.UNIT      API CODE     Curve Description
#---------    -------------  ------------------------
DEPTH    .M         00 000 00 00          :  1  DEPTH
SN40     .OHM.M     00 000 00 00          :  2  SN40
SP       .V         00 000 00 00          :  3  SP
CAL      .MM        00 000 00 00          :  4  CAL
LN160    .OHM.M     00 000 00 00          :  5  LN160
GAMMA    .CPS       00 000 00 00          :  6  GAMMA
~Parameter Information Block
#MNEM.UNIT   Information     Description
#---------- ---------------  ------------------------
 FILE.                         :File Type
 FIID.                         :File Type Identifier
 VERS.                         :System Version
 SER .                         :System Serial Number
 TRUK.                         :Truck Calibration Number
 TOOL.                         :Tool Serial Number
 TIME.                         :Time    HrHrMinMin
 LAT .                         :Latitude
 LON .                         :Longitude
 LMF .            MV           :LOG Measured FROM
 DMF .                         :Driller Measured From
 PD  .                         :Permanent Data
 PDEV.                         :Elevation Permanent Data
 EKB .M                        :Elevation Kelly Bushing
 ELEV.DF                       :Elevation DF
 EGL .M                        :Elevation Ground Level
 DRDP.                         :Drillers Depth
 CASD.                         :Casing Diameter
 CASB.                         :Casing Bottom
 CASX.                         :Casing Type
 CAST.                         :Casing Thickness
 TNOC.                         :Time Circulation Stopped
 LOGU.                         :Logging Unit
 RECB.            Bergsma      :Recorded By
 OSR1.                         :Other Services
 OSR2.                         :Other Services
 OSR3.                         :Other Services
 BS  .MM                       :Bit Size
 MST .                         :Mean Surface Temperature
 TGRD.                         :Temperature Gradiant
 MAGN.                         :Magnetic Declination
 MDEN.                         :Density Matrix
 MATR.                         :Neutron Matrix
 DTMT.                         :Delta T Matrix
 DTFL.                         :Delta T Fluid
 MUDS.                         :Mud Sample Source
 MRS .            6            :Mud Resistivity
 MTP .            19           :Mud Temperature
 MFRS.                         :Resistivity Mud Filtrate
 MFTP.                         :Temperature Mud Filtrate
 MCRS.                         :Resistivity Mud Cake
 MCTP.                         :Temperature Mud Cake
 FTYP.                         :Fluid Type
 FD  .K/M3                     :Fluid Density
 DFV .S                        :Fluid Viscosity
 FPH .                         :Fuild PH
 ELCO.                         :Electron Cutoff
~Other Information
#MNEM.UNIT  Information      Description
#---------- ---------------  ------------------------
# --------------------------
## COMMENTS    Top_Depth   Bot_Depth  LithCode  Lat    Long   Elev_Gl
##    Type of LithCode   Lithologie - 1970
##                    .00        6.00         .00     
##                   6.05        8.00        2.00     
##                   8.05       11.50       22.00     
##                  11.55       15.20       23.00     
##                  15.25       19.00       22.00     
##                  19.05       20.25       11.00     
##                  20.30       22.10       12.00     
##                  22.15       23.70       11.00     
##                  23.75       25.15       12.00     
##                  25.20       26.10       11.00     
##                  26.15       27.20       12.00     
##                  27.25       35.00       11.00     
##                  35.05       47.55       12.00     
##                  47.60       51.00        7.00     
##                  51.05       52.25       11.00     
##                  52.30       54.00        7.00     
##                  54.05       55.10       11.00     
##                  55.15       58.00       12.00     
##                  58.05       62.60       11.00     
##                  62.65       67.20        8.00     
##                  67.25       70.05        9.00     
##                  70.10       74.00        7.00     
##                  74.05       75.40        8.00     
##                  75.45       80.00        7.00     
##                  80.05       92.40        9.00     
##                  92.45       94.50       10.00     
##                  94.55       96.90        8.00     
##                  96.95       99.30       10.00     
##                  99.35       99.35         .00     
##    last_layer   99.35
# --------------------------
~A DEPTH    SN40     SP       CAL      LN160    GAMMA    
# ...
    26.200    18.350      .067   577.600    25.280    23.850
    26.250    18.440      .067   588.100    25.170    24.000
    26.300    18.540      .067   598.700    25.050    24.090
    26.350    18.640      .066   609.000    24.910    24.120
    26.400    18.680      .066   609.200    24.780    24.110
    26.450    18.680      .066   609.400    24.630    24.110
    26.500    18.670      .066   609.700    24.500    24.130
    26.550    18.650      .066   610.400    24.300    24.280
    26.600    18.620      .066   612.300    24.110    24.620
    26.650    18.590      .066   612.300    23.920    25.340
    26.700    18.530      .066   611.700    23.730    25.550
    26.750    18.460      .066   611.000    23.530    25.590
    26.800    18.360      .066   611.200    23.340    25.580
    26.850    18.250      .066   611.600    23.150    25.630
    26.900    18.110      .066   612.000    22.960    25.700
    26.950    17.960      .066   612.100    22.770    25.650
    27.000    17.820      .066   612.000    22.600    25.510
    27.050    17.650      .066   611.800    22.450    25.300
    27.100    17.510      .066   611.900    22.300    25.270
    27.150    17.210      .066   612.100    22.120    25.220
    27.200    16.940      .066   612.300    21.980    25.040
    27.250    16.690      .066   612.600    21.840    24.780
    27.300    16.250      .066   612.800    21.700    24.600
    27.350    15.960      .066   612.500    21.560    24.450
    27.400    15.670      .066   611.700    21.420    24.470
    27.450    15.450      .066   608.900    21.270    24.670
    27.500    14.670      .066   602.300    21.150    25.070
    27.550    14.380      .066   600.400    21.070    25.290
    27.600    14.030      .067   598.300    20.980    25.430
    27.650    13.890      .067   596.900    20.890    25.470
    27.700    13.760      .067   596.300    20.800    25.530
    27.750    13.610      .067   596.200    20.710    25.600
    27.800    13.540      .067   596.100    20.620    25.740
    27.850    13.530      .067   596.300    20.530    25.860
    27.900    13.520      .067   596.700    20.400    26.080
    27.950    13.530      .067   597.200    20.240    26.090
    28.000    13.540      .067   597.300    20.070    25.920
    28.050    13.590      .067   597.400    19.910    25.780
    28.100    13.660      .067   593.900    19.740    25.660
    28.150    13.750      .067   590.300    19.660    25.390
    28.200    13.790      .067   586.800    19.530    25.110
    28.250    13.870      .067   583.200    19.360    24.950
    28.300    14.050      .067   579.700    19.230    24.830
    28.350    14.240      .067   576.100    19.030    24.770
    28.400    14.350      .067   571.900    18.810    24.660
    28.450    14.580      .067   566.900    18.710    24.590
    28.500    14.700      .067   562.400    18.620    24.560
    28.550    14.790      .067   562.600    18.530    24.620
    28.600    14.880      .067   562.800    18.470    24.710
    28.650    15.000      .067   562.900    18.440    24.770
    28.700    15.050      .067   564.600    18.440    24.810
    28.750    15.060      .067   566.200    18.460    24.890
    28.800    15.050      .067   567.800    18.480    25.050
    28.850    15.050      .067   569.400    18.530    25.280
    28.900    15.030      .067   570.700    18.580    25.440
    28.950    14.990      .067   574.800    18.650    25.580
    29.000    14.920      .067   579.000    18.710    25.820
    29.050    14.860      .067   583.800    18.770    25.880
    29.100    14.820      .068   580.700    18.830    25.880
    29.150    14.710      .068   578.600    18.900    25.880
    29.200    14.570      .068   577.500    18.960    25.830
    29.250    14.420      .068   577.000    19.000    25.690
    29.300    14.290      .068   576.500    19.010    25.550
    29.350    14.150      .068   575.900    19.010    25.500
    29.400    13.960      .068   574.800    19.010    25.470
    29.450    13.790      .068   574.000    19.000    25.440
    29.500    13.630      .068   573.100    18.990    25.420
    29.550    13.550      .068   572.300    18.980    25.400
    29.600    13.510      .068   571.600    18.950    25.410
    29.650    13.480      .068   570.900    18.920    25.430
    29.700    13.470      .068   570.300    18.870    25.470
    29.750    13.470      .068   569.500    18.820    25.540
    29.800    13.480      .068   568.800    18.780    25.580
    29.850    13.510      .068   568.000    18.730    25.590
    29.900    13.550      .068   567.100    18.680    25.500
    29.950    13.610      .068   566.200    18.620    25.340
    30.000    13.660      .068   565.400    18.560    25.030
    30.050    13.730      .068   564.700    18.490    24.790
    30.100    13.790      .068   564.200    18.420    24.510
    30.150    13.830      .068   564.500    18.340    24.300
    30.200    13.860      .068   565.200    18.280    24.190
    30.250    13.900      .068   565.900    18.230    24.150
    30.300    13.860      .068   566.400    18.170    24.170
    30.350    13.780      .068   567.200    18.110    24.170
    30.400    13.700      .068   568.500    18.040    24.160
    30.450    13.630      .068   571.000    18.000    24.060
    30.500    13.570      .068   574.100    17.970    23.950
    30.550    13.490      .068   574.900    17.940    23.810
    30.600    13.430      .068   575.300    17.920    23.730
    30.650    13.390      .068   575.000    17.920    23.730
    30.700    13.360      .068   573.700    17.920    23.770
    30.750    13.330      .068   572.700    17.930    23.880
    30.800    13.300      .068   572.500    17.940    23.960
    30.850    13.280      .068   573.100    17.960    23.970
    30.900    13.260      .068   574.100    17.980    24.030
    30.950    13.250      .068   575.300    18.010    24.140
    31.000    13.250      .068   577.300    18.040    24.470
    31.050    13.240      .068   579.700    18.070    24.700
    31.100    13.230      .068   582.100    18.110    25.030
    31.150    13.230      .068   584.600    18.150    25.060
    31.200    13.240      .068   583.900    18.190    25.010
    31.250    13.270      .068   581.900    18.220    24.810
    31.300    13.320      .068   577.600    18.260    24.590
    31.350    13.410      .068   573.300    18.300    24.460
    31.400    13.480      .068   568.800    18.340    24.400
    31.450    13.560      .068   566.900    18.370    24.380
    31.500    13.680      .068   565.600    18.390    24.360
    31.550    13.800      .068   564.200    18.410    24.330
    31.600    13.920      .068   563.200    18.430    24.150
    31.650    14.070      .068   562.400    18.450    23.880
    31.700    14.220      .068   561.400    18.470    23.640
    31.750    14.350      .068   560.200    18.490    23.730
    31.800    14.480      .068   559.400    18.520    23.770
    31.850    14.620      .068   558.700    18.540    23.770
    31.900    14.760      .068   558.100    18.570    23.760
    31.950    14.900      .068   557.900    18.590    23.750
    32.000    15.040      .068   557.800    18.620    23.680
    32.050    15.160      .068   558.000    18.650    23.720
    32.100    15.290      .068   558.200    18.690    24.050
    32.150    15.400      .068   558.900    18.720    24.530
    32.200    15.490      .068   559.800    18.750    24.990
    32.250    15.560      .068   560.900    18.770    24.740
    32.300    15.620      .068   561.600    18.800    24.930
    32.350    15.620      .068   562.200    18.820    25.420
    32.400    15.570      .068   562.100    18.830    25.880
    32.450    15.510      .068   561.800    18.840    26.310
    32.500    15.410      .068   561.200    18.840    26.760
    32.550    15.320      .068   560.500    18.850    27.500
    32.600    15.230      .068   559.900    18.850    27.940
    32.650    15.140      .068   559.800    18.850    27.960
    32.700    15.050      .068   559.900    18.850    27.550
    32.750    15.000      .068   560.300    18.840    26.780
