~Version Information Block
 VERS.                2.00:     CWLS LOG ASCII STANDARD - VERSION 2.000000
 WRAP.                  NO:     One Line Per Depth Step
#
~Well Information Block
#MNEM.UNIT                     Data                         Information
#----------   ------------------------------------------   ----------------
 STRT.M                                         0.0000:
 STOP.M                                       171.0000:
 STEP.M                                         0.0200:
 NULL.                                       -999.2500:
 COMP.                                                :     COMPANY
 WELL.                                        B62B0838:     WELL
 FLD .                                                :     FIELD
 CNTY.                                                :     COUNTY
 STAT.                                                :     STATE
 CTRY.                                                :     COUNTRY
 SRVC.                                                :     SERVICE COMPANY
 DATE.                                                :     DATE
 API .                                                :     API NUMBER
 UWI .                                                :     UWI NUMBER
#
~Curve Information Block
#MNEM.UNIT       API CODE      Curve Description
#----------    -------------   -------------------
 DEPT.M                    :   Depth in Meters
 SN20.OHM-M                :   SN20
 LN100.OHM-M               :   LN100
 CALI.CM                   :   Calr
 GAM(NAT) .CPS             :   GAM(NAT)
#
~Parameter Information Block
#MNEM.UNIT            Value               Description
#----------    --------------------    -------------------
 PDAT.                            :    Permanent Datum
 EPD .M                     0.0000:    Elevation Of Perm. Datum
 WSTA.                         LOC:    
 E   .M                     0.0000:    E (Stretch Coefficient Of The Cable)
 TD  .M                   171.0000:    Total Depth
#
~Other Information Block
<DescLogPlotStart>   NEURALOG PLOT DEFINITION
PLOTDEFVERSION: 3
LASFILE: V:\a4\j4\p44009\boorgatmetingen\SCANS TE VERWERKEN IN DINO\wlg\B62B083
DEPTHSCALE: 200.000000
RESOLUTION: 600
DEPTHLABELFREQ: 50.000000
HEAVYGRIDFREQ: 50.000000
MEDIUMGRIDFREQ: 25.000000
LIGHTGRIDFREQ: 5.000000
#
#   TRACK 1
#
STARTTRACK: 
 LEFTX: 13.760000 inch
 RIGHTX: 15.010000 inch
 SCALETYPE: LINEAR
 NUMCHARTDIVISIONS: 10
CURVE: CALI  30.000000  50.000000  (0,0,255)      Solid             2     N    
ENDTRACK: 
#
#   TRACK 2
#
STARTTRACK: 
 LEFTX: 16.551667 inch
 RIGHTX: 21.551667 inch
 SCALETYPE: LINEAR
 NUMCHARTDIVISIONS: 10
CURVE: GAM(NAT)   0.000000   50.000000  (0,131,131)    Solid             2     N    
ENDTRACK: 
#
#   TRACK 3
#
STARTTRACK: 
 LEFTX: 15.343333 inch
 RIGHTX: 21.240000 inch
 SCALETYPE: LINEAR
 NUMCHARTDIVISIONS: 10
CURVE: SN20  0.000000   100.000000 (255,0,255)    Solid             2     Y    
CURVE: LN100  0.000000   100.000000 (255,0,0)      Dot               2     Y    
ENDTRACK: 
<DescLogPlotEnd>
~Other Information
#MNEM.UNIT  Information      Description
#---------- ---------------  ------------------------
# --------------------------
## COMMENTS    Top_Depth   Bot_Depth  LithCode  Lat    Long   Elev_Gl 
##	0.0	31.2	0.0
##	31.25	97.0	25.0
##	97.05	97.5	11.0
##	97.55	104.0	12.0
##	104.05	110.1	11.0
##	110.15	111.7	12.0
##	111.75	113.1	11.0
##	113.15	116.6	12.0
##	116.65	124.1	11.0
##	124.15	125.9	12.0
##	125.95	139.0	11.0
##	139.05	140.0	10.0
##	140.05	145.5	11.0
##	145.55	146.3	10.0
##	146.35	148.0	12.0
##	148.05	149.4	10.0
##	149.45	150.0	11.0
##	150.05	151.9	10.0
##	151.95	152.6	11.0
##	152.65	155.0	10.0
##	155.05	160.9	14.0
##	160.95	163.2	11.0
##	163.25	164.0	10.0
##	164.05	167.8	11.0
##	167.85	170.0	10.0
##	170.05	171.95	11.0
# --------------------------
~A  DEPTH         SN20             LN100            CALI             GAM(NAT)  
# ...
      35.360      48.31825890      66.43536640      38.80832979      17.75830570
      35.380      48.31825890      66.50903147      38.78959122      17.76293541
      35.400      48.34652346      66.58269653      38.77085264      17.69624857
      35.420      48.34652346      66.65636159      38.75211407      17.61862722
      35.440      48.35955821      66.73002666      38.73337550      17.55634662
      35.460      48.40305257      66.74674958      38.71463692      17.29640639
      35.480      48.46546931      66.74674958      38.69589835      17.04203723
      35.500      48.37478802      66.74674958      38.67715978      17.01325233
      35.520      48.37478802      66.74674958      38.66402116      16.89134910
      35.540      48.37478802      66.74674958      38.66402116      16.75143925
      35.560      48.57263991      66.57716224      38.66402116      16.46399366
      35.580      48.57263991      66.57716224      38.66402116      16.39913022
      35.600      48.57263991      66.57716224      38.66402116      16.35265314
      35.620      48.62417396      66.57716224      38.66402116      16.19039567
      35.640      48.69126179      66.57716224      38.66402116      16.09257249
      35.660      48.77447198      66.40757490      38.66402116      16.03353525
      35.680      48.90864763      66.40757490      38.66402116      15.91335655
      35.700      49.04282328      66.40757490      38.66402116      15.70003382
      35.720      49.08140192      66.40757490      38.66402116      15.59698268
      35.740      49.08140192      66.40757490      38.66402116      15.46240757
      35.760      49.08140192      66.33325399      38.66402116      15.26799922
      35.780      49.08140192      66.23798756      38.66402116      15.16453969
      35.800      49.08140192      66.23798756      38.66402116      15.09130876
      35.820      49.29505222      66.04013567      38.66402116      15.07439973
      35.840      49.33387548      66.04013567      38.66402116      15.14795302
      35.860      49.36404748      66.04013567      38.66402116      15.36347096
      35.880      49.39231204      66.04013567      38.66402116      15.62971599
      35.900      49.42208073      66.04013567      38.66402116      15.60234215
      35.920      49.46090400      66.05404167      38.66402116      15.53094352
      35.940      49.52799183      66.07717540      38.66402116      15.49712546
      35.960      49.59507965      66.10030914      38.66402116      15.48021644
      35.980      49.83175482      66.12344287      38.66402116      15.17356575
      36.000      49.92487578      66.14657660      38.66402116      14.87816599
      36.020      49.99419502      66.16971034      38.66402116      14.73517889
      36.040      50.01413228      66.19284407      38.73364546      14.63771762
      36.060      50.01413228      66.21597780      38.85134712      14.58025856
      36.080      50.01413228      66.23911153      38.96904878      14.53331079
      36.100      50.01413228      66.26224527      38.97795414      14.51565025
      36.120      50.01413228      66.28537900      38.90211640      14.42026948
      36.140      50.01413228      66.30851273      38.92857143      14.38897689
      36.160      50.01413228      66.33164647      38.92857143      14.42763684
      36.180      50.01413228      66.35478020      38.92857143      14.51934622
      36.200      50.01413228      66.37791393      38.92857143      14.61105560
      36.220      50.01413228      66.40104766      38.92857143      14.70303789
      36.240      49.59016393      66.42418140      39.06084656      14.77451068
      36.260      49.61213756      66.44731513      39.06084656      14.93964960
      36.280      49.62269627      66.47044886      38.99116309      15.18038671
      36.300      49.67495760      66.49358259      38.90211640      15.20967196
      36.320      49.72860737      66.51671633      38.90211640      15.16391211
      36.340      49.75975127      66.53985006      38.90211640      15.09704069
      36.360      49.80625390      66.56298379      38.90211640      15.03121051
      36.380      49.90160629      66.58611753      38.92175500      14.97730235
      36.400      49.92933861      66.62317231      38.92857143      14.93360289
      36.420      50.00090248      66.73051283      38.95502646      14.88946775
      36.440      50.02201991      66.83785335      39.00793651      14.84533261
      36.460      50.08516392      66.94519387      39.04057675      14.80119748
      36.480      50.15545506      67.05253439      39.11375661      14.77668808
      36.500      50.18371962      67.15987491      39.16612519      14.67031348
      36.520      50.24024873      67.26721543      39.17598936      14.58403788
      36.540      50.29677784      67.37455595      39.19312169      14.66988235
      36.560      50.33580937      67.48189647      39.19312169      14.67753146
      36.580      50.35330695      67.58923699      39.21957672      14.58725504
      36.600      50.12719050      67.69657751      39.21957672      14.98199337
      36.620      50.12719050      67.80391803      39.21957672      15.14570046
      36.640      50.12719050      67.91125855      39.20397908      15.17585391
      36.660      50.12719050      68.01859907      39.21957672      15.30604750
      36.680      50.12719050      68.12593959      39.25490269      15.31112614
      36.700      50.12719050      68.23328011      39.29122188      15.31112614
      36.720      50.39201452      68.34062063      39.35614035      15.20967196
      36.740      50.45910234      68.44796115      39.45767196      15.20967196
      36.760      50.52619017      68.55530167      39.47954454      15.20967196
      36.780      50.59327799      68.66264219      39.56349206      15.18938706
      36.800      50.66036582      68.76998271      39.60509298      15.14926421
      36.820      50.72745364      68.87732323      39.64285714      15.50877786
      36.840      50.76627691      68.98466375      39.63443795      15.57014281
      36.860      50.80510018      69.09200427      39.58994709      15.76740691
      36.880      50.83380441      69.19934479      39.48074198      15.87020589
      36.900      50.86206897      69.30668531      39.39320524      15.91032875
      36.920      50.89330543      69.41402583      39.32245171      16.45703228
      36.940      50.96039326      69.52136635      39.24921512      16.57930335
      36.960      51.02748108      69.62870687      39.16373341      16.57930335
      36.980      51.06630435      69.73604739      39.03818497      17.00202908
      37.000      51.13339218      69.84338791      38.95502646      17.00202908
      37.020      51.20048000      69.95072843      38.90211640      17.07041276
      37.040      51.26756783      70.05806895      38.87566138      17.10348326
      37.060      51.36292021      70.16540947      38.87566138      17.10348326
      37.080      51.43000803      70.27274999      38.90211640      17.22184647
      37.100      51.49709586      70.38009051      38.90211640      17.22184647
      37.120      51.56418368      70.48743103      38.94281382      17.22184647
      37.140      51.63733103      70.59477155      39.02969461      17.44016280
      37.160      51.74324213      70.70211207      39.07587797      17.48028565
      37.180      51.84915322      70.80945259      39.13113648      17.66481953
      37.200      51.94559321      70.91679311      39.19391070      17.74602638
      37.220      52.04094559      71.02413363      39.23022990      17.74602638
      37.240      52.13629797      71.13147415      39.24603175      17.86059445
      37.260      52.20338580      71.23881467      39.27248677      17.90071730
      37.280      52.27047362      71.34615519      39.27248677      18.00254130
      37.300      52.33756145      71.45349571      39.27248677      18.49002367
      37.320      52.40464927      71.56083623      39.24603175      18.49002367
