~Version Information
 VERS.                2.0:  CWLS LOG ASCII STANDARD -VERSION 2.0
 WRAP.                 NO:  ONE LINE PER DEPTH STEP
~WELL INFORMATION BLOCK
#MNEM.UNIT       DATA		            DESCRIPTION OF MNEMONIC
#---------    -------------            ------------------------
 STRT.M      .150                        :START DEPTH
 STOP.M   #######                        :STOP DEPTH
 STEP.M      .050                        :STEP
 NULL.    -999999.0                      :NULL VALUE
 COMP.       SOFTDR                      :COMPANY
 WELL.                          B62B0927 :WELL
 FLD .    Heerlen                        :FIELD
 CNTY.                                   :COUNTY
 STAT.                                   :STATE
 SRVC.                                   :SERVICE COMPANY
 DATE.     29-MAY-97                     :LOG DATE
 UWI .                                   :UNIQUE WELL ID
 LIC .                                   :LICENSE NUMBER
~Curve Information Block
#MNEM.UNIT      API CODE     Curve Description
#---------    -------------  ------------------------
DEPTH    .M         00 000 00 00          :  1  DEPTH
GAM(NAT) .CPS       00 000 00 00          :  2  GAM(NAT)
SP       .V         00 000 00 00          :  3  SP
RES(16N) .OHM.M     00 000 00 00          :  4  RES(16N)
RES(64N) .OHM.M     00 000 00 00          :  5  RES(64N)
RES      .OHM       00 000 00 00          :  6  RES
~Parameter Information Block
#MNEM.UNIT   Information     Description
#---------- ---------------  ------------------------
 FILE.                         :File Type
 FIID.                         :File Type Identifier
 VERS.                         :System Version
 SER .                         :System Serial Number
 TRUK.                         :Truck Calibration Number
 TOOL.                         :Tool Serial Number
 TIME.                         :Time    HrHrMinMin
 LAT .                         :Latitude
 LON .                         :Longitude
 LMF .            MV           :LOG Measured FROM
 DMF .                         :Driller Measured From
 PD  .                         :Permanent Data
 PDEV.                         :Elevation Permanent Data
 EKB .M                        :Elevation Kelly Bushing
 ELEV.DF                       :Elevation DF
 EGL .M                        :Elevation Ground Level
 DRDP.                         :Drillers Depth
 CASD.                         :Casing Diameter
 CASB.                         :Casing Bottom
 CASX.                         :Casing Type
 CAST.                         :Casing Thickness
 TNOC.                         :Time Circulation Stopped
 LOGU.                         :Logging Unit
 RECB.            Bergsma      :Recorded By
 OSR1.                         :Other Services
 OSR2.                         :Other Services
 OSR3.                         :Other Services
 BS  .MM                       :Bit Size
 MST .                         :Mean Surface Temperature
 TGRD.                         :Temperature Gradiant
 MAGN.                         :Magnetic Declination
 MDEN.                         :Density Matrix
 MATR.                         :Neutron Matrix
 DTMT.                         :Delta T Matrix
 DTFL.                         :Delta T Fluid
 MUDS.                         :Mud Sample Source
 MRS .                         :Mud Resistivity
 MTP .                         :Mud Temperature
 MFRS.                         :Resistivity Mud Filtrate
 MFTP.                         :Temperature Mud Filtrate
 MCRS.                         :Resistivity Mud Cake
 MCTP.                         :Temperature Mud Cake
 FTYP.                         :Fluid Type
 FD  .K/M3                     :Fluid Density
 DFV .S                        :Fluid Viscosity
 FPH .                         :Fuild PH
 ELCO.                         :Electron Cutoff
~Other Information
#MNEM.UNIT  Information      Description
#---------- ---------------  ------------------------
# --------------------------
## COMMENTS    Top_Depth   Bot_Depth  LithCode  Lat    Long   Elev_Gl
##    Type of LithCode   Lithologie - 1970
##                    .15        3.55       62.00     
##                   3.55        5.50        2.00     
##                   5.50        8.70       26.00     
##                   8.70       15.10       63.00     
##                  15.10       19.15       26.00     
##                  19.15       20.70       43.00     
##                  20.70       22.60       26.00     
##                  22.60       30.05       63.00     
##                  30.05       30.85       26.00     
##                  30.85       52.70       63.00     
##                  52.70       54.00       26.00     
##                  54.00       58.15       63.00     
##                  58.15       59.85       26.00     
##                  59.85       66.75       63.00     
##                  66.75       70.35       26.00     
##                  70.35       72.25       63.00     
##                  72.25       73.10       26.00     
##                  73.10       74.40       63.00     
##                  74.40       75.15       26.00     
##                  75.15       75.95       63.00     
##                  75.95       76.75       26.00     
##                  76.75       77.40       63.00     
##                  77.40       78.20       26.00     
##                  78.20       79.70       63.00     
##                  79.70       80.75       26.00     
##                  80.75       81.70       58.00     
##                  81.70       83.15       26.00     
##                  83.15       84.95       58.00     
##                  84.95       87.35       22.00     
##                  87.35       88.60       23.00     
##                  88.60       89.30       58.00     
##                  89.30       91.10       23.00     
##                  91.10       92.35       58.00     
##                  92.35       94.30       23.00     
##                  94.30       99.05       26.00     
##                  99.05      100.50       23.00     
##                 100.50      103.10       26.00     
##                 103.10      105.80       40.00     
##                 105.80      107.05       43.00     
##                 107.05      110.35       57.00     
##                 110.35      112.35       15.00     
##                 112.35      116.10       63.00     
##                 116.10      120.45       32.00     
##                 120.45      121.95       63.00     
##                 121.95      122.70       12.00     
##                 122.70      124.70       15.00     
##                 124.70      127.95       19.00     
##                 127.95      129.55       58.00     
##                 129.55      130.60       38.00     
##                 130.60      132.70       57.00     
##                 132.70      133.60       59.00     
##                 133.60      135.20       57.00     
##                 135.20      135.85       59.00     
##                 135.85      136.50       57.00     
##                 136.50      137.30       58.00     
##    last_layer   137.3
##    Type of LithCode   Lithologie - 1970
##                   1.90        2.15       87.00     
##                   2.15        3.90       84.00     
##                   3.90        4.25       85.00     
##                   4.25       21.95         .00     
##                  21.95       22.35       87.00     
##                  22.35       24.95       84.00     
##                  24.95       25.30       85.00     
##                  25.30       37.95         .00     
##                  37.95       38.25       87.00     
##                  38.25       40.95       84.00     
##                  40.95       41.20       85.00     
##                  41.20       42.00         .00     
##                  42.00       44.95       74.00     
##                  44.95       46.95         .00     
##                  46.95       47.25       87.00     
##                  47.25       50.90       84.00     
##                  50.90       51.20       85.00     
##                  51.20       59.95         .00     
##                  59.95       60.35       87.00     
##                  60.35       62.95       84.00     
##                  62.95       63.25       85.00     
##                  63.25       76.90         .00     
##                  76.90       77.15       87.00     
##                  77.15       80.00       84.00     
##                  80.00       80.35       85.00     
##                  80.35      106.95         .00     
##                 106.95      107.25       87.00     
##                 107.25      115.45       84.00     
##                 115.45      115.80       85.00     
##                 115.80      116.40         .00     
##                 116.40      117.40       77.00     
##                 117.40      119.40       80.00     
##                 119.40      120.45       77.00     
##                 120.45      121.90         .00     
##                 121.90      122.35       87.00     
##                 122.35      127.90       84.00     
##                 127.90      128.30       85.00     
##                 128.30      130.95         .00     
##                 130.95      131.25       87.00     
##                 131.25      133.95       84.00     
##                 133.95      134.15       85.00     
##    last_layer   134.15
# --------------------------
~A DEPTH    GAM(NAT) SP       RES(16N) RES(64N) RES      
# ...
    72.650    52.100      .044    34.200    24.800   233.100
    72.700    33.100      .044    33.700    24.500   234.100
    72.750    54.200      .044    32.500    24.300   234.300
    72.800    34.800      .044    30.800    24.200   234.400
    72.850    49.700      .045    28.600    24.100   234.600
    72.900    54.400      .045    26.600    24.200   234.300
    72.950    52.500      .046    25.900    24.300   233.700
    73.000    49.900      .046    25.800    24.600   231.700
    73.050    31.900      .048    25.900    24.900   227.700
    73.100    66.200      .049    26.200    25.400   221.100
    73.150    66.300      .050    26.400    25.900   210.400
    73.200    57.100      .051    26.500    26.400   197.700
    73.250    64.600      .051    26.200    26.900   192.200
    73.300    63.800      .051    25.200    27.500   191.000
    73.350    61.900      .050    23.300    28.000   191.400
    73.400    92.100      .050    21.800    28.500   192.800
    73.450    59.200      .050    20.800    29.000   194.700
    73.500    61.300      .049    20.400    29.400   197.400
    73.550    81.800      .049    20.400    29.700   201.100
    73.600    81.500      .049    20.500    29.900   203.800
    73.650    72.500      .050    20.800    30.200   201.300
    73.700    76.800      .051    21.300    30.400   195.400
    73.750    80.100      .051    22.000    30.700   190.800
    73.800    77.000      .051    22.500    31.000   188.800
    73.850    71.700      .052    22.500    31.300   188.200
    73.900    56.800      .052    22.400    31.400   188.000
    73.950    71.800      .052    22.400    31.200   187.800
    74.000    76.800      .051    22.500    30.700   187.400
    74.050    67.000      .051    22.600    30.100   187.600
    74.100    73.400      .050    22.600    29.500   188.500
    74.150    76.300      .050    22.600    29.000   189.600
    74.200    72.300      .050    22.400    28.400   190.900
    74.250    72.400      .050    22.300    28.000   192.300
    74.300    65.700      .050    22.300    27.600   194.900
    74.350    56.700      .049    22.500    27.400   198.100
    74.400    70.500      .049    23.000    27.400   200.900
    74.450    59.400      .049    23.800    27.300   204.300
    74.500    55.200      .049    24.800    27.200   206.600
    74.550    40.200      .049    25.900    27.100   207.600
    74.600    40.300      .048    27.000    27.000   206.100
    74.650    48.800      .048    27.800    27.000   204.400
    74.700    49.600      .047    28.100    27.000   205.700
    74.750    57.000      .046    27.700    27.000   211.000
    74.800    60.000      .046    27.000    27.000   217.500
    74.850    59.200      .045    26.300    27.100   221.700
    74.900    46.200      .045    26.000    27.200   223.900
    74.950    53.700      .045    25.800    27.300   226.300
    75.000    61.500      .045    25.900    27.400   227.600
    75.050    60.000      .045    25.900    27.500   227.400
    75.100    40.400      .046    26.100    27.600   226.900
    75.150    48.600      .047    26.200    27.900   223.900
    75.200    67.100      .048    26.500    28.200   217.100
    75.250    50.000      .048    26.800    28.600   208.700
    75.300    64.400      .048    27.100    28.900   203.200
    75.350    74.400      .048    27.400    29.000   200.700
    75.400    87.100      .048    27.200    28.900   198.300
    75.450    78.300      .048    27.200    28.800   196.200
    75.500    72.300      .049    27.300    28.700   194.600
    75.550    73.300      .049    27.400    28.700   193.600
    75.600    69.400      .049    27.500    28.600   193.500
    75.650    85.400      .049    27.400    28.400   193.500
    75.700    87.000      .049    27.300    28.200   193.400
    75.750    69.200      .048    27.300    28.000   193.800
    75.800    60.900      .048    27.300    27.800   196.000
    75.850    56.100      .047    27.400    27.800   200.100
    75.900    49.000      .047    27.800    27.800   205.100
    75.950    48.000      .047    28.400    27.900   208.100
    76.000    45.900      .046    29.300    28.000   210.200
    76.050    50.900      .046    30.500    27.900   211.900
    76.100    55.000      .046    31.300    27.800   213.500
    76.150    51.300      .045    32.200    27.600   214.500
    76.200    42.600      .044    32.500    27.500   216.900
    76.250    48.400      .044    32.300    27.400   222.400
    76.300    54.300      .044    31.600    27.300   227.900
    76.350    44.000      .044    30.800    27.200   231.000
    76.400    38.900      .043    30.100    27.100   233.200
    76.450    57.300      .044    29.400    27.000   235.700
    76.500    32.700      .044    28.900    26.900   237.600
    76.550    55.400      .044    28.900    26.700   237.500
    76.600    55.400      .045    29.100    26.600   234.400
    76.650    44.800      .047    29.300    26.600   229.500
    76.700    49.400      .048    29.300    26.500   222.800
    76.750    65.400      .048    29.300    26.600   213.600
    76.800    44.700      .049    29.100    26.600   207.400
    76.850    75.600      .048    28.900    26.600   204.100
    76.900    58.100      .048    28.400    26.500   202.200
    76.950    86.900      .048    27.900    26.500   201.900
    77.000    57.000      .048    27.500    26.600   201.300
    77.050    67.300      .048    27.400    26.800   200.100
    77.100    85.900      .049    27.200    27.100   198.500
    77.150    93.900      .049    27.100    27.300   196.700
    77.200    63.000      .049    26.800    27.500   196.400
    77.250    60.400      .049    26.300    27.700   198.700
    77.300    64.000      .048    25.700    27.900   200.000
    77.350    62.100      .048    25.300    28.000   201.000
    77.400    38.400      .048    25.100    28.200   203.700
    77.450    61.400      .048    24.800    28.300   206.600
    77.500    38.100      .048    24.500    28.300   207.900
    77.550    45.400      .048    24.400    28.300   208.400
    77.600    51.400      .047    24.400    28.200   207.700
    77.650    56.800      .047    24.400    28.200   206.400
    77.700    45.500      .047    24.500    28.200   207.700
    77.750    52.200      .047    24.400    28.200   209.300
    77.800    28.700      .048    24.100    28.300   207.900
    77.850    44.500      .048    23.900    28.300   204.300
    77.900    48.200      .048    23.700    28.400   201.700
    77.950    52.000      .048    23.100    28.400   199.700
    78.000    43.200      .048    22.400    28.500   198.600
    78.050    43.000      .048    21.700    28.600   199.000
    78.100    50.700      .048    21.000    28.800   199.400
    78.150    52.600      .048    20.500    29.100   199.500
    78.200    62.000      .049    20.300    29.400   198.800
    78.250    69.700      .049    20.200    29.700   196.200
    78.300    63.100      .049    20.200    30.100   193.800
    78.350    81.100      .049    20.300    30.500   192.700
    78.400    79.200      .049    20.300    30.900   190.700
    78.450    78.800      .050    20.200    31.300   188.700
    78.500    68.900      .050    20.100    31.800   187.100
    78.550    75.700      .051    20.000    32.200   185.700
    78.600    90.900      .052    19.700    32.500   184.400
    78.650    82.400      .053    19.600    32.800   183.800
    78.700    73.800      .053    19.400    33.000   183.900
    78.750    86.800      .053    19.400    33.200   184.100
    78.800    71.300      .052    19.300    33.400   184.200
    78.850   113.700      .052    19.400    33.600   183.800
    78.900   104.700      .052    19.600    33.800   183.200
    78.950    88.700      .052    19.700    33.900   182.900
    79.000    68.300      .051    20.000    33.800   183.400
    79.050    91.200      .050    20.300    33.700   184.000
    79.100    87.900      .051    20.600    33.500   184.800
    79.150    73.000      .051    21.000    33.200   185.100
    79.200    56.800      .051    21.300    32.800   185.400
