~Version Information
 VERS.                2.0:  CWLS LOG ASCII STANDARD -VERSION 2.0
 WRAP.                 NO:  ONE LINE PER DEPTH STEP
~WELL INFORMATION BLOCK
#MNEM.UNIT       DATA		            DESCRIPTION OF MNEMONIC
#---------    -------------            ------------------------
 STRT.M      .450                        :START DEPTH
 STOP.M   #######                        :STOP DEPTH
 STEP.M      .050                        :STEP
 NULL.    -999999.0                      :NULL VALUE
 COMP.       SCHIFOOD                    :COMPANY
 WELL.                          B62B0899 :WELL
 FLD .    Heerlen                        :FIELD
 CNTY.                                   :COUNTY
 STAT.                                   :STATE
 SRVC.                                   :SERVICE COMPANY
 DATE.     23-JAN-91                     :LOG DATE
 UWI .                                   :UNIQUE WELL ID
 LIC .                                   :LICENSE NUMBER
~Curve Information Block
#MNEM.UNIT      API CODE     Curve Description
#---------    -------------  ------------------------
DEPTH    .M         00 000 00 00          :  1  DEPTH
SN40     .OHM.M     00 000 00 00          :  2  SN40
SP       .V         00 000 00 00          :  3  SP
CAL      .MM        00 000 00 00          :  4  CAL
LN160    .OHM.M     00 000 00 00          :  5  LN160
GAMMA    .CPS       00 000 00 00          :  6  GAMMA
~Parameter Information Block
#MNEM.UNIT   Information     Description
#---------- ---------------  ------------------------
 FILE.                         :File Type
 FIID.                         :File Type Identifier
 VERS.                         :System Version
 SER .                         :System Serial Number
 TRUK.                         :Truck Calibration Number
 TOOL.                         :Tool Serial Number
 TIME.                         :Time    HrHrMinMin
 LAT .                         :Latitude
 LON .                         :Longitude
 LMF .            MV           :LOG Measured FROM
 DMF .                         :Driller Measured From
 PD  .                         :Permanent Data
 PDEV.                         :Elevation Permanent Data
 EKB .M                        :Elevation Kelly Bushing
 ELEV.DF                       :Elevation DF
 EGL .M                        :Elevation Ground Level
 DRDP.                         :Drillers Depth
 CASD.                         :Casing Diameter
 CASB.                         :Casing Bottom
 CASX.                         :Casing Type
 CAST.                         :Casing Thickness
 TNOC.                         :Time Circulation Stopped
 LOGU.                         :Logging Unit
 RECB.            Veenendaal   :Recorded By
 OSR1.                         :Other Services
 OSR2.                         :Other Services
 OSR3.                         :Other Services
 BS  .MM                       :Bit Size
 MST .                         :Mean Surface Temperature
 TGRD.                         :Temperature Gradiant
 MAGN.                         :Magnetic Declination
 MDEN.                         :Density Matrix
 MATR.                         :Neutron Matrix
 DTMT.                         :Delta T Matrix
 DTFL.                         :Delta T Fluid
 MUDS.                         :Mud Sample Source
 MRS .                         :Mud Resistivity
 MTP .                         :Mud Temperature
 MFRS.                         :Resistivity Mud Filtrate
 MFTP.                         :Temperature Mud Filtrate
 MCRS.                         :Resistivity Mud Cake
 MCTP.                         :Temperature Mud Cake
 FTYP.                         :Fluid Type
 FD  .K/M3                     :Fluid Density
 DFV .S                        :Fluid Viscosity
 FPH .                         :Fuild PH
 ELCO.                         :Electron Cutoff
~Other Information
#MNEM.UNIT  Information      Description
#---------- ---------------  ------------------------
# --------------------------
## COMMENTS    Top_Depth   Bot_Depth  LithCode  Lat    Long   Elev_Gl
##    Type of LithCode   Lithologie - 1970
##                    .00         .00         .00     
##                    .45        5.75         .00     
##                   5.80        7.15       13.00     
##                   7.20        8.50        2.00     
##                   8.55       10.20       23.00     
##                  10.25       11.30       11.00     
##                  11.35       15.15       23.00     
##                  15.20       18.40       21.00     
##                  18.45       27.30       12.00     
##                  27.35       39.00       11.00     
##                  39.05       47.15       12.00     
##                  47.20       49.00       10.00     
##                  49.05       51.00        7.00     
##                  51.05       54.00       10.00     
##                  54.05       55.80        9.00     
##                  55.85       57.00       20.00     
##                  57.05       58.00        9.00     
##                  58.05       60.00       20.00     
##                  60.05       63.20       11.00     
##                  63.25       67.00        8.00     
##                  67.05       70.20        9.00     
##                  70.25       74.00        7.00     
##                  74.05       75.70        9.00     
##                  75.75       78.00        7.00     
##                  78.05       84.00        8.00     
##                  84.05       92.00        9.00     
##                  92.05       94.10       10.00     
##                  94.15       97.50        9.00     
##                  97.55      100.55       10.00     
##                 100.60      100.60         .00     
##                 100.65      126.40     #######     
##    last_layer   126.4
# --------------------------
~A DEPTH    SN40     SP       CAL      LN160    GAMMA    
# ...
    66.100    34.780      .003   544.100    46.370     6.630
    66.150    34.640      .003   547.900    46.430     6.380
    66.200    34.520      .003   535.600    46.470     6.240
    66.250    34.390      .003   524.300    46.510     6.200
    66.300    34.260      .003   528.300    46.560     6.380
    66.350    34.160      .003   532.400    46.600     6.650
    66.400    34.020      .002   537.100    46.640     6.950
    66.450    33.900      .002   528.300    46.710     7.120
    66.500    33.800      .002   528.800    46.770     7.100
    66.550    33.710      .002   531.600    46.830     6.690
    66.600    33.590      .002   535.800    46.910     6.540
    66.650    33.510      .002   535.300    46.940     6.500
    66.700    33.430      .002   532.400    46.980     6.700
    66.750    33.330      .002   535.100    47.020     7.150
    66.800    33.230      .002   537.400    47.060     7.650
    66.850    33.190      .003   536.200    47.090     8.200
    66.900    33.130      .003   534.700    47.110     8.880
    66.950    33.090      .003   536.700    47.130     9.120
    67.000    33.060      .004   536.900    47.140     9.150
    67.050    33.020      .005   526.300    47.150     9.180
    67.100    33.000      .006   523.200    47.140     9.320
    67.150    32.980      .007   527.500    47.130     9.520
    67.200    32.980      .009   529.000    47.130     9.580
    67.250    32.980      .010   527.600    47.120     9.560
    67.300    32.990      .011   526.700    47.110     9.500
    67.350    33.000      .013   528.500    47.080     9.420
    67.400    33.030      .013   531.100    47.050     9.250
    67.450    33.080      .014   534.100    47.030     8.860
    67.500    33.150      .014   529.000    47.000     8.280
    67.550    33.220      .014   528.500    46.940     8.130
    67.600    33.300      .014   522.400    46.880     7.920
    67.650    33.380      .014   519.100    46.810     7.860
    67.700    33.460      .014   523.000    46.740     7.850
    67.750    33.500      .014   528.500    46.660     7.820
    67.800    33.540      .014   529.200    46.560     7.750
    67.850    33.580      .014   526.300    46.430     7.660
    67.900    33.620      .014   521.300    46.340     7.660
    67.950    33.670      .014   519.100    46.240     7.810
    68.000    33.680      .015   519.500    46.130     7.860
    68.050    33.700      .015   523.500    46.040     7.820
    68.100    33.690      .015   528.400    45.950     7.710
    68.150    33.650      .016   525.700    45.890     7.640
    68.200    33.560      .016   523.700    45.840     7.570
    68.250    33.460      .018   524.000    45.800     7.430
    68.300    33.370      .019   529.600    45.760     7.160
    68.350    33.230      .020   528.800    45.750     6.930
    68.400    33.110      .022   524.300    45.740     6.850
    68.450    32.990      .023   526.000    45.760     6.870
    68.500    32.850      .025   527.500    45.800     6.950
    68.550    32.720      .026   532.600    45.840     7.080
    68.600    32.580      .027   530.700    45.890     7.470
    68.650    32.440      .029   525.100    45.930     7.810
    68.700    32.310      .030   527.600    46.010     8.140
    68.750    32.150      .031   531.500    46.100     8.390
    68.800    32.000      .033   529.700    46.200     8.680
    68.850    31.880      .035   526.800    46.320     8.820
    68.900    31.830      .038   524.500    46.480     8.820
    68.950    31.810      .042   526.500    46.650     8.530
    69.000    31.810      .045   537.900    46.880     8.440
    69.050    31.800      .048   538.300    47.120     8.480
    69.100    31.740      .052   539.700    47.380     8.730
    69.150    31.650      .055   541.200    47.630     8.770
    69.200    31.510      .053   541.700    47.830     8.770
    69.250    31.260      .051   541.700    48.090     8.780
    69.300    30.920      .049   541.900    48.260     8.780
    69.350    30.620      .047   541.800    48.340     8.730
    69.400    30.450      .045   540.600    48.400     8.450
    69.450    30.380      .043   537.900    48.430     8.220
    69.500    30.380      .041   536.200    48.440     8.110
    69.550    30.470      .039   536.200    48.420     8.100
    69.600    30.590      .038   537.300    48.410     8.150
    69.650    30.750      .038   537.100    48.400     8.250
    69.700    30.950      .038   535.200    48.400     8.350
    69.750    31.200      .038   532.100    48.440     8.470
    69.800    31.490      .037   526.900    48.550     8.730
    69.850    31.840      .037   525.800    48.730     8.600
    69.900    32.240      .037   526.200    48.950     8.450
    69.950    32.660      .037   527.500    49.170     8.420
    70.000    33.130      .037   526.800    49.420     8.440
    70.050    33.710      .036   523.600    49.770     8.420
    70.100    34.370      .036   517.200    50.250     8.410
    70.150    35.120      .036   518.200    50.810     8.480
    70.200    35.730      .036   524.400    51.220     8.730
    70.250    36.530      .035   524.000    51.610     8.970
    70.300    37.200      .035   521.200    51.880     9.220
    70.350    38.000      .035   518.100    52.200     9.360
    70.400    38.790      .035   522.700    52.420     9.240
    70.450    39.420      .035   527.300    52.680     9.240
    70.500    40.010      .035   526.200    53.040     9.250
    70.550    40.510      .035   522.500    53.460     9.310
    70.600    41.070      .035   521.700    53.910     9.420
    70.650    41.510      .036   523.500    54.380     9.550
    70.700    41.850      .036   525.200    54.790     9.750
    70.750    42.150      .036   528.100    55.380    10.030
    70.800    42.330      .036   527.600    55.870     9.700
    70.850    42.470      .036   528.600    56.960     9.600
    70.900    42.590      .036   529.800    57.600     9.530
    70.950    42.650      .035   530.300    58.040     9.470
    71.000    42.700      .035   530.100    58.680     9.380
    71.050    42.820      .035   520.000    59.400     9.060
    71.100    43.010      .035   523.200    59.970     8.950
    71.150    43.260      .035   526.300    60.600     8.900
    71.200    43.500      .035   529.500    61.000     8.780
    71.250    43.730      .035   529.000    61.330     8.250
    71.300    43.830      .035   525.600    61.560     8.320
    71.350    43.860      .034   523.600    61.870     8.570
    71.400    43.850      .034   527.800    62.190     8.240
    71.450    43.810      .034   530.500    62.450     7.900
    71.500    43.790      .034   532.900    62.690     7.570
    71.550    43.760      .034   533.700    62.900     7.250
    71.600    43.730      .034   531.500    63.080     7.620
    71.650    43.710      .034   532.500    63.270     7.740
    71.700    43.700      .034   533.900    63.390     7.650
    71.750    43.690      .033   534.000    63.540     7.450
    71.800    43.680      .033   532.900    63.580     7.160
    71.850    43.700      .033   525.100    63.610     6.990
    71.900    43.710      .033   522.400    63.610     6.950
    71.950    43.740      .033   520.600    63.600     7.040
    72.000    43.760      .033   521.900    63.580     7.090
    72.050    43.790      .034   525.300    63.550     7.070
    72.100    43.820      .034   528.700    63.530     7.030
    72.150    43.830      .034   532.100    63.490     7.040
    72.200    43.840      .034   535.900    63.450     7.090
    72.250    43.860      .034   533.600    63.390     7.180
    72.300    43.860      .034   534.900    63.310     7.230
    72.350    43.840      .034   538.600    63.250     7.260
    72.400    43.790      .035   542.100    63.150     7.280
    72.450    43.700      .035   544.200    63.080     7.310
    72.500    43.540      .035   540.400    63.010     7.300
    72.550    43.340      .035   542.700    62.930     7.280
    72.600    43.170      .035   545.300    62.830     7.250
    72.650    42.810      .036   544.800    62.700     7.260
