~Version Information
 VERS.                2.0:  CWLS LOG ASCII STANDARD -VERSION 2.0
 WRAP.                 NO:  ONE LINE PER DEPTH STEP
~WELL INFORMATION BLOCK
#MNEM.UNIT       DATA		            DESCRIPTION OF MNEMONIC
#---------    -------------            ------------------------
 STRT.M      .000                        :START DEPTH
 STOP.M   #######                        :STOP DEPTH
 STEP.M      .050                        :STEP
 NULL.    -999999.0                      :NULL VALUE
 COMP.       SCHIFOOD                    :COMPANY
 WELL.                          B62B0896 :WELL
 FLD .    Hoensbroek                     :FIELD
 CNTY.                                   :COUNTY
 STAT.                                   :STATE
 SRVC.                                   :SERVICE COMPANY
 DATE.     17-JUL-90                     :LOG DATE
 UWI .                                   :UNIQUE WELL ID
 LIC .                                   :LICENSE NUMBER
~Curve Information Block
#MNEM.UNIT      API CODE     Curve Description
#---------    -------------  ------------------------
DEPTH    .M         00 000 00 00          :  1  DEPTH
SN40     .OHM.M     00 000 00 00          :  2  SN40
SP       .V         00 000 00 00          :  3  SP
CAL      .MM        00 000 00 00          :  4  CAL
LN160    .OHM.M     00 000 00 00          :  5  LN160
GAMMA    .CPS       00 000 00 00          :  6  GAMMA
~Parameter Information Block
#MNEM.UNIT   Information     Description
#---------- ---------------  ------------------------
 FILE.                         :File Type
 FIID.                         :File Type Identifier
 VERS.                         :System Version
 SER .                         :System Serial Number
 TRUK.                         :Truck Calibration Number
 TOOL.                         :Tool Serial Number
 TIME.                         :Time    HrHrMinMin
 LAT .                         :Latitude
 LON .                         :Longitude
 LMF .            MV           :LOG Measured FROM
 DMF .                         :Driller Measured From
 PD  .                         :Permanent Data
 PDEV.                         :Elevation Permanent Data
 EKB .M                        :Elevation Kelly Bushing
 ELEV.DF                       :Elevation DF
 EGL .M                        :Elevation Ground Level
 DRDP.                         :Drillers Depth
 CASD.                         :Casing Diameter
 CASB.                         :Casing Bottom
 CASX.                         :Casing Type
 CAST.                         :Casing Thickness
 TNOC.                         :Time Circulation Stopped
 LOGU.                         :Logging Unit
 RECB.            Bergsma      :Recorded By
 OSR1.                         :Other Services
 OSR2.                         :Other Services
 OSR3.                         :Other Services
 BS  .MM                       :Bit Size
 MST .                         :Mean Surface Temperature
 TGRD.                         :Temperature Gradiant
 MAGN.                         :Magnetic Declination
 MDEN.                         :Density Matrix
 MATR.                         :Neutron Matrix
 DTMT.                         :Delta T Matrix
 DTFL.                         :Delta T Fluid
 MUDS.                         :Mud Sample Source
 MRS .            6            :Mud Resistivity
 MTP .            19           :Mud Temperature
 MFRS.                         :Resistivity Mud Filtrate
 MFTP.                         :Temperature Mud Filtrate
 MCRS.                         :Resistivity Mud Cake
 MCTP.                         :Temperature Mud Cake
 FTYP.                         :Fluid Type
 FD  .K/M3                     :Fluid Density
 DFV .S                        :Fluid Viscosity
 FPH .                         :Fuild PH
 ELCO.                         :Electron Cutoff
~Other Information
#MNEM.UNIT  Information      Description
#---------- ---------------  ------------------------
# --------------------------
## COMMENTS    Top_Depth   Bot_Depth  LithCode  Lat    Long   Elev_Gl
##    Type of LithCode   Lithologie - 1970
##                    .00        6.00         .00     
##                   6.05        8.00        2.00     
##                   8.05       11.50       22.00     
##                  11.55       15.20       23.00     
##                  15.25       19.00       22.00     
##                  19.05       20.25       11.00     
##                  20.30       22.10       12.00     
##                  22.15       23.70       11.00     
##                  23.75       25.15       12.00     
##                  25.20       26.10       11.00     
##                  26.15       27.20       12.00     
##                  27.25       35.00       11.00     
##                  35.05       47.55       12.00     
##                  47.60       51.00        7.00     
##                  51.05       52.25       11.00     
##                  52.30       54.00        7.00     
##                  54.05       55.10       11.00     
##                  55.15       58.00       12.00     
##                  58.05       62.60       11.00     
##                  62.65       67.20        8.00     
##                  67.25       70.05        9.00     
##                  70.10       74.00        7.00     
##                  74.05       75.40        8.00     
##                  75.45       80.00        7.00     
##                  80.05       92.40        9.00     
##                  92.45       94.50       10.00     
##                  94.55       96.90        8.00     
##                  96.95       99.30       10.00     
##                  99.35       99.35         .00     
##    last_layer   99.35
# --------------------------
~A DEPTH    SN40     SP       CAL      LN160    GAMMA    
      .000 -999999.0  -999999.0  -999999.0  -999999.0  -999999.0 
      .050 -999999.0  -999999.0  -999999.0  -999999.0  -999999.0 
      .100 -999999.0  -999999.0  -999999.0  -999999.0     22.720
      .150 -999999.0  -999999.0  -999999.0  -999999.0     22.760
      .200 -999999.0  -999999.0  -999999.0  -999999.0     22.670
      .250 -999999.0  -999999.0  -999999.0  -999999.0     22.210
      .300 -999999.0  -999999.0  -999999.0  -999999.0     22.170
      .350 -999999.0  -999999.0  -999999.0  -999999.0     22.150
      .400 -999999.0  -999999.0  -999999.0  -999999.0     22.100
      .450 -999999.0  -999999.0  -999999.0  -999999.0     21.990
      .500 -999999.0  -999999.0  -999999.0  -999999.0     21.820
      .550 -999999.0  -999999.0  -999999.0  -999999.0     21.690
      .600 -999999.0  -999999.0  -999999.0  -999999.0     21.550
      .650 -999999.0  -999999.0  -999999.0  -999999.0     21.370
      .700 -999999.0  -999999.0  -999999.0  -999999.0     21.340
      .750 -999999.0  -999999.0  -999999.0  -999999.0     21.420
      .800 -999999.0  -999999.0  -999999.0  -999999.0     21.510
      .850 -999999.0  -999999.0  -999999.0  -999999.0     21.550
      .900 -999999.0  -999999.0  -999999.0  -999999.0     21.610
      .950 -999999.0  -999999.0  -999999.0  -999999.0     21.790
     1.000 -999999.0  -999999.0  -999999.0  -999999.0     22.010
     1.050 -999999.0  -999999.0  -999999.0  -999999.0     22.280
     1.100 -999999.0  -999999.0  -999999.0  -999999.0     22.400
     1.150 -999999.0  -999999.0  -999999.0  -999999.0     22.570
     1.200 -999999.0  -999999.0  -999999.0  -999999.0     22.650
     1.250 -999999.0  -999999.0  -999999.0  -999999.0     22.740
     1.300 -999999.0  -999999.0  -999999.0  -999999.0     22.820
     1.350 -999999.0  -999999.0  -999999.0  -999999.0     22.910
     1.400    12.340 -999999.0  -999999.0     46.810    23.040
     1.450    12.300 -999999.0  -999999.0     46.810    23.170
     1.500    12.280 -999999.0  -999999.0     46.810    23.360
     1.550    12.280 -999999.0  -999999.0     46.820    23.560
     1.600    12.260 -999999.0  -999999.0     46.830    23.850
     1.650    12.260 -999999.0  -999999.0     46.840    24.160
     1.700    12.260 -999999.0  -999999.0     46.860    24.410
     1.750    12.250 -999999.0  -999999.0     46.880    24.750
     1.800    12.250 -999999.0  -999999.0     46.900    25.090
     1.850    12.240 -999999.0  -999999.0     46.930    25.350
     1.900    12.240 -999999.0  -999999.0     46.950    25.210
     1.950    12.220 -999999.0  -999999.0     46.990    25.030
     2.000    12.200 -999999.0    600.400    47.020    24.950
     2.050    12.200 -999999.0    600.300    47.050    24.860
     2.100    12.190 -999999.0    600.400    47.080    24.870
     2.150    12.200 -999999.0    600.400    47.100    24.920
     2.200    12.200 -999999.0    600.400    47.110    25.010
     2.250    12.200 -999999.0    600.400    47.130    25.260
     2.300    12.190 -999999.0    600.400    47.140    24.880
     2.350    12.180 -999999.0    600.400    47.140    24.700
     2.400    12.170 -999999.0    600.400    47.150    24.450
     2.450    12.160 -999999.0    600.400    47.160    24.280
     2.500    12.150 -999999.0    600.300    47.170    24.170
     2.550    12.150 -999999.0    600.300    47.180    24.090
     2.600    12.140 -999999.0    600.300    47.180    24.060
     2.650    12.140 -999999.0    600.300    47.180    24.060
     2.700    12.140 -999999.0    600.300    47.180    24.060
     2.750    12.140 -999999.0    600.300    47.180    24.110
     2.800    12.140 -999999.0    600.300    47.170    24.160
     2.850    12.140 -999999.0    600.300    47.150    24.220
     2.900    12.130 -999999.0    600.300    47.140    24.220
     2.950    12.130 -999999.0    600.300    47.100    24.200
     3.000    12.120 -999999.0    600.300    47.070    24.160
     3.050    12.120 -999999.0    600.400    47.040    24.110
     3.100    12.120 -999999.0    600.400    47.010    24.030
     3.150    12.130 -999999.0    600.400    46.960    23.850
     3.200    12.130 -999999.0    600.500    46.920    23.680
     3.250    12.120 -999999.0    600.500    46.880    23.600
     3.300    12.120 -999999.0    600.600    46.850    23.590
     3.350    12.120 -999999.0    600.700    46.820    23.650
     3.400    12.110 -999999.0    600.700    46.790    23.720
     3.450    12.110 -999999.0    600.800    46.780    23.810
     3.500    12.100 -999999.0    601.000    46.770    23.990
     3.550    12.100 -999999.0    601.100    46.760    24.160
     3.600    12.090 -999999.0    601.300    46.750    24.290
     3.650    12.090 -999999.0    601.500    46.740    24.390
     3.700    12.080 -999999.0    601.600    46.730    24.440
     3.750    12.080 -999999.0    601.800    46.720    24.470
     3.800    12.080 -999999.0    601.800    46.710    24.450
     3.850    12.080 -999999.0    601.800    46.700    24.360
     3.900    12.080 -999999.0    601.800    46.690    24.250
     3.950    12.070 -999999.0    601.800    46.680    24.200
     4.000    12.070 -999999.0    601.800    46.680    24.280
     4.050    12.060 -999999.0    601.800    46.670    24.360
     4.100    12.060 -999999.0    601.800    46.670    24.400
     4.150    12.050 -999999.0    601.800    46.660    24.390
     4.200    12.060 -999999.0    601.700    46.640    24.350
     4.250    12.060 -999999.0    601.700    46.630    24.300
     4.300    12.080 -999999.0    601.700    46.610    24.290
     4.350    12.080 -999999.0    601.700    46.590    24.310
     4.400    12.090 -999999.0    601.700    46.560    24.380
     4.450    12.090 -999999.0    601.700    46.520    24.460
     4.500    12.100 -999999.0    601.600    46.490    24.610
     4.550    12.110 -999999.0    601.600    46.450    24.690
     4.600    12.110 -999999.0    601.600    46.420    24.640
     4.650    12.120 -999999.0    601.500    46.380    24.380
     4.700    12.130 -999999.0    601.500    46.310    23.810
     4.750    12.130 -999999.0    601.500    46.240    23.440
     4.800    12.140 -999999.0    601.400    46.060    23.140
     4.850    12.140 -999999.0    601.300    45.760    23.050
     4.900    12.140 -999999.0    601.300    45.600    23.040
     4.950    12.130 -999999.0    601.200    45.390    23.070
     5.000    12.130 -999999.0    601.100    44.940    23.100
     5.050    12.130 -999999.0    601.100    44.480    23.160
     5.100    12.120 -999999.0    601.100    44.020    23.250
     5.150    12.120 -999999.0    601.000    43.570    23.370
     5.200    12.110 -999999.0    601.000    43.060    23.460
     5.250    12.100 -999999.0    601.000    41.800    23.510
     5.300    12.080 -999999.0    601.000    40.550    23.420
     5.350    12.040 -999999.0    600.900    39.300    22.990
     5.400    12.000 -999999.0    600.900    38.040    22.720
     5.450    11.960 -999999.0    600.900    36.790    22.600
     5.500    11.900 -999999.0    600.800    35.530    22.510
     5.550    11.840 -999999.0    600.700    34.280    22.310
     5.600    11.760 -999999.0    600.600    33.030    22.090
     5.650    11.710 -999999.0    600.400    31.830    22.040
     5.700    11.700 -999999.0    600.300    30.670    22.020
     5.750    11.700 -999999.0    600.100    29.500    21.950
     5.800    11.750 -999999.0    599.900    28.340    21.760
     5.850    11.830 -999999.0    599.500    27.180    21.470
     5.900    11.920 -999999.0    599.000    26.010    21.390
     5.950    12.160 -999999.0    598.000    24.850    21.410
     6.000    12.830 -999999.0    596.600    23.750    21.430
     6.050    13.770 -999999.0    594.300    22.850    21.410
     6.100    14.660 -999999.0    587.000    21.940    21.340
     6.150    15.700 -999999.0    583.900    21.030    21.230
     6.200    16.740 -999999.0    581.000    20.120    21.180
     6.250    17.780 -999999.0    576.700    19.300    21.220
     6.300    18.850 -999999.0    582.200    19.030    21.320
     6.350    22.050 -999999.0    583.000    18.650    21.480
