~Version Information
 VERS.                2.0:  CWLS LOG ASCII STANDARD -VERSION 2.0
 WRAP.                 NO:  ONE LINE PER DEPTH STEP
~WELL INFORMATION BLOCK
#MNEM.UNIT       DATA		            DESCRIPTION OF MNEMONIC
#---------    -------------            ------------------------
 STRT.M      .000                        :START DEPTH
 STOP.M    79.950                        :STOP DEPTH
 STEP.M      .050                        :STEP
 NULL.    -999999.0                      :NULL VALUE
 COMP.       WML                         :COMPANY
 WELL.                          B62B0898 :WELL
 FLD .    Voerendaal                     :FIELD
 CNTY.                                   :COUNTY
 STAT.                                   :STATE
 SRVC.                                   :SERVICE COMPANY
 DATE.     17-NOV-90                     :LOG DATE
 UWI .                                   :UNIQUE WELL ID
 LIC .                                   :LICENSE NUMBER
~Curve Information Block
#MNEM.UNIT      API CODE     Curve Description
#---------    -------------  ------------------------
DEPTH    .M         00 000 00 00          :  1  DEPTH
UFLOW    .M/S       00 000 00 00          :  2  UFLOW
TEMP     .DEGC      00 000 00 00          :  3  TEMP
SN40     .OHM.M     00 000 00 00          :  4  SN40
SP       .V         00 000 00 00          :  5  SP
CAL      .MM        00 000 00 00          :  6  CAL
TEMP     .DEGC      00 000 00 00          :  7  TEMP
GAMMA    .CPS       00 000 00 00          :  8  GAMMA
LN160    .OHM.M     00 000 00 00          :  9  LN160
~Parameter Information Block
#MNEM.UNIT   Information     Description
#---------- ---------------  ------------------------
 FILE.                         :File Type
 FIID.                         :File Type Identifier
 VERS.                         :System Version
 SER .                         :System Serial Number
 TRUK.                         :Truck Calibration Number
 TOOL.                         :Tool Serial Number
 TIME.                         :Time    HrHrMinMin
 LAT .                         :Latitude
 LON .                         :Longitude
 LMF .            MV           :LOG Measured FROM
 DMF .                         :Driller Measured From
 PD  .                         :Permanent Data
 PDEV.                         :Elevation Permanent Data
 EKB .M                        :Elevation Kelly Bushing
 ELEV.DF                       :Elevation DF
 EGL .M                        :Elevation Ground Level
 DRDP.                         :Drillers Depth
 CASD.                         :Casing Diameter
 CASB.                         :Casing Bottom
 CASX.                         :Casing Type
 CAST.                         :Casing Thickness
 TNOC.                         :Time Circulation Stopped
 LOGU.                         :Logging Unit
 RECB.            Veenendaal   :Recorded By
 OSR1.                         :Other Services
 OSR2.                         :Other Services
 OSR3.                         :Other Services
 BS  .MM                       :Bit Size
 MST .                         :Mean Surface Temperature
 TGRD.                         :Temperature Gradiant
 MAGN.                         :Magnetic Declination
 MDEN.                         :Density Matrix
 MATR.                         :Neutron Matrix
 DTMT.                         :Delta T Matrix
 DTFL.                         :Delta T Fluid
 MUDS.                         :Mud Sample Source
 MRS .                         :Mud Resistivity
 MTP .                         :Mud Temperature
 MFRS.                         :Resistivity Mud Filtrate
 MFTP.                         :Temperature Mud Filtrate
 MCRS.                         :Resistivity Mud Cake
 MCTP.                         :Temperature Mud Cake
 FTYP.                         :Fluid Type
 FD  .K/M3                     :Fluid Density
 DFV .S                        :Fluid Viscosity
 FPH .                         :Fuild PH
 ELCO.                         :Electron Cutoff
~Other Information
#MNEM.UNIT  Information      Description
#---------- ---------------  ------------------------
# --------------------------
## COMMENTS    Top_Depth   Bot_Depth  LithCode  Lat    Long   Elev_Gl
##    Type of LithCode   Lithologie - 1970
##                    .00         .80         .00     
##                    .85        2.25       19.00     
##                   2.30        6.15       12.00     
##                   6.20       28.50        7.00     
##                  28.55       40.50        9.00     
##                  40.55       74.60         .00     
##                  74.65       78.00       10.00     
##                  78.05       78.05         .00     
##    last_layer   78.05
# --------------------------
~A DEPTH    UFLOW    TEMP     SN40     SP       CAL      TEMP     GAMMA    LN160    
# ...
    64.700    19.120    10.790    46.880      .047   544.600    11.460     5.360    69.990
    64.750    19.420    10.790    47.170      .047   543.200    11.460     5.470    69.470
    64.800    19.900    10.790    47.490      .047   542.100    11.460     5.610    68.920
    64.850    20.500    10.780    47.840      .047   535.700    11.460     5.670    68.700
    64.900    21.080    10.780    48.280      .047   534.600    11.460     5.610    68.520
    64.950    24.300    10.780    48.500      .047   534.300    11.460     5.550    68.390
    65.000    28.070    10.780    48.850      .047   533.300    11.460     5.530    68.240
    65.050    31.850    10.780    49.120      .048   531.800    11.460     5.600    68.120
    65.100    35.630    10.780    49.180      .048   531.600    11.460     5.790    68.010
    65.150    39.400    10.780    49.160      .048   532.000    11.460     5.900    67.820
    65.200    43.180    10.780    48.930      .048   533.700    11.460     5.920    67.690
    65.250    46.950    10.780    47.240      .049   536.300    11.460     5.970    67.520
    65.300    50.730    10.780    46.130      .049   539.700    11.470     6.030    67.320
    65.350    54.500    10.780    45.930      .050   542.300    11.470     6.110    67.100
    65.400    58.280    10.780    45.880      .050   543.100    11.470     6.230    66.850
    65.450    62.050    10.780    45.920      .050   542.100    11.470     6.330    66.470
    65.500    65.830    10.780    46.110      .051   538.500    11.470     6.340    65.780
    65.550    68.170    10.780    46.450      .051   531.500    11.470     6.220    65.400
    65.600    68.360    10.780    46.770      .051   526.800    11.470     6.150    64.850
    65.650    67.860    10.790    47.170      .051   525.400    11.470     6.110    64.510
    65.700    65.600    10.790    47.730      .051   531.000    11.470     6.030    64.080
    65.750    63.210    10.790    48.290      .051   530.100    11.470     6.010    63.630
    65.800    60.820    10.800    48.710      .051   525.900    11.470     6.000    63.110
    65.850    58.430    10.800    49.180      .051   523.100    11.470     6.020    62.960
    65.900    56.040    10.810    49.460      .051   523.800    11.470     6.050    62.890
    65.950    53.650    10.810    49.690      .051   527.300    11.470     6.120    62.850
    66.000    51.260    10.820    49.710      .051   529.900    11.470     6.190    62.860
    66.050    48.870    10.830    49.570      .051   532.000    11.470     6.250    62.900
    66.100    46.480    10.840    49.430      .051   534.200    11.470     6.280    63.010
    66.150    44.090    10.850    49.180      .051   535.000    11.470     6.240    63.200
    66.200    41.700    10.870    49.020      .052   535.700    11.470     6.200    63.360
    66.250    39.310    10.880    48.900      .052   536.400    11.470     6.170    63.640
    66.300    36.920    10.910    48.830      .052   536.300    11.470     6.170    63.990
    66.350    34.530    10.940    48.860      .052   535.800    11.480     6.140    64.280
    66.400    33.120    10.960    49.060      .052   537.100    11.480     6.070    64.610
    66.450    32.120    10.990    49.390      .053   538.500    11.480     6.000    64.960
    66.500    31.130    11.000    50.110      .053   539.500    11.480     5.920    65.280
    66.550    30.140    11.020    50.790      .053   538.300    11.480     5.880    65.560
    66.600    29.140    11.030    51.560      .053   531.800    11.480     5.870    65.830
    66.650    28.300    11.040    51.890      .053   529.800    11.480     5.870    66.090
    66.700    27.090    11.050    51.820      .054   534.400    11.480     5.900    66.360
    66.750    26.670    11.050    51.480      .054   538.900    11.480     5.950    66.600
    66.800    26.240    11.060    51.060      .054   542.200    11.490     6.090    66.810
    66.850    25.950    11.060    50.780      .054   547.200    11.490     6.140    66.990
    66.900    25.610    11.070    50.730      .054   551.700    11.490     6.100    67.130
    66.950    25.090    11.070    50.760      .054   554.100    11.490     6.000    67.270
    67.000    24.760    11.080    51.060      .055   556.500    11.490     5.910    67.380
    67.050    24.390    11.080    51.630      .055   555.700    11.490     5.930    67.390
    67.100    24.260    11.090    52.030      .055   549.800    11.490     5.990    67.410
    67.150    24.220    11.100    53.140      .055   535.000    11.490     6.070    67.410
    67.200    24.370    11.100    53.520      .056   531.000    11.490     6.070    67.410
    67.250    24.730    11.110    54.080      .056   532.800    11.490     6.080    67.450
    67.300    24.900    11.110    54.770      .056   535.000    11.490     6.090    67.530
    67.350    25.030    11.110    54.970      .056   536.300    11.490     6.110    67.690
    67.400    24.960    11.110    55.080      .056   536.100    11.490     6.160    67.920
    67.450    24.800    11.110    55.030      .056   540.200    11.490     6.220    68.160
    67.500    24.500    11.120    54.830      .056   545.200    11.490     6.250    68.390
    67.550    24.030    11.120    54.400      .056   549.100    11.480     6.220    68.660
    67.600    23.360    11.120    53.980      .056   549.100    11.480     6.140    68.860
    67.650    23.030    11.120    53.690      .056   549.500    11.480     6.080    69.010
    67.700    22.840    11.120    53.630      .056   549.300    11.480     6.080    69.110
    67.750    22.770    11.120    53.640      .056   548.300    11.480     6.140    69.180
    67.800    22.870    11.120    53.730      .056   548.100    11.480     6.280    69.190
    67.850    23.110    11.120    53.950      .055   548.100    11.480     6.350    69.190
    67.900    23.460    11.120    54.230      .055   548.300    11.480     6.360    69.130
    67.950    23.940    11.120    54.600      .055   547.400    11.480     6.290    69.010
    68.000    24.170    11.120    55.340      .056   540.300    11.470     6.240    68.870
    68.050    24.240    11.120    55.830      .056   533.000    11.470     6.220    68.750
    68.100    24.310    11.120    55.980      .056   532.000    11.470     6.180    68.610
    68.150    24.310    11.120    55.900      .056   535.000    11.470     6.140    68.460
    68.200    24.270    11.120    55.640      .056   538.700    11.470     6.160    68.420
    68.250    23.960    11.130    54.930      .057   542.800    11.470     6.240    68.440
    68.300    23.650    11.130    54.680      .057   546.000    11.480     6.540    68.500
    68.350    23.110    11.130    54.650      .057   548.900    11.480     6.840    68.610
    68.400    22.610    11.130    54.710      .057   550.700    11.480     7.190    68.760
    68.450    22.230    11.130    54.800      .057   551.800    11.480     7.130    68.970
    68.500    21.950    11.130    54.860      .057   550.000    11.480     6.850    69.220
    68.550    21.740    11.130    54.900      .057   548.800    11.490     6.500    69.420
    68.600    21.580    11.130    54.870      .057   547.500    11.490     6.370    69.570
    68.650    21.540    11.130    54.810      .057   544.100    11.490     6.330    69.690
    68.700    21.600    11.130    54.700      .057   546.000    11.490     6.320    69.760
    68.750    21.650    11.130    54.530      .057   548.500    11.490     6.330    69.800
    68.800    21.730    11.130    54.230      .057   549.400    11.500     6.330    69.770
    68.850    21.820    11.140    54.020      .057   547.400    11.500     6.330    69.700
    68.900    21.910    11.140    52.750      .057   546.400    11.500     6.130    69.640
    68.950    21.990    11.140    52.650      .057   550.100    11.500     5.920    69.610
    69.000    22.050    11.150    52.590      .057   556.600    11.500     5.850    69.650
    69.050    22.090    11.150    52.510      .057   560.400    11.510     5.800    69.740
