~Version Information Block
 VERS.                2.00:     CWLS LOG ASCII STANDARD - VERSION 2.000000
 WRAP.                  NO:     One Line Per Depth Step
#
~Well Information Block
#MNEM.UNIT                     Data                         Information
#----------   ------------------------------------------   ----------------
 STRT.M                                         0.0000:
 STOP.M                                        32.0000:
 STEP.M                                         0.0200:
 NULL.                                       -999.2500:
 COMP.                                                :     COMPANY
 WELL.                                        B62B0912:     WELL
 FLD .                                                :     FIELD
 CNTY.                                                :     COUNTY
 STAT.                                                :     STATE
 CTRY.                                                :     COUNTRY
 SRVC.                                                :     SERVICE COMPANY
 DATE.                                                :     DATE
 API .                                                :     API NUMBER
 UWI .                                                :     UWI NUMBER
#
~Curve Information Block
#MNEM.UNIT       API CODE      Curve Description
#----------    -------------   -------------------
 DEPT.M                    :   Depth in Meters
 CAL .CM                   :   Cal
 GAM(NAT) .CPS             :   GAM(NAT)
 SP  .MV                   :   SP
 SN40.OHM-M                :   SN40
 LN160.OHM-M               :   LN160
#
~Parameter Information Block
#MNEM.UNIT            Value               Description
#----------    --------------------    -------------------
 PDAT.                            :    Permanent Datum
 EPD .M                     0.0000:    Elevation Of Perm. Datum
 WSTA.                         LOC:    
 E   .M                     0.0000:    E (Stretch Coefficient Of The Cable)
 TD  .M                    32.0000:    Total Depth
#
~Other Information Block
<DescLogPlotStart>   NEURALOG PLOT DEFINITION
PLOTDEFVERSION: 3
LASFILE: D:\NeurLrest_23_04_'08en 20_05\nlg_1\B62B0912.las
DEPTHSCALE: 200.000000
RESOLUTION: 600
DEPTHLABELFREQ: 50.000000
HEAVYGRIDFREQ: 50.000000
MEDIUMGRIDFREQ: 25.000000
LIGHTGRIDFREQ: 5.000000
#
#   TRACK 1
#
STARTTRACK: 
 LEFTX: 0.500000 inch
 RIGHTX: 3.000000 inch
 SCALETYPE: LINEAR
 NUMCHARTDIVISIONS: 10
CURVE: SP    0.000000   50.000000  (0,0,255)      Solid             2     N    
ENDTRACK: 
#
#   TRACK 2
#
STARTTRACK: 
 LEFTX: 3.500000 inch
 RIGHTX: 6.000000 inch
 SCALETYPE: LINEAR
 NUMCHARTDIVISIONS: 10
CURVE: CAL   0.000000   100.000000 (0,131,131)    Solid             2     N    
ENDTRACK: 
#
#   TRACK 3
#
STARTTRACK: 
 LEFTX: 6.000000 inch
 RIGHTX: 11.000000 inch
 SCALETYPE: LINEAR
 NUMCHARTDIVISIONS: 10
CURVE: SN40  0.000000   100.000000 (255,0,255)    Solid             2     N    
CURVE: LN160  0.000000   100.000000 (255,0,0)      Dot               2     N    
ENDTRACK: 
#
#   TRACK 4
#
STARTTRACK: 
 LEFTX: 11.000000 inch
 RIGHTX: 16.000000 inch
 SCALETYPE: LINEAR
 NUMCHARTDIVISIONS: 10
CURVE: GAM(NAT)   0.000000   50.000000  (255,131,0)    Solid             2     N    
ENDTRACK: 
<DescLogPlotEnd>
~A  DEPTH        CAL               GAM(NAT)         SP                SN40            LN160  
# ...
      15.280      27.78897849      16.41346022      40.48249256    -999.25000000    -999.25000000
      15.300      27.78897849      16.03065158      41.25508311    -999.25000000    -999.25000000
      15.320      27.78897849      15.64784295      41.89055740    -999.25000000    -999.25000000
      15.340      28.19220430      15.26503431      42.52603168    -999.25000000    -999.25000000
      15.360      28.19220430      14.88222568      43.16150597    -999.25000000    -999.25000000
      15.380      28.19220430      14.49941704      43.79698026    -999.25000000    -999.25000000
      15.400      28.32682969      14.11660841      44.43245454    -999.25000000    -999.25000000
      15.420      28.48807666      13.73379977      45.06792883    -999.25000000    -999.25000000
      15.440      30.27553763      13.40336134      45.70340312    -999.25000000    -999.25000000
      15.460      30.27553763      13.40336134      46.01814516    -999.25000000    -999.25000000
      15.480      30.27553763      13.40336134      46.01814516    -999.25000000    -999.25000000
      15.500      30.27553763      13.40336134      46.01814516    -999.25000000    -999.25000000
      15.520      30.27553763      13.40336134      46.01814516    -999.25000000    -999.25000000
      15.540      29.63141693      13.48646400      46.01814516    -999.25000000    -999.25000000
      15.560      29.46908602      13.64146071      46.21975806    -999.25000000    -999.25000000
      15.580      29.46908602      13.79645742      46.21975806    -999.25000000    -999.25000000
      15.600      28.99865591      13.95145413      46.21975806    -999.25000000    -999.25000000
      15.620      28.99865591      14.10645084      46.85819892    -999.25000000    -999.25000000
      15.640      28.99865591      14.26144755      46.85819892    -999.25000000    -999.25000000
      15.660      28.99865591      14.41644426      46.85819892    -999.25000000    -999.25000000
      15.680      28.99865591      14.57144096      46.85819892    -999.25000000    -999.25000000
      15.700      28.99865591      14.72643767      46.85819892    -999.25000000    -999.25000000
      15.720      28.99865591      14.76470588      46.65658602    -999.25000000    -999.25000000
      15.740      28.99865591      14.76470588      46.65658602    -999.25000000    -999.25000000
      15.760      28.99865591      14.64554687      46.62335241    -999.25000000    -999.25000000
      15.780      28.99865591      14.46552106      46.42137097    -999.25000000    -999.25000000
      15.800      29.86385709      14.28549526      46.42137097    -999.25000000    -999.25000000
      15.820      29.87231183      14.10546945      46.01814516    -999.25000000    -999.25000000
      15.840      29.87231183      13.92544364      46.01814516    -999.25000000    -999.25000000
      15.860      30.27553763      13.74541784      45.94235605    -999.25000000    -999.25000000
      15.880      30.27553763      13.56539203      45.37970430    -999.25000000    -999.25000000
      15.900      30.27553763      13.38536622      45.37970430    -999.25000000    -999.25000000
      15.920      30.27553763      13.20534042      43.69959677    -999.25000000    -999.25000000
      15.940      30.27553763      13.02531461      43.69959677    -999.25000000    -999.25000000
      15.960      30.27553763      12.89062619      43.69959677    -999.25000000    -999.25000000
      15.980      30.27553763      12.93081052      43.48146462    -999.25000000    -999.25000000
      16.000      30.27553763      12.97099485      43.40097121    -999.25000000    -999.25000000
      16.020      30.27553763      13.01117918      43.25401058    -999.25000000    -999.25000000
      16.040      30.27553763      13.03455679      43.06115591    -999.25000000    -999.25000000
      16.060      30.27553763      13.11982651      43.06115591    -999.25000000    -999.25000000
      16.080      30.27553763      13.21576579      42.85954301    -999.25000000    -999.25000000
      16.100      30.27553763      13.27275684      42.85954301    -999.25000000    -999.25000000
      16.120      30.27553763      13.31294118      42.75470430    -999.25000000    -999.25000000
      16.140      30.27553763      13.35312551      42.45631720    -999.25000000      66.60504202
      16.160      30.29835675      13.43384115      42.45631720    -999.25000000      66.60504202
      16.180      30.60472598      13.53433451      42.17128425    -999.25000000      66.60504202
      16.200      30.91109521      13.57451884      41.81787634    -999.25000000      66.60504202
      16.220      31.21746445      13.92436975      41.81787634    -999.25000000      66.60504202
      16.240      31.52383368      13.92436975      41.61626344    -999.25000000      66.10523409
      16.260      31.83020291      13.92436975      41.61626344    -999.25000000      64.24845738
      16.280      32.13657215      13.50420168      41.43110475    -999.25000000      62.39168067
      16.300      32.44294138      13.50420168      41.17943548    -999.25000000      61.15966387
      16.320      32.74931061      13.50420168      41.17943548    -999.25000000      61.15966387
      16.340      32.69029657      13.71656846      40.97782258    -999.25000000      60.90758403
      16.360      32.50217511      13.98093906      40.97782258    -999.25000000      60.72268908
      16.380      32.24042519      14.24530967      40.97782258    -999.25000000      60.72268908
      16.400      31.74324705      14.50968027      40.77620968    -999.25000000      60.52100840
      16.420      31.24606891      14.77405088      40.77620968    -999.25000000      60.52100840
      16.440      30.74889077      15.03842148      40.63796393    -999.25000000      60.52100840
      16.460      30.25171263      15.30279208      40.54099462    -999.25000000      59.96641726
      16.480      29.87231183      15.56716269      40.54099462    -999.25000000      59.26902392
      16.500      29.87231183      15.60504202      40.33938172    -999.25000000      58.57163058
      16.520      29.87231183      15.60504202      40.33938172    -999.25000000      57.87423723
      16.540      29.46908602      15.60504202      40.22543791    -999.25000000      57.17684389
      16.560      29.46908602      15.60504202      40.13776882    -999.25000000      56.54135798
      16.580      29.46908602      15.46686133      40.13776882    -999.25000000      56.02146050
      16.600      29.46908602      14.92724316      39.98623396    -999.25000000      55.50156303
      16.620      29.46908602      14.38762499      39.86400884    -999.25000000      54.98166555
      16.640      29.87231183      14.02521008      39.74991328    -999.25000000      54.46176807
      16.660      29.87231183      14.02521008      39.70094086    -999.25000000      53.94187059
      16.680      29.87231183      14.02521008      39.70094086    -999.25000000      53.42197311
      16.700      29.87231183      13.92436975      39.55395855    -999.25000000      52.90207563
      16.720      29.87231183      13.92436975      39.49932796    -999.25000000      52.38217815
      16.740      29.95986943      13.53882353      39.49932796    -999.25000000      51.86228067
      16.760      30.23629280      13.40336134      39.46856573    -999.25000000      51.34238319
      16.780      30.51271617      13.40336134      39.39852151    -999.25000000      51.27731092
      16.800      30.74314950      13.30252101      39.31744277    -999.25000000      51.27731092
      16.820      30.74596774      13.30252101      39.22708550    -999.25000000      51.27731092
      16.840      30.74596774      13.33306337      39.14659209    -999.25000000      51.27731092
      16.860      30.74596774      13.43816085      39.06609868    -999.25000000      51.27731092
      16.880      30.74596774      13.54325834      39.06250000    -999.25000000      51.38823087
      16.900      30.74596774      13.64835582      39.06250000    -999.25000000      51.51913423
