~Version Information
 VERS.                2.0:  CWLS LOG ASCII STANDARD -VERSION 2.0
 WRAP.                 NO:  ONE LINE PER DEPTH STEP
~WELL INFORMATION BLOCK
#MNEM.UNIT       DATA		            DESCRIPTION OF MNEMONIC
#---------    -------------            ------------------------
 STRT.M      .000                        :START DEPTH
 STOP.M    79.950                        :STOP DEPTH
 STEP.M      .050                        :STEP
 NULL.    -999999.0                      :NULL VALUE
 COMP.       WML                         :COMPANY
 WELL.                          B62B0898 :WELL
 FLD .    Voerendaal                     :FIELD
 CNTY.                                   :COUNTY
 STAT.                                   :STATE
 SRVC.                                   :SERVICE COMPANY
 DATE.     17-NOV-90                     :LOG DATE
 UWI .                                   :UNIQUE WELL ID
 LIC .                                   :LICENSE NUMBER
~Curve Information Block
#MNEM.UNIT      API CODE     Curve Description
#---------    -------------  ------------------------
DEPTH    .M         00 000 00 00          :  1  DEPTH
UFLOW    .M/S       00 000 00 00          :  2  UFLOW
TEMP     .DEGC      00 000 00 00          :  3  TEMP
SN40     .OHM.M     00 000 00 00          :  4  SN40
SP       .V         00 000 00 00          :  5  SP
CAL      .MM        00 000 00 00          :  6  CAL
TEMP     .DEGC      00 000 00 00          :  7  TEMP
GAMMA    .CPS       00 000 00 00          :  8  GAMMA
LN160    .OHM.M     00 000 00 00          :  9  LN160
~Parameter Information Block
#MNEM.UNIT   Information     Description
#---------- ---------------  ------------------------
 FILE.                         :File Type
 FIID.                         :File Type Identifier
 VERS.                         :System Version
 SER .                         :System Serial Number
 TRUK.                         :Truck Calibration Number
 TOOL.                         :Tool Serial Number
 TIME.                         :Time    HrHrMinMin
 LAT .                         :Latitude
 LON .                         :Longitude
 LMF .            MV           :LOG Measured FROM
 DMF .                         :Driller Measured From
 PD  .                         :Permanent Data
 PDEV.                         :Elevation Permanent Data
 EKB .M                        :Elevation Kelly Bushing
 ELEV.DF                       :Elevation DF
 EGL .M                        :Elevation Ground Level
 DRDP.                         :Drillers Depth
 CASD.                         :Casing Diameter
 CASB.                         :Casing Bottom
 CASX.                         :Casing Type
 CAST.                         :Casing Thickness
 TNOC.                         :Time Circulation Stopped
 LOGU.                         :Logging Unit
 RECB.            Veenendaal   :Recorded By
 OSR1.                         :Other Services
 OSR2.                         :Other Services
 OSR3.                         :Other Services
 BS  .MM                       :Bit Size
 MST .                         :Mean Surface Temperature
 TGRD.                         :Temperature Gradiant
 MAGN.                         :Magnetic Declination
 MDEN.                         :Density Matrix
 MATR.                         :Neutron Matrix
 DTMT.                         :Delta T Matrix
 DTFL.                         :Delta T Fluid
 MUDS.                         :Mud Sample Source
 MRS .                         :Mud Resistivity
 MTP .                         :Mud Temperature
 MFRS.                         :Resistivity Mud Filtrate
 MFTP.                         :Temperature Mud Filtrate
 MCRS.                         :Resistivity Mud Cake
 MCTP.                         :Temperature Mud Cake
 FTYP.                         :Fluid Type
 FD  .K/M3                     :Fluid Density
 DFV .S                        :Fluid Viscosity
 FPH .                         :Fuild PH
 ELCO.                         :Electron Cutoff
~Other Information
#MNEM.UNIT  Information      Description
#---------- ---------------  ------------------------
# --------------------------
## COMMENTS    Top_Depth   Bot_Depth  LithCode  Lat    Long   Elev_Gl
##    Type of LithCode   Lithologie - 1970
##                    .00         .80         .00     
##                    .85        2.25       19.00     
##                   2.30        6.15       12.00     
##                   6.20       28.50        7.00     
##                  28.55       40.50        9.00     
##                  40.55       74.60         .00     
##                  74.65       78.00       10.00     
##                  78.05       78.05         .00     
##    last_layer   78.05
# --------------------------
~A DEPTH    UFLOW    TEMP     SN40     SP       CAL      TEMP     GAMMA    LN160    
# ...
    47.100    10.700    10.350    52.660      .057   553.300    11.080     3.570    66.430
    47.150    11.410    10.350    52.810      .057   553.800    11.080     3.640    66.510
    47.200    12.070    10.350    52.980      .057   556.800    11.080     3.660    66.570
    47.250    13.110    10.350    53.200      .057   560.600    11.080     3.660    66.620
    47.300    14.030    10.360    53.430      .057   562.600    11.090     3.680    66.690
    47.350    14.340    10.360    53.630      .057   551.800    11.090     3.720    66.760
    47.400    14.840    10.360    53.730      .057   549.700    11.090     3.830    66.830
    47.450    15.050    10.360    53.770      .057   547.500    11.090     3.940    66.920
    47.500    15.070    10.360    53.790      .056   546.500    11.090     4.010    66.990
    47.550    14.920    10.360    53.830      .056   543.400    11.090     4.020    67.110
    47.600    14.690    10.350    53.840      .056   541.200    11.090     4.030    67.200
    47.650    14.430    10.350    53.850      .056   541.000    11.100     4.030    67.320
    47.700    14.130    10.350    53.850      .056   542.700    11.100     3.910    67.460
    47.750    13.650    10.350    53.850      .056   544.800    11.100     3.720    67.600
    47.800    13.420    10.350    53.800      .056   547.100    11.100     3.580    67.770
    47.850    13.260    10.350    53.750      .055   549.900    11.100     3.520    67.940
    47.900    13.140    10.350    53.710      .055   553.000    11.100     3.490    68.240
    47.950    13.070    10.350    53.640      .055   555.700    11.110     3.470    68.510
    48.000    12.880    10.350    53.600      .055   557.600    11.110     3.450    68.820
    48.050    12.610    10.350    53.540      .056   557.600    11.110     3.460    69.150
    48.100    12.380    10.350    53.490      .056   555.600    11.110     3.480    69.470
    48.150    12.340    10.350    53.470      .056   554.600    11.110     3.510    69.670
    48.200    12.340    10.350    53.490      .056   555.300    11.110     3.560    69.940
    48.250    12.280    10.350    53.510      .056   557.300    11.110     3.580    70.050
    48.300    12.150    10.340    53.530      .056   556.300    11.110     3.540    70.140
    48.350    11.770    10.340    53.580      .056   552.600    11.110     3.440    70.210
    48.400    11.230    10.340    53.680      .056   551.400    11.120     3.370    70.260
    48.450    10.670    10.340    53.830      .056   550.400    11.120     3.420    70.310
    48.500    10.400    10.340    54.020      .056   545.800    11.120     3.550    70.340
    48.550    10.210    10.350    54.220      .056   543.400    11.120     3.600    70.350
    48.600    10.130    10.350    54.400      .056   539.600    11.120     3.650    70.380
    48.650    10.160    10.350    54.570      .056   540.200    11.120     3.730    70.390
    48.700    10.270    10.350    54.730      .056   544.200    11.120     3.780    70.400
    48.750    10.510    10.360    54.890      .056   549.500    11.120     3.770    70.410
    48.800    10.790    10.360    55.040      .056   551.400    11.120     3.710    70.420
    48.850    10.980    10.360    55.170      .056   555.900    11.120     3.600    70.430
    48.900    11.130    10.360    55.260      .056   559.100    11.120     3.480    70.490
    48.950    11.210    10.360    55.320      .056   558.400    11.120     3.380    70.520
    49.000    11.500    10.360    55.330      .056   548.700    11.120     3.190    70.590
    49.050    11.570    10.360    55.360      .056   548.400    11.120     3.170    70.670
    49.100    11.640    10.360    55.380      .056   548.600    11.120     3.200    70.740
    49.150    11.710    10.360    55.380      .056   549.500    11.120     3.250    70.820
    49.200    11.540    10.360    55.410      .056   551.100    11.130     3.270    70.930
    49.250    11.350    10.360    55.400      .056   553.300    11.130     3.260    71.060
    49.300    11.190    10.350    55.390      .056   553.800    11.130     3.160    71.190
    49.350    10.760    10.350    55.380      .055   554.100    11.130     2.970    71.300
    49.400    10.590    10.350    55.360      .055   552.200    11.130     2.880    71.360
    49.450    10.600    10.350    55.340      .055   546.700    11.130     2.970    71.410
    49.500    10.640    10.350    55.340      .055   540.000    11.130     3.110    71.430
    49.550    10.630    10.350    55.340      .055   538.200    11.130     3.220    71.450
    49.600    10.520    10.350    55.350      .055   539.700    11.130     3.330    71.450
    49.650    10.440    10.350    55.390      .054   546.400    11.130     3.430    71.450
    49.700    10.500    10.350    55.430      .054   553.100    11.140     3.440    71.480
    49.750    10.790    10.350    55.470      .054   559.200    11.140     3.450    71.540
    49.800    11.280    10.350    55.510      .054   547.300    11.140     3.470    71.610
    49.850    11.770    10.350    55.540      .054   545.100    11.140     3.450    71.730
    49.900    12.250    10.350    55.590      .054   542.900    11.140     3.430    71.840
    49.950    12.740    10.350    55.660      .054   541.800    11.140     3.410    71.940
    50.000    13.370    10.350    55.710      .054   544.000    11.140     3.390    71.950
    50.050    13.890    10.350    55.790      .054   544.400    11.140     3.370    72.000
    50.100    14.450    10.350    55.840      .054   543.300    11.140     3.360    72.040
    50.150    14.640    10.350    55.840      .054   543.100    11.140     3.360    72.050
    50.200    14.470    10.350    55.860      .054   542.600    11.150     3.370    72.130
    50.250    12.890    10.350    55.880      .054   541.400    11.150     3.440    72.230
    50.300    10.910    10.350    55.900      .054   540.800    11.150     3.510    72.330
    50.350    10.060    10.350    55.910      .053   543.300    11.150     3.630    72.470
    50.400     8.790    10.350    55.920      .053   547.900    11.150     3.770    72.690
    50.450     7.500    10.350    55.920      .052   544.800    11.160     3.880    72.960
    50.500     7.040    10.360    55.870      .051   543.500    11.160     3.910    73.320
    50.550     6.780    10.360    55.710      .050   542.200    11.160     3.920    73.530
    50.600     6.750    10.360    55.420      .050   541.200    11.160     3.930    73.800
    50.650     6.920    10.360    55.210      .049   541.200    11.170     4.010    73.940
    50.700     9.060    10.360    55.090      .049   541.700    11.170     4.110    74.040
    50.750    12.100    10.360    55.060      .049   542.500    11.170     4.240    74.100
    50.800    15.380    10.360    55.140      .049   543.900    11.170     4.260    74.110
    50.850    17.490    10.350    55.240      .049   545.200    11.170     4.220    74.020
    50.900    18.470    10.350    55.350      .049   548.300    11.180     4.180    73.880
    50.950    18.670    10.350    55.520      .048   549.200    11.180     4.110    73.750
    51.000    18.220    10.350    55.720      .048   548.600    11.180     3.990    73.660
    51.050    17.860    10.350    55.960      .048   549.000    11.180     3.850    73.600
    51.100    16.820    10.360    56.220      .048   550.400    11.180     3.810    73.590
    51.150    15.900    10.360    56.530      .049   552.300    11.190     3.770    73.630
    51.200    15.340    10.370    56.940      .049   549.200    11.190     3.730    73.680
    51.250    14.530    10.370    57.250      .050   546.100    11.190     3.660    73.860
    51.300    13.400    10.370    57.490      .050   543.000    11.190     3.610    73.990
    51.350    13.070    10.370    57.520      .051   541.200    11.190     3.590    74.140
    51.400    12.920    10.370    57.470      .051   544.500    11.190     3.580    74.340
    51.450    12.910    10.370    57.420      .051   546.000    11.190     3.580    74.590
