~Version Information
 VERS.                2.0:  CWLS LOG ASCII STANDARD -VERSION 2.0
 WRAP.                 NO:  ONE LINE PER DEPTH STEP
~WELL INFORMATION BLOCK
#MNEM.UNIT       DATA		            DESCRIPTION OF MNEMONIC
#---------    -------------            ------------------------
 STRT.M      .150                        :START DEPTH
 STOP.M   #######                        :STOP DEPTH
 STEP.M      .050                        :STEP
 NULL.    -999999.0                      :NULL VALUE
 COMP.       SOFTDR                      :COMPANY
 WELL.                          B62B0927 :WELL
 FLD .    Heerlen                        :FIELD
 CNTY.                                   :COUNTY
 STAT.                                   :STATE
 SRVC.                                   :SERVICE COMPANY
 DATE.     29-MAY-97                     :LOG DATE
 UWI .                                   :UNIQUE WELL ID
 LIC .                                   :LICENSE NUMBER
~Curve Information Block
#MNEM.UNIT      API CODE     Curve Description
#---------    -------------  ------------------------
DEPTH    .M         00 000 00 00          :  1  DEPTH
GAM(NAT) .CPS       00 000 00 00          :  2  GAM(NAT)
SP       .V         00 000 00 00          :  3  SP
RES(16N) .OHM.M     00 000 00 00          :  4  RES(16N)
RES(64N) .OHM.M     00 000 00 00          :  5  RES(64N)
RES      .OHM       00 000 00 00          :  6  RES
~Parameter Information Block
#MNEM.UNIT   Information     Description
#---------- ---------------  ------------------------
 FILE.                         :File Type
 FIID.                         :File Type Identifier
 VERS.                         :System Version
 SER .                         :System Serial Number
 TRUK.                         :Truck Calibration Number
 TOOL.                         :Tool Serial Number
 TIME.                         :Time    HrHrMinMin
 LAT .                         :Latitude
 LON .                         :Longitude
 LMF .            MV           :LOG Measured FROM
 DMF .                         :Driller Measured From
 PD  .                         :Permanent Data
 PDEV.                         :Elevation Permanent Data
 EKB .M                        :Elevation Kelly Bushing
 ELEV.DF                       :Elevation DF
 EGL .M                        :Elevation Ground Level
 DRDP.                         :Drillers Depth
 CASD.                         :Casing Diameter
 CASB.                         :Casing Bottom
 CASX.                         :Casing Type
 CAST.                         :Casing Thickness
 TNOC.                         :Time Circulation Stopped
 LOGU.                         :Logging Unit
 RECB.            Bergsma      :Recorded By
 OSR1.                         :Other Services
 OSR2.                         :Other Services
 OSR3.                         :Other Services
 BS  .MM                       :Bit Size
 MST .                         :Mean Surface Temperature
 TGRD.                         :Temperature Gradiant
 MAGN.                         :Magnetic Declination
 MDEN.                         :Density Matrix
 MATR.                         :Neutron Matrix
 DTMT.                         :Delta T Matrix
 DTFL.                         :Delta T Fluid
 MUDS.                         :Mud Sample Source
 MRS .                         :Mud Resistivity
 MTP .                         :Mud Temperature
 MFRS.                         :Resistivity Mud Filtrate
 MFTP.                         :Temperature Mud Filtrate
 MCRS.                         :Resistivity Mud Cake
 MCTP.                         :Temperature Mud Cake
 FTYP.                         :Fluid Type
 FD  .K/M3                     :Fluid Density
 DFV .S                        :Fluid Viscosity
 FPH .                         :Fuild PH
 ELCO.                         :Electron Cutoff
~Other Information
#MNEM.UNIT  Information      Description
#---------- ---------------  ------------------------
# --------------------------
## COMMENTS    Top_Depth   Bot_Depth  LithCode  Lat    Long   Elev_Gl
##    Type of LithCode   Lithologie - 1970
##                    .15        3.55       62.00     
##                   3.55        5.50        2.00     
##                   5.50        8.70       26.00     
##                   8.70       15.10       63.00     
##                  15.10       19.15       26.00     
##                  19.15       20.70       43.00     
##                  20.70       22.60       26.00     
##                  22.60       30.05       63.00     
##                  30.05       30.85       26.00     
##                  30.85       52.70       63.00     
##                  52.70       54.00       26.00     
##                  54.00       58.15       63.00     
##                  58.15       59.85       26.00     
##                  59.85       66.75       63.00     
##                  66.75       70.35       26.00     
##                  70.35       72.25       63.00     
##                  72.25       73.10       26.00     
##                  73.10       74.40       63.00     
##                  74.40       75.15       26.00     
##                  75.15       75.95       63.00     
##                  75.95       76.75       26.00     
##                  76.75       77.40       63.00     
##                  77.40       78.20       26.00     
##                  78.20       79.70       63.00     
##                  79.70       80.75       26.00     
##                  80.75       81.70       58.00     
##                  81.70       83.15       26.00     
##                  83.15       84.95       58.00     
##                  84.95       87.35       22.00     
##                  87.35       88.60       23.00     
##                  88.60       89.30       58.00     
##                  89.30       91.10       23.00     
##                  91.10       92.35       58.00     
##                  92.35       94.30       23.00     
##                  94.30       99.05       26.00     
##                  99.05      100.50       23.00     
##                 100.50      103.10       26.00     
##                 103.10      105.80       40.00     
##                 105.80      107.05       43.00     
##                 107.05      110.35       57.00     
##                 110.35      112.35       15.00     
##                 112.35      116.10       63.00     
##                 116.10      120.45       32.00     
##                 120.45      121.95       63.00     
##                 121.95      122.70       12.00     
##                 122.70      124.70       15.00     
##                 124.70      127.95       19.00     
##                 127.95      129.55       58.00     
##                 129.55      130.60       38.00     
##                 130.60      132.70       57.00     
##                 132.70      133.60       59.00     
##                 133.60      135.20       57.00     
##                 135.20      135.85       59.00     
##                 135.85      136.50       57.00     
##                 136.50      137.30       58.00     
##    last_layer   137.3
##    Type of LithCode   Lithologie - 1970
##                   1.90        2.15       87.00     
##                   2.15        3.90       84.00     
##                   3.90        4.25       85.00     
##                   4.25       21.95         .00     
##                  21.95       22.35       87.00     
##                  22.35       24.95       84.00     
##                  24.95       25.30       85.00     
##                  25.30       37.95         .00     
##                  37.95       38.25       87.00     
##                  38.25       40.95       84.00     
##                  40.95       41.20       85.00     
##                  41.20       42.00         .00     
##                  42.00       44.95       74.00     
##                  44.95       46.95         .00     
##                  46.95       47.25       87.00     
##                  47.25       50.90       84.00     
##                  50.90       51.20       85.00     
##                  51.20       59.95         .00     
##                  59.95       60.35       87.00     
##                  60.35       62.95       84.00     
##                  62.95       63.25       85.00     
##                  63.25       76.90         .00     
##                  76.90       77.15       87.00     
##                  77.15       80.00       84.00     
##                  80.00       80.35       85.00     
##                  80.35      106.95         .00     
##                 106.95      107.25       87.00     
##                 107.25      115.45       84.00     
##                 115.45      115.80       85.00     
##                 115.80      116.40         .00     
##                 116.40      117.40       77.00     
##                 117.40      119.40       80.00     
##                 119.40      120.45       77.00     
##                 120.45      121.90         .00     
##                 121.90      122.35       87.00     
##                 122.35      127.90       84.00     
##                 127.90      128.30       85.00     
##                 128.30      130.95         .00     
##                 130.95      131.25       87.00     
##                 131.25      133.95       84.00     
##                 133.95      134.15       85.00     
##    last_layer   134.15
# --------------------------
~A DEPTH    GAM(NAT) SP       RES(16N) RES(64N) RES      
# ...
   125.450    14.400      .036    64.500    49.600   181.700
   125.500    23.600      .035    64.200    49.400   181.100
   125.550    23.300      .035    63.900    49.100   182.100
   125.600    29.800      .034    63.700    48.900   183.300
   125.650    18.500      .034    63.900    49.000   184.000
   125.700    20.800      .034    64.500    49.300   184.100
   125.750    20.000      .034    65.200    49.800   184.100
   125.800    23.600      .034    65.900    50.300   182.900
   125.850    34.000      .034    66.100    50.700   181.300
   125.900    30.000      .034    66.100    50.900   180.400
   125.950    20.100      .034    65.500    50.900   180.000
   126.000    34.400      .034    64.500    50.900   180.800
   126.050    31.900      .034    63.100    50.800   181.700
   126.100    21.400      .034    61.400    50.800   183.000
   126.150    20.100      .034    59.600    50.700   183.600
   126.200    15.800      .034    57.700    50.500   184.000
   126.250    36.400      .033    56.300    50.200   184.100
   126.300    20.000      .034    55.700    49.900   183.900
   126.350    19.900      .034    55.900    49.700   183.100
   126.400    30.000      .034    56.600    49.500   180.900
   126.450    35.900      .035    57.300    49.300   176.900
   126.500    17.600      .036    57.800    49.100   170.800
   126.550    22.200      .036    57.900    48.800   165.000
   126.600    17.400      .035    57.600    48.400   163.000
   126.650    21.500      .035    56.800    47.900   163.500
   126.700    34.000      .035    55.900    47.300   165.500
   126.750    25.700      .035    55.400    46.800   168.400
   126.800    38.300      .035    55.500    46.200   171.500
   126.850    31.400      .035    56.100    45.700   173.900
   126.900    13.400      .035    57.000    45.100   175.100
   126.950    24.100      .035    58.100    44.600   175.400
   127.000    28.500      .034    58.700    44.000   175.000
   127.050    28.200      .034    59.100    43.300   175.600
   127.100    31.900      .034    59.500    42.600   176.600
   127.150    22.000      .034    59.800    41.600   177.000
   127.200    17.100      .034    60.100    40.600   177.100
   127.250    14.800      .034    60.200    39.400   176.900
   127.300    20.500      .034    60.200    38.100   176.100
   127.350    23.800      .034    59.900    36.700   174.600
   127.400    14.600      .034    59.300    35.500   174.600
   127.450    16.800      .034    58.100    34.700   175.300
   127.500    27.000      .034    56.700    34.200   175.200
   127.550    27.800      .034    56.000    34.000   174.800
   127.600    22.700      .034    55.500    34.000   175.000
   127.650    18.600      .034    54.500    34.100   174.400
   127.700    19.500      .034    53.400    34.300   172.900
   127.750    23.000      .035    52.200    34.500   169.900
   127.800    21.900      .035    50.200    34.700   166.900
   127.850    23.100      .034    47.600    35.000   167.400
   127.900    22.300      .035    44.300    35.300   169.200
   127.950    31.800      .035    40.800    35.600   169.000
   128.000    32.200      .035    37.600    36.100   167.700
   128.050    40.500      .035    34.700    36.400   167.200
   128.100    34.300      .035    32.100    36.800   166.200
   128.150    52.800      .036    30.100    37.100   163.500
   128.200    49.000      .037    28.800    37.500   158.700
   128.250    32.300      .039    27.900    37.900   152.800
   128.300    44.000      .041    27.200    38.300   147.200
   128.350    33.800      .042    26.500    38.700   143.000
   128.400    40.200      .043    25.700    39.100   139.600
   128.450    47.100      .044    24.900    39.500   137.100
   128.500    44.100      .043    23.900    39.800   135.300
   128.550    41.900      .043    23.800    40.000   134.000
   128.600    51.400      .043    23.500    40.200   133.000
   128.650    41.800      .043    23.100    40.400   133.000
   128.700    55.800      .044    22.900    40.500   133.200
   128.750    63.100      .043    22.900    40.500   132.500
   128.800    51.200      .043    23.000    40.300   131.100
   128.850    44.900      .042    23.300    40.100   130.800
   128.900    58.100      .041    23.400    39.700   132.100
   128.950    56.300      .041    23.600    39.100   133.700
   129.000    43.200      .040    24.200    38.400   134.300
   129.050    52.400      .040    24.800    37.400   134.000
   129.100    63.200      .039    25.600    36.300   134.300
   129.150    37.600      .039    26.100    35.100   135.300
   129.200    35.200      .038    26.600    33.800   135.400
   129.250    42.700      .038    27.300    32.500   135.600
   129.300    45.200      .036    28.000    31.200   136.900
   129.350    34.500      .036    28.800    30.100   139.400
   129.400    39.500      .036    29.600    29.000   142.100
   129.450    46.600      .036    30.900    28.100   143.100
   129.500    38.400      .036    32.500    27.300   142.300
   129.550    35.600      .035    34.300    26.400   142.900
   129.600    28.200      .035    36.100    25.600   145.200
   129.650    22.900      .035    37.700    24.700   148.500
   129.700    24.200      .035    39.800    23.700   152.100
   129.750    23.400      .035    42.300    22.700   156.500
   129.800    25.600      .035    44.900    21.700   162.000
   129.850    19.600      .035    47.300    20.900   168.000
   129.900    24.600      .035    49.200    20.400   172.400
   129.950    23.000      .034    50.800    20.100   174.700
   130.000    30.200      .034    51.600    19.900   175.600
   130.050    27.100      .034    51.700    19.900   175.300
   130.100    22.700      .035    51.300    20.000   174.400
   130.150    32.100      .035    50.400    20.100   172.900
   130.200    28.600      .035    49.000    20.300   170.700
   130.250    32.200      .035    46.700    20.500   167.500
   130.300    37.200      .035    43.000    20.800   163.500
   130.350    37.400      .035    38.100    21.100   160.100
   130.400    38.500      .036    32.400    21.400   158.100
   130.450    31.200      .036    26.500    21.800   157.200
   130.500    16.800      .037    22.100    22.300   158.300
   130.550    37.900      .037    19.100    22.800   160.300
   130.600    42.000      .038    17.600    23.400   159.400
   130.650    50.200      .040    16.900    23.900   154.700
   130.700    43.700      .041    16.400    24.400   146.400
   130.750    51.300      .043    16.000    24.800   136.500
   130.800    65.500      .045    15.800    25.200   130.100
   130.850    72.700      .046    15.700    25.700   127.800
   130.900    69.400      .046    15.500    26.100   129.900
   130.950    72.900      .046    15.300    26.400   136.300
   131.000    69.100      .047    15.000    26.800   138.300
   131.050    77.800      .047    14.700    27.100   136.100
   131.100    73.200      .047    14.600    27.300   132.700
   131.150    76.200      .047    14.500    27.500   129.000
   131.200    63.800      .047    14.600    27.800   126.400
   131.250    67.400      .046    14.500    28.000   127.700
   131.300    59.400      .046    14.300    28.300   129.800
   131.350    86.500      .046    14.000    28.700   129.600
   131.400    75.000      .046    13.900    29.000   128.100
   131.450    73.800      .046    13.800    29.300   125.400
   131.500    80.900      .045    13.800    29.500   119.900
   131.550    84.200      .045    13.700    29.400   125.400
   131.600    65.600      .045    13.700    29.200   134.000
   131.650    73.600      .044    13.700    29.000   136.700
   131.700    66.000      .044    14.100    28.800   136.700
   131.750    74.100      .043    14.400    28.600   136.600
   131.800    76.400      .043    14.700    28.300   136.300
   131.850    85.000      .042    15.100    28.100   136.300
   131.900    94.100      .042    15.600    27.800   136.800
   131.950    86.200      .042    16.100    27.500   135.900
   132.000    88.500      .041    16.800    27.200   133.200
