~Version Information
 VERS.                2.0:  CWLS LOG ASCII STANDARD -VERSION 2.0
 WRAP.                 NO:  ONE LINE PER DEPTH STEP
~WELL INFORMATION BLOCK
#MNEM.UNIT       DATA		            DESCRIPTION OF MNEMONIC
#---------    -------------            ------------------------
 STRT.M      .450                        :START DEPTH
 STOP.M   #######                        :STOP DEPTH
 STEP.M      .050                        :STEP
 NULL.    -999999.0                      :NULL VALUE
 COMP.       SCHIFOOD                    :COMPANY
 WELL.                          B62B0899 :WELL
 FLD .    Heerlen                        :FIELD
 CNTY.                                   :COUNTY
 STAT.                                   :STATE
 SRVC.                                   :SERVICE COMPANY
 DATE.     23-JAN-91                     :LOG DATE
 UWI .                                   :UNIQUE WELL ID
 LIC .                                   :LICENSE NUMBER
~Curve Information Block
#MNEM.UNIT      API CODE     Curve Description
#---------    -------------  ------------------------
DEPTH    .M         00 000 00 00          :  1  DEPTH
SN40     .OHM.M     00 000 00 00          :  2  SN40
SP       .V         00 000 00 00          :  3  SP
CAL      .MM        00 000 00 00          :  4  CAL
LN160    .OHM.M     00 000 00 00          :  5  LN160
GAMMA    .CPS       00 000 00 00          :  6  GAMMA
~Parameter Information Block
#MNEM.UNIT   Information     Description
#---------- ---------------  ------------------------
 FILE.                         :File Type
 FIID.                         :File Type Identifier
 VERS.                         :System Version
 SER .                         :System Serial Number
 TRUK.                         :Truck Calibration Number
 TOOL.                         :Tool Serial Number
 TIME.                         :Time    HrHrMinMin
 LAT .                         :Latitude
 LON .                         :Longitude
 LMF .            MV           :LOG Measured FROM
 DMF .                         :Driller Measured From
 PD  .                         :Permanent Data
 PDEV.                         :Elevation Permanent Data
 EKB .M                        :Elevation Kelly Bushing
 ELEV.DF                       :Elevation DF
 EGL .M                        :Elevation Ground Level
 DRDP.                         :Drillers Depth
 CASD.                         :Casing Diameter
 CASB.                         :Casing Bottom
 CASX.                         :Casing Type
 CAST.                         :Casing Thickness
 TNOC.                         :Time Circulation Stopped
 LOGU.                         :Logging Unit
 RECB.            Veenendaal   :Recorded By
 OSR1.                         :Other Services
 OSR2.                         :Other Services
 OSR3.                         :Other Services
 BS  .MM                       :Bit Size
 MST .                         :Mean Surface Temperature
 TGRD.                         :Temperature Gradiant
 MAGN.                         :Magnetic Declination
 MDEN.                         :Density Matrix
 MATR.                         :Neutron Matrix
 DTMT.                         :Delta T Matrix
 DTFL.                         :Delta T Fluid
 MUDS.                         :Mud Sample Source
 MRS .                         :Mud Resistivity
 MTP .                         :Mud Temperature
 MFRS.                         :Resistivity Mud Filtrate
 MFTP.                         :Temperature Mud Filtrate
 MCRS.                         :Resistivity Mud Cake
 MCTP.                         :Temperature Mud Cake
 FTYP.                         :Fluid Type
 FD  .K/M3                     :Fluid Density
 DFV .S                        :Fluid Viscosity
 FPH .                         :Fuild PH
 ELCO.                         :Electron Cutoff
~Other Information
#MNEM.UNIT  Information      Description
#---------- ---------------  ------------------------
# --------------------------
## COMMENTS    Top_Depth   Bot_Depth  LithCode  Lat    Long   Elev_Gl
##    Type of LithCode   Lithologie - 1970
##                    .00         .00         .00     
##                    .45        5.75         .00     
##                   5.80        7.15       13.00     
##                   7.20        8.50        2.00     
##                   8.55       10.20       23.00     
##                  10.25       11.30       11.00     
##                  11.35       15.15       23.00     
##                  15.20       18.40       21.00     
##                  18.45       27.30       12.00     
##                  27.35       39.00       11.00     
##                  39.05       47.15       12.00     
##                  47.20       49.00       10.00     
##                  49.05       51.00        7.00     
##                  51.05       54.00       10.00     
##                  54.05       55.80        9.00     
##                  55.85       57.00       20.00     
##                  57.05       58.00        9.00     
##                  58.05       60.00       20.00     
##                  60.05       63.20       11.00     
##                  63.25       67.00        8.00     
##                  67.05       70.20        9.00     
##                  70.25       74.00        7.00     
##                  74.05       75.70        9.00     
##                  75.75       78.00        7.00     
##                  78.05       84.00        8.00     
##                  84.05       92.00        9.00     
##                  92.05       94.10       10.00     
##                  94.15       97.50        9.00     
##                  97.55      100.55       10.00     
##                 100.60      100.60         .00     
##                 100.65      126.40     #######     
##    last_layer   126.4
# --------------------------
~A DEPTH    SN40     SP       CAL      LN160    GAMMA    
# ...
    39.700    19.600      .089   551.500    22.460    10.590
    39.750    19.500      .089   551.300    22.450    10.760
    39.800    19.380      .089   551.100    22.430    10.950
    39.850    19.240      .089   550.700    22.410    10.800
    39.900    19.100      .089   550.600    22.400    10.800
    39.950    18.960      .089   550.800    22.400    10.750
    40.000    18.800      .089   551.000    22.400    10.740
    40.050    18.620      .089   551.000    22.390    10.810
    40.100    18.450      .089   550.300    22.390    11.160
    40.150    18.300      .089   549.800    22.390    11.810
    40.200    18.200      .089   548.200    22.390    11.970
    40.250    18.130      .089   544.600    22.390    11.910
    40.300    18.060      .089   541.300    22.400    11.970
    40.350    17.970      .089   543.800    22.400    12.150
    40.400    17.920      .089   544.800    22.390    12.040
    40.450    17.900      .089   542.800    22.380    11.690
    40.500    17.880      .089   540.300    22.350    11.340
    40.550    17.880      .089   545.400    22.330    11.480
    40.600    17.880      .089   545.600    22.310    11.960
    40.650    17.890      .089   541.100    22.280    12.410
    40.700    17.890      .089   536.700    22.250    12.610
    40.750    17.900      .089   539.500    22.220    12.790
    40.800    17.910      .089   546.500    22.190    12.930
    40.850    17.930      .088   554.100    22.150    13.060
    40.900    17.950      .088   552.300    22.110    13.230
    40.950    17.980      .088   551.900    22.070    13.040
    41.000    18.000      .088   551.000    22.030    13.040
    41.050    18.090      .088   548.600    21.980    13.070
    41.100    18.170      .088   548.100    21.920    13.050
    41.150    18.230      .088   547.400    21.870    12.800
    41.200    18.260      .088   546.900    21.810    12.580
    41.250    18.280      .088   547.500    21.750    12.360
    41.300    18.250      .087   552.900    21.700    12.140
    41.350    18.220      .087   555.800    21.660    12.160
    41.400    18.210      .087   554.500    21.630    12.470
    41.450    18.240      .087   553.500    21.610    12.730
    41.500    18.300      .087   553.600    21.600    12.370
    41.550    18.380      .087   554.100    21.610    12.370
    41.600    18.480      .087   555.200    21.610    12.370
    41.650    18.570      .087   556.700    21.630    12.250
    41.700    18.680      .087   557.800    21.650    12.220
    41.750    18.790      .087   558.500    21.680    12.340
    41.800    18.890      .086   561.600    21.700    12.320
    41.850    18.950      .086   564.700    21.720    11.860
    41.900    19.000      .086   565.800    21.750    11.450
    41.950    19.010      .086   566.100    21.780    11.030
    42.000    18.980      .086   565.700    21.810    10.840
    42.050    18.910      .086   563.900    21.860    10.840
    42.100    18.800      .086   562.100    21.910    10.770
    42.150    18.680      .086   560.400    21.980    10.560
    42.200    18.490      .086   559.200    22.050    10.600
    42.250    18.310      .086   558.600    22.140    10.680
    42.300    18.120      .086   558.600    22.210    10.760
    42.350    17.980      .086   557.600    22.290    10.790
    42.400    17.910      .086   554.300    22.380    10.850
    42.450    17.870      .086   552.100    22.460    10.970
    42.500    17.840      .086   551.700    22.510    11.180
    42.550    17.810      .086   553.000    22.560    11.570
    42.600    17.790      .086   552.500    22.610    11.860
    42.650    17.780      .086   552.600    22.650    12.150
    42.700    17.770      .087   554.600    22.680    12.030
    42.750    17.750      .087   558.000    22.710    11.910
    42.800    17.750      .087   558.800    22.730    12.130
    42.850    17.790      .087   559.800    22.730    12.320
    42.900    17.830      .087   561.200    22.740    12.190
    42.950    17.880      .087   557.700    22.750    12.140
    43.000    17.940      .088   554.200    22.760    12.200
    43.050    18.030      .088   550.400    22.770    12.570
    43.100    18.130      .088   545.500    22.780    12.710
    43.150    18.350      .088   545.900    22.790    12.830
    43.200    18.480      .088   548.900    22.820    12.840
    43.250    18.620      .088   552.500    22.850    12.220
    43.300    18.730      .088   552.400    22.880    11.760
    43.350    18.870      .088   553.000    22.900    11.690
    43.400    19.000      .089   557.700    22.930    11.550
    43.450    19.100      .089   563.100    22.960    11.610
    43.500    19.200      .089   565.300    23.000    11.770
    43.550    19.290      .090   566.800    23.040    11.750
    43.600    19.360      .090   567.200    23.090    11.730
    43.650    19.440      .091   566.600    23.150    11.800
    43.700    19.520      .092   559.600    23.210    11.820
    43.750    19.590      .092   554.100    23.280    11.700
    43.800    19.680      .092   552.700    23.360    11.500
    43.850    19.750      .092   553.400    23.460    11.630
    43.900    19.800      .092   555.500    23.540    11.530
    43.950    19.890      .092   557.700    23.610    11.440
    44.000    19.940      .091   559.900    23.670    11.480
    44.050    19.970      .091   561.800    23.780    11.640
    44.100    19.980      .091   564.800    23.860    11.930
    44.150    20.000      .091   562.100    23.960    12.190
    44.200    20.010      .091   561.300    24.060    12.220
    44.250    20.020      .091   560.500    24.160    11.910
    44.300    20.030      .090   558.100    24.260    12.010
    44.350    20.040      .090   557.200    24.360    12.210
    44.400    20.040      .090   557.300    24.460    12.350
    44.450    20.040      .090   559.300    24.580    12.290
    44.500    20.070      .090   561.700    24.710    11.900
    44.550    20.090      .089   563.900    24.810    11.770
    44.600    20.130      .088   563.100    24.940    11.360
    44.650    20.170      .086   560.800    25.040    11.090
    44.700    20.210      .085   559.900    25.140    11.080
    44.750    20.240      .084   556.000    25.200    11.260
    44.800    20.270      .082   553.200    25.250    11.050
    44.850    20.310      .081   552.700    25.290    11.070
    44.900    20.350      .081   553.100    25.330    11.220
    44.950    20.420      .080   555.900    25.380    11.400
    45.000    20.500      .080   556.800    25.430    11.540
    45.050    20.550      .080   556.400    25.490    11.780
    45.100    20.670      .080   557.600    25.580    11.940
    45.150    20.780      .080   558.600    25.660    12.340
    45.200    20.850      .080   559.500    25.750    13.160
    45.250    20.960      .080   561.600    25.850    13.620
    45.300    21.040      .079   564.900    25.950    13.200
    45.350    21.090      .079   565.500    26.070    12.820
    45.400    21.130      .079   566.000    26.200    12.540
    45.450    21.150      .079   567.400    26.350    11.760
    45.500    21.160      .079   569.200    26.530    11.810
    45.550    21.150      .079   567.100    26.690    12.020
    45.600    21.130      .079   565.100    26.830    12.250
    45.650    21.140      .079   563.400    26.980    12.240
    45.700    21.150      .079   563.900    27.130    12.140
    45.750    21.160      .078   563.300    27.310    12.190
    45.800    21.190      .078   560.600    27.460    12.250
    45.850    21.210      .078   560.000    27.620    12.220
    45.900    21.260      .078   560.500    27.760    12.040
    45.950    21.360      .077   562.800    27.950    11.710
    46.000    21.500      .077   564.500    28.130    11.380
    46.050    21.660      .077   565.600    28.310    10.980
    46.100    21.880      .076   562.200    28.500    10.860
    46.150    22.110      .076   558.400    28.680    11.180
    46.200    22.300      .076   561.000    28.870    11.500
    46.250    22.550      .076   563.700    29.020    11.820
