~Version Information
 VERS.                2.0:  CWLS LOG ASCII STANDARD -VERSION 2.0
 WRAP.                 NO:  ONE LINE PER DEPTH STEP
~WELL INFORMATION BLOCK
#MNEM.UNIT       DATA		            DESCRIPTION OF MNEMONIC
#---------    -------------            ------------------------
 STRT.M      .000                        :START DEPTH
 STOP.M    79.950                        :STOP DEPTH
 STEP.M      .050                        :STEP
 NULL.    -999999.0                      :NULL VALUE
 COMP.       WML                         :COMPANY
 WELL.                          B62B0898 :WELL
 FLD .    Voerendaal                     :FIELD
 CNTY.                                   :COUNTY
 STAT.                                   :STATE
 SRVC.                                   :SERVICE COMPANY
 DATE.     17-NOV-90                     :LOG DATE
 UWI .                                   :UNIQUE WELL ID
 LIC .                                   :LICENSE NUMBER
~Curve Information Block
#MNEM.UNIT      API CODE     Curve Description
#---------    -------------  ------------------------
DEPTH    .M         00 000 00 00          :  1  DEPTH
UFLOW    .M/S       00 000 00 00          :  2  UFLOW
TEMP     .DEGC      00 000 00 00          :  3  TEMP
SN40     .OHM.M     00 000 00 00          :  4  SN40
SP       .V         00 000 00 00          :  5  SP
CAL      .MM        00 000 00 00          :  6  CAL
TEMP     .DEGC      00 000 00 00          :  7  TEMP
GAMMA    .CPS       00 000 00 00          :  8  GAMMA
LN160    .OHM.M     00 000 00 00          :  9  LN160
~Parameter Information Block
#MNEM.UNIT   Information     Description
#---------- ---------------  ------------------------
 FILE.                         :File Type
 FIID.                         :File Type Identifier
 VERS.                         :System Version
 SER .                         :System Serial Number
 TRUK.                         :Truck Calibration Number
 TOOL.                         :Tool Serial Number
 TIME.                         :Time    HrHrMinMin
 LAT .                         :Latitude
 LON .                         :Longitude
 LMF .            MV           :LOG Measured FROM
 DMF .                         :Driller Measured From
 PD  .                         :Permanent Data
 PDEV.                         :Elevation Permanent Data
 EKB .M                        :Elevation Kelly Bushing
 ELEV.DF                       :Elevation DF
 EGL .M                        :Elevation Ground Level
 DRDP.                         :Drillers Depth
 CASD.                         :Casing Diameter
 CASB.                         :Casing Bottom
 CASX.                         :Casing Type
 CAST.                         :Casing Thickness
 TNOC.                         :Time Circulation Stopped
 LOGU.                         :Logging Unit
 RECB.            Veenendaal   :Recorded By
 OSR1.                         :Other Services
 OSR2.                         :Other Services
 OSR3.                         :Other Services
 BS  .MM                       :Bit Size
 MST .                         :Mean Surface Temperature
 TGRD.                         :Temperature Gradiant
 MAGN.                         :Magnetic Declination
 MDEN.                         :Density Matrix
 MATR.                         :Neutron Matrix
 DTMT.                         :Delta T Matrix
 DTFL.                         :Delta T Fluid
 MUDS.                         :Mud Sample Source
 MRS .                         :Mud Resistivity
 MTP .                         :Mud Temperature
 MFRS.                         :Resistivity Mud Filtrate
 MFTP.                         :Temperature Mud Filtrate
 MCRS.                         :Resistivity Mud Cake
 MCTP.                         :Temperature Mud Cake
 FTYP.                         :Fluid Type
 FD  .K/M3                     :Fluid Density
 DFV .S                        :Fluid Viscosity
 FPH .                         :Fuild PH
 ELCO.                         :Electron Cutoff
~Other Information
#MNEM.UNIT  Information      Description
#---------- ---------------  ------------------------
# --------------------------
## COMMENTS    Top_Depth   Bot_Depth  LithCode  Lat    Long   Elev_Gl
##    Type of LithCode   Lithologie - 1970
##                    .00         .80         .00     
##                    .85        2.25       19.00     
##                   2.30        6.15       12.00     
##                   6.20       28.50        7.00     
##                  28.55       40.50        9.00     
##                  40.55       74.60         .00     
##                  74.65       78.00       10.00     
##                  78.05       78.05         .00     
##    last_layer   78.05
# --------------------------
~A DEPTH    UFLOW    TEMP     SN40     SP       CAL      TEMP     GAMMA    LN160    
# ...
    69.100    22.130    11.150    52.410      .057   564.500    11.510     5.690    69.870
    69.150    22.160    11.160    52.310      .057   569.500    11.510     5.700    70.090
    69.200    22.150    11.160    52.190      .057   566.100    11.510     5.700    70.410
    69.250    22.100    11.160    52.000      .056   562.200    11.510     5.680    70.560
    69.300    22.040    11.160    51.830      .056   559.300    11.510     5.620    70.710
    69.350    21.940    11.160    51.580      .055   557.600    11.510     5.530    70.890
    69.400    21.830    11.160    51.300      .055   561.500    11.510     5.470    70.980
    69.450    21.710    11.160    50.770      .054   563.600    11.510     5.450    71.000
    69.500    21.590    11.160    50.330      .054   563.900    11.510     5.450    70.980
    69.550    21.490    11.160    49.820      .053   561.500    11.510     5.470    70.830
    69.600    21.450    11.160    49.590      .053   558.500    11.510     5.470    70.720
    69.650    21.430    11.160    49.490      .052   557.900    11.510     5.480    70.610
    69.700    21.540    11.160    49.540      .052   555.800    11.510     5.490    70.520
    69.750    21.640    11.160    49.670      .052   546.900    11.510     5.560    70.490
    69.800    21.720    11.170    49.810      .052   542.400    11.510     5.640    70.430
    69.850    21.740    11.170    50.000      .052   541.200    11.510     5.750    70.340
    69.900    21.700    11.170    50.250      .052   542.100    11.510     5.890    70.250
    69.950    21.600    11.180    50.540      .052   543.300    11.510     5.970    70.120
    70.000    21.430    11.180    50.870      .052   543.900    11.510     5.970    69.990
    70.050    21.310    11.180    51.030      .052   544.000    11.510     5.950    69.880
    70.100    21.200    11.180    51.150      .052   541.100    11.510     5.970    69.690
    70.150    21.140    11.180    51.220      .052   540.900    11.510     5.940    69.470
    70.200    21.260    11.180    51.190      .052   541.300    11.510     5.880    69.240
    70.250    21.390    11.180    51.260      .052   542.000    11.510     5.810    69.030
    70.300    21.620    11.180    51.490      .052   542.300    11.510     5.760    68.840
    70.350    21.890    11.180    51.850      .052   542.500    11.510     5.750    68.680
    70.400    22.340    11.180    52.070      .052   543.500    11.510     5.830    68.560
    70.450    22.910    11.190    52.370      .052   544.600    11.510     5.980    68.490
    70.500    23.280    11.190    52.700      .052   546.900    11.510     6.010    68.430
    70.550    23.660    11.200    52.790      .053   548.300    11.510     5.980    68.390
    70.600    23.920    11.200    52.830      .053   548.100    11.510     5.930    68.410
    70.650    24.040    11.210    52.810      .053   546.400    11.500     5.780    68.440
    70.700    24.090    11.210    52.560      .053   546.600    11.500     5.730    68.520
    70.750    24.070    11.220    52.220      .053   549.900    11.500     5.700    68.620
    70.800    23.980    11.220    52.070      .052   552.800    11.500     5.720    68.750
    70.850    23.870    11.220    52.040      .052   554.500    11.500     5.720    68.870
    70.900    23.740    11.220    52.070      .052   553.600    11.500     5.660    69.040
    70.950    23.610    11.220    52.210      .052   549.400    11.500     5.440    69.280
    71.000    23.430    11.220    52.450      .052   545.200    11.500     5.290    69.440
    71.050    23.220    11.220    52.660      .051   543.200    11.500     5.210    69.670
    71.100    22.570    11.220    52.840      .050   544.000    11.500     5.160    69.900
    71.150    22.150    11.230    52.950      .049   545.700    11.500     5.030    70.130
    71.200    21.470    11.230    52.950      .049   548.100    11.500     4.830    70.330
    71.250    20.740    11.230    52.930      .048   550.300    11.500     4.780    70.460
    71.300    20.490    11.240    52.910      .048   551.300    11.510     4.740    70.460
    71.350    20.060    11.250    52.950      .048   551.400    11.510     4.710    70.330
    71.400    19.850    11.250    53.000      .047   552.400    11.510     4.870    70.100
    71.450    19.890    11.260    53.050      .044   553.000    11.510     5.030    69.780
    71.500    20.180    11.270    53.090      .039   552.100    11.510     5.240    69.600
    71.550    20.400    11.280    53.220      .034   546.600    11.520     5.390    69.450
    71.600    21.620    11.290    53.360      .029   546.600    11.520     5.480    69.360
    71.650    22.830    11.300    53.590      .022   548.400    11.520     5.520    69.280
    71.700    23.860    11.310    53.830      .019   545.100    11.520     5.540    69.230
    71.750    24.670    11.310    54.190      .016   531.200    11.520     5.520    69.170
    71.800    25.170    11.320    54.380      .014   531.400    11.530     5.480    69.120
    71.850    25.630    11.330    54.540      .013   534.600    11.530     5.450    69.060
    71.900    25.990    11.330    54.470      .012   539.200    11.530     5.460    69.020
    71.950    26.210    11.340    54.270      .011   541.700    11.530     5.520    68.950
    72.000    26.460    11.340    54.060      .010   543.100    11.530     5.580    68.840
    72.050    27.000    11.340    53.590      .009   544.700    11.540     5.720    68.690
    72.100    27.310    11.340    53.390      .009   547.600    11.540     5.770    68.480
    72.150    27.710    11.340    53.280      .009   547.900    11.540     5.730    68.020
    72.200    28.000    11.340    53.560      .009   548.800    11.560     5.620    67.740
    72.250    28.420    11.350    53.930      .011   551.300    11.580     5.430    67.070
    72.300    28.700    11.350    54.290      .012   554.900    11.610     5.390    66.150
    72.350    29.020    11.350    55.040      .013   555.600    11.630     5.390    65.120
    72.400    29.350    11.350    55.480      .014   554.100    11.650     5.470    64.570
    72.450    30.230    11.350    55.510      .015   544.600    11.670     5.560    64.150
    72.500    31.330    11.350    55.350      .015   544.800    11.700     5.670    63.580
    72.550    32.250    11.360    55.230      .016   547.600    11.720     5.760    63.220
    72.600    32.910    11.360    55.120      .016   549.100    11.740     5.860    63.000
    72.650    33.260    11.370    55.030      .015   551.800    11.760     5.980    62.880
    72.700    33.380    11.370    54.970      .014   548.800    11.790     6.100    62.880
    72.750    33.420    11.380    54.920      .014   548.000    11.810     6.260    62.970
    72.800    33.430    11.380    54.810      .013   550.300    11.830     6.300    63.120
    72.850    33.470    11.380    54.410      .013   552.700    11.850     6.310    63.350
    72.900    33.550    11.390    53.980      .013   552.200    11.880     6.170    63.550
    72.950    33.660    11.390    53.440      .013   546.200    11.900     6.130    63.680
    73.000    33.860    11.390    52.790      .013   544.900    11.920     6.120    63.780
    73.050    34.240    11.390    52.180      .013   543.800    11.940     6.060    63.820
    73.100    35.110    11.390    51.780      .013   544.500    11.960     5.950    63.760
    73.150    36.890    11.400    51.310      .013   545.400    11.990     5.830    63.640
    73.200    38.680    11.390    50.810      .013   544.600    11.990     5.720    63.480
    73.250    40.470    11.390    50.320      .013   539.800    11.990     5.780    63.210
    73.300    42.250    11.390    49.910      .013   534.800    11.990     5.800    62.860
    73.350    44.040    11.390    49.710      .013   529.100    11.990     5.820    62.310
    73.400    46.220    11.390    49.540      .013   526.400    11.990     5.890    61.940
    73.450    48.570    11.390    49.500      .013   521.100    11.990     6.060    61.400
