~Version Information
 VERS.                2.0:  CWLS LOG ASCII STANDARD -VERSION 2.0
 WRAP.                 NO:  ONE LINE PER DEPTH STEP
~WELL INFORMATION BLOCK
#MNEM.UNIT       DATA		            DESCRIPTION OF MNEMONIC
#---------    -------------            ------------------------
 STRT.M      .000                        :START DEPTH
 STOP.M   #######                        :STOP DEPTH
 STEP.M      .050                        :STEP
 NULL.    -999999.0                      :NULL VALUE
 COMP.       SCHIFOOD                    :COMPANY
 WELL.                          B62B0896 :WELL
 FLD .    Hoensbroek                     :FIELD
 CNTY.                                   :COUNTY
 STAT.                                   :STATE
 SRVC.                                   :SERVICE COMPANY
 DATE.     17-JUL-90                     :LOG DATE
 UWI .                                   :UNIQUE WELL ID
 LIC .                                   :LICENSE NUMBER
~Curve Information Block
#MNEM.UNIT      API CODE     Curve Description
#---------    -------------  ------------------------
DEPTH    .M         00 000 00 00          :  1  DEPTH
SN40     .OHM.M     00 000 00 00          :  2  SN40
SP       .V         00 000 00 00          :  3  SP
CAL      .MM        00 000 00 00          :  4  CAL
LN160    .OHM.M     00 000 00 00          :  5  LN160
GAMMA    .CPS       00 000 00 00          :  6  GAMMA
~Parameter Information Block
#MNEM.UNIT   Information     Description
#---------- ---------------  ------------------------
 FILE.                         :File Type
 FIID.                         :File Type Identifier
 VERS.                         :System Version
 SER .                         :System Serial Number
 TRUK.                         :Truck Calibration Number
 TOOL.                         :Tool Serial Number
 TIME.                         :Time    HrHrMinMin
 LAT .                         :Latitude
 LON .                         :Longitude
 LMF .            MV           :LOG Measured FROM
 DMF .                         :Driller Measured From
 PD  .                         :Permanent Data
 PDEV.                         :Elevation Permanent Data
 EKB .M                        :Elevation Kelly Bushing
 ELEV.DF                       :Elevation DF
 EGL .M                        :Elevation Ground Level
 DRDP.                         :Drillers Depth
 CASD.                         :Casing Diameter
 CASB.                         :Casing Bottom
 CASX.                         :Casing Type
 CAST.                         :Casing Thickness
 TNOC.                         :Time Circulation Stopped
 LOGU.                         :Logging Unit
 RECB.            Bergsma      :Recorded By
 OSR1.                         :Other Services
 OSR2.                         :Other Services
 OSR3.                         :Other Services
 BS  .MM                       :Bit Size
 MST .                         :Mean Surface Temperature
 TGRD.                         :Temperature Gradiant
 MAGN.                         :Magnetic Declination
 MDEN.                         :Density Matrix
 MATR.                         :Neutron Matrix
 DTMT.                         :Delta T Matrix
 DTFL.                         :Delta T Fluid
 MUDS.                         :Mud Sample Source
 MRS .            6            :Mud Resistivity
 MTP .            19           :Mud Temperature
 MFRS.                         :Resistivity Mud Filtrate
 MFTP.                         :Temperature Mud Filtrate
 MCRS.                         :Resistivity Mud Cake
 MCTP.                         :Temperature Mud Cake
 FTYP.                         :Fluid Type
 FD  .K/M3                     :Fluid Density
 DFV .S                        :Fluid Viscosity
 FPH .                         :Fuild PH
 ELCO.                         :Electron Cutoff
~Other Information
#MNEM.UNIT  Information      Description
#---------- ---------------  ------------------------
# --------------------------
## COMMENTS    Top_Depth   Bot_Depth  LithCode  Lat    Long   Elev_Gl
##    Type of LithCode   Lithologie - 1970
##                    .00        6.00         .00     
##                   6.05        8.00        2.00     
##                   8.05       11.50       22.00     
##                  11.55       15.20       23.00     
##                  15.25       19.00       22.00     
##                  19.05       20.25       11.00     
##                  20.30       22.10       12.00     
##                  22.15       23.70       11.00     
##                  23.75       25.15       12.00     
##                  25.20       26.10       11.00     
##                  26.15       27.20       12.00     
##                  27.25       35.00       11.00     
##                  35.05       47.55       12.00     
##                  47.60       51.00        7.00     
##                  51.05       52.25       11.00     
##                  52.30       54.00        7.00     
##                  54.05       55.10       11.00     
##                  55.15       58.00       12.00     
##                  58.05       62.60       11.00     
##                  62.65       67.20        8.00     
##                  67.25       70.05        9.00     
##                  70.10       74.00        7.00     
##                  74.05       75.40        8.00     
##                  75.45       80.00        7.00     
##                  80.05       92.40        9.00     
##                  92.45       94.50       10.00     
##                  94.55       96.90        8.00     
##                  96.95       99.30       10.00     
##                  99.35       99.35         .00     
##    last_layer   99.35
# --------------------------
~A DEPTH    SN40     SP       CAL      LN160    GAMMA    
# ...
   105.400    55.160      .071   459.000    83.250    19.910
   105.450    54.850      .071   458.900    82.990    19.830
   105.500    54.630      .071   458.900    82.750    19.750
   105.550    54.440      .071   458.800    82.550    19.690
   105.600    54.220      .071   458.800    82.270    19.650
   105.650    53.980      .071   458.800    82.050    19.670
   105.700    53.690      .071   458.700    81.720    19.680
   105.750    53.390      .072   458.700    81.510    19.760
   105.800    53.100      .072   458.700    81.250    19.830
   105.850    52.830      .072   458.600    81.030    19.900
   105.900    52.520      .072   458.600    80.730    19.910
   105.950    52.250      .072   458.500    80.320    19.880
   106.000    51.790      .072   458.500    80.040    19.800
   106.050    51.480      .072   458.500    79.820    19.570
   106.100    51.170      .072   458.400    79.580    19.400
   106.150    51.000      .072   458.400    79.380    19.260
   106.200    50.620      .072   458.300    79.150    19.170
   106.250    50.120      .072   458.300    78.900    19.110
   106.300    49.670      .072   458.300    78.760    19.080
   106.350    49.210      .072   458.200    78.640    19.060
   106.400    48.930      .072   458.200    78.560    19.070
   106.450    48.850      .072   458.200    78.500    19.090
   106.500    48.800      .072   458.100    78.420    19.140
   106.550    48.740      .072   458.100    78.280    19.190
   106.600    48.620      .072   458.000    78.140    19.250
   106.650    48.500      .073   458.000    78.000    19.280
   106.700    48.320      .073   458.000    77.790    19.320
   106.750    48.200      .073   457.900    77.590    19.320
   106.800    48.130      .073   457.900    77.510    19.300
   106.850    48.100      .073   457.900    77.480    19.260
   106.900    48.090      .073   457.800    77.450    19.130
   106.950    48.080      .073   457.800    77.500    19.010
   107.000    48.100      .073   457.700    77.600    18.850
   107.050    48.120      .073   457.700    77.690    18.730
   107.100    48.170      .073   457.700    77.820    18.640
   107.150    48.220      .073   457.600    77.870    18.580
   107.200    48.300      .073   457.600    77.860    18.550
   107.250    48.380      .072   457.500    77.810    18.520
   107.300    48.470      .072   457.500    77.720    18.520
   107.350    48.560      .072   457.500    77.580    18.540
   107.400    48.780      .072   457.400    77.350    18.590
   107.450    49.000      .071   457.400    77.030    18.630
   107.500    49.230      .071   457.400    76.900    18.670
   107.550    49.540      .070   457.300    76.830    18.700
   107.600    49.810      .070   457.300    76.760    18.720
   107.650    50.210      .069   457.200    76.720    18.730
   107.700    50.540      .069   457.200    76.690    18.730
   107.750    50.910      .069   457.200    76.670    18.730
   107.800    51.120      .069   457.100    76.650    18.700
   107.850    51.160      .069   457.100    76.660    18.680
   107.900    51.150      .069   457.000    76.690    18.670
   107.950    51.110      .069   457.000    76.720    18.670
   108.000    51.040      .069   457.000    76.760    18.700
   108.050    51.010      .068   456.900    76.800    18.740
   108.100    51.000      .068   456.900    76.840    18.850
   108.150    51.050      .068   456.900    76.880    18.940
   108.200    51.110      .068   456.800    76.930    19.130
   108.250    51.170      .068   456.800    76.980    19.240
   108.300    51.200      .068   456.700    77.040    19.350
   108.350    51.170      .068   456.700    77.090    19.370
   108.400    51.130      .068   456.700    77.140    19.360
   108.450    51.060      .068   456.600    77.180    19.320
   108.500    50.940      .068   456.600    77.200    19.240
   108.550    50.800      .068   456.500    77.200    19.150
   108.600    50.600      .068   456.500    77.180    18.980
   108.650    50.440      .067   456.500    77.130    18.850
   108.700    50.250      .067   456.400    77.070    18.630
   108.750    50.160      .067   456.400    77.010    18.560
   108.800    50.100      .067   456.400    76.930    18.550
   108.850    50.070      .067   456.300    76.860    18.560
   108.900    50.090      .067   456.300    76.730    18.650
   108.950    50.130      .067   456.200    76.610    18.730
   109.000    50.190      .067   456.200    76.500    18.740
   109.050    50.240      .067   456.200    76.360    18.720
   109.100    50.250      .067   456.100    76.200    18.690
   109.150    50.210      .068   456.100    76.040    18.660
   109.200    50.140      .068   456.100    75.880    18.630
   109.250    50.050      .068   456.000    75.720    18.620
   109.300    49.880      .068   456.000    75.570    18.620
   109.350    49.520      .068   455.900    75.410    18.620
   109.400    49.280      .068   455.900    75.250    18.680
   109.450    48.840      .068   455.900    75.090    18.780
   109.500    48.670      .068   455.800    74.740    18.920
   109.550    48.490      .068   455.800    74.310    19.020
   109.600    48.390      .068   455.700    73.870    19.020
   109.650    48.310      .069   455.700    73.440    18.930
   109.700    48.260      .069   455.700    73.010    18.780
   109.750    48.190      .069   455.600    72.740    18.640
   109.800    48.130      .069   455.600    72.520    18.440
   109.850    48.090      .069   455.600    72.310    18.470
   109.900    47.990      .069   455.500    72.040    18.470
   109.950    47.710      .070   455.500    71.700    18.410
   110.000    47.450      .070   455.400    71.360    18.180
   110.050    47.200      .070   455.400    71.020    17.990
   110.100    46.960      .070   455.400    70.680    17.790
   110.150    46.680      .071   455.300    70.340    17.630
   110.200    46.440      .071   455.300    70.000    17.320
   110.250    46.220      .071   455.300    69.580    17.250
   110.300    46.180      .071   455.200    69.060    17.280
   110.350    46.170      .071   455.200    68.540    17.300
   110.400    46.160      .072   455.200    68.020    17.230
   110.450    46.090      .072   455.200    67.510    17.250
   110.500    45.930      .072   455.200    66.990    17.280
   110.550    45.800      .073   455.200    66.450    17.310
   110.600    45.490      .073   455.200    65.900    17.290
   110.650    45.150      .073   454.900    65.340    17.230
   110.700    44.910      .073   454.700    64.780    17.180
   110.750    44.600      .073   454.400    64.220    17.170
   110.800    44.210      .073   454.100    63.670    17.210
   110.850    43.870      .073   453.700    63.210    17.310
   110.900    43.550      .073   453.700    62.960    17.460
   110.950    43.230      .073   453.800    62.780    17.610
   111.000    42.890      .073   453.800    62.620    17.730
   111.050    42.530      .073   453.300    62.540    17.840
   111.100    42.240      .074   452.500    62.510    17.880
   111.150    41.950      .074   451.800    62.540    17.920
   111.200    41.660      .074   451.000    62.610    17.940
   111.250    41.370      .074   450.800    62.710    17.930
   111.300    41.080      .074   450.600    62.820    17.870
   111.350    40.750      .074   450.600    62.970    17.770
   111.400    40.310      .075   450.700    63.150    17.700
   111.450    39.870      .075   451.000    63.350    17.640
   111.500    39.430      .075   451.600    63.510    17.620
   111.550    39.040      .075   452.500    63.730    17.680
   111.600    38.720      .075   452.800    63.910    17.770
   111.650    38.330      .076   453.000    64.030    17.840
   111.700    38.150      .076   452.800    64.110    17.850
   111.750    38.100      .076   452.200    64.180    17.900
   111.800    38.150      .076   451.400    64.200    17.960
   111.850    38.220      .076   450.900    64.200    17.940
   111.900    38.320      .076   450.500    64.180    17.860
   111.950    38.410      .075   450.100    64.140    17.750
