~Version Information
 VERS.                2.0:  CWLS LOG ASCII STANDARD -VERSION 2.0
 WRAP.                 NO:  ONE LINE PER DEPTH STEP
~WELL INFORMATION BLOCK
#MNEM.UNIT       DATA		            DESCRIPTION OF MNEMONIC
#---------    -------------            ------------------------
 STRT.M      .000                        :START DEPTH
 STOP.M   #######                        :STOP DEPTH
 STEP.M      .050                        :STEP
 NULL.    -999999.0                      :NULL VALUE
 COMP.       SCHIFOOD                    :COMPANY
 WELL.                          B62B0896 :WELL
 FLD .    Hoensbroek                     :FIELD
 CNTY.                                   :COUNTY
 STAT.                                   :STATE
 SRVC.                                   :SERVICE COMPANY
 DATE.     17-JUL-90                     :LOG DATE
 UWI .                                   :UNIQUE WELL ID
 LIC .                                   :LICENSE NUMBER
~Curve Information Block
#MNEM.UNIT      API CODE     Curve Description
#---------    -------------  ------------------------
DEPTH    .M         00 000 00 00          :  1  DEPTH
SN40     .OHM.M     00 000 00 00          :  2  SN40
SP       .V         00 000 00 00          :  3  SP
CAL      .MM        00 000 00 00          :  4  CAL
LN160    .OHM.M     00 000 00 00          :  5  LN160
GAMMA    .CPS       00 000 00 00          :  6  GAMMA
~Parameter Information Block
#MNEM.UNIT   Information     Description
#---------- ---------------  ------------------------
 FILE.                         :File Type
 FIID.                         :File Type Identifier
 VERS.                         :System Version
 SER .                         :System Serial Number
 TRUK.                         :Truck Calibration Number
 TOOL.                         :Tool Serial Number
 TIME.                         :Time    HrHrMinMin
 LAT .                         :Latitude
 LON .                         :Longitude
 LMF .            MV           :LOG Measured FROM
 DMF .                         :Driller Measured From
 PD  .                         :Permanent Data
 PDEV.                         :Elevation Permanent Data
 EKB .M                        :Elevation Kelly Bushing
 ELEV.DF                       :Elevation DF
 EGL .M                        :Elevation Ground Level
 DRDP.                         :Drillers Depth
 CASD.                         :Casing Diameter
 CASB.                         :Casing Bottom
 CASX.                         :Casing Type
 CAST.                         :Casing Thickness
 TNOC.                         :Time Circulation Stopped
 LOGU.                         :Logging Unit
 RECB.            Bergsma      :Recorded By
 OSR1.                         :Other Services
 OSR2.                         :Other Services
 OSR3.                         :Other Services
 BS  .MM                       :Bit Size
 MST .                         :Mean Surface Temperature
 TGRD.                         :Temperature Gradiant
 MAGN.                         :Magnetic Declination
 MDEN.                         :Density Matrix
 MATR.                         :Neutron Matrix
 DTMT.                         :Delta T Matrix
 DTFL.                         :Delta T Fluid
 MUDS.                         :Mud Sample Source
 MRS .            6            :Mud Resistivity
 MTP .            19           :Mud Temperature
 MFRS.                         :Resistivity Mud Filtrate
 MFTP.                         :Temperature Mud Filtrate
 MCRS.                         :Resistivity Mud Cake
 MCTP.                         :Temperature Mud Cake
 FTYP.                         :Fluid Type
 FD  .K/M3                     :Fluid Density
 DFV .S                        :Fluid Viscosity
 FPH .                         :Fuild PH
 ELCO.                         :Electron Cutoff
~Other Information
#MNEM.UNIT  Information      Description
#---------- ---------------  ------------------------
# --------------------------
## COMMENTS    Top_Depth   Bot_Depth  LithCode  Lat    Long   Elev_Gl
##    Type of LithCode   Lithologie - 1970
##                    .00        6.00         .00     
##                   6.05        8.00        2.00     
##                   8.05       11.50       22.00     
##                  11.55       15.20       23.00     
##                  15.25       19.00       22.00     
##                  19.05       20.25       11.00     
##                  20.30       22.10       12.00     
##                  22.15       23.70       11.00     
##                  23.75       25.15       12.00     
##                  25.20       26.10       11.00     
##                  26.15       27.20       12.00     
##                  27.25       35.00       11.00     
##                  35.05       47.55       12.00     
##                  47.60       51.00        7.00     
##                  51.05       52.25       11.00     
##                  52.30       54.00        7.00     
##                  54.05       55.10       11.00     
##                  55.15       58.00       12.00     
##                  58.05       62.60       11.00     
##                  62.65       67.20        8.00     
##                  67.25       70.05        9.00     
##                  70.10       74.00        7.00     
##                  74.05       75.40        8.00     
##                  75.45       80.00        7.00     
##                  80.05       92.40        9.00     
##                  92.45       94.50       10.00     
##                  94.55       96.90        8.00     
##                  96.95       99.30       10.00     
##                  99.35       99.35         .00     
##    last_layer   99.35
# --------------------------
~A DEPTH    SN40     SP       CAL      LN160    GAMMA    
# ...
   118.600    41.090      .064   449.600    59.020    15.890
   118.650    41.050      .064   449.700    58.700    15.860
   118.700    40.890      .064   449.700    58.130    15.800
   118.750    40.780      .064   449.700    57.750    15.820
   118.800    40.740      .064   449.700    57.540    15.870
   118.850    40.740      .064   449.700    57.320    15.880
   118.900    40.750      .064   449.700    57.200    15.850
   118.950    40.770      .064   449.700    57.090    15.810
   119.000    40.790      .064   449.700    57.000    16.160
   119.050    40.780      .064   449.700    56.910    16.350
   119.100    40.730      .064   449.600    56.820    16.560
   119.150    40.650      .064   449.500    56.720    16.750
   119.200    40.560      .064   449.300    56.650    17.070
   119.250    40.480      .064   449.000    56.570    17.050
   119.300    40.420      .064   448.300    56.480    17.040
   119.350    40.400      .064   447.400    56.410    17.080
   119.400    40.420      .064   446.900    56.330    17.280
   119.450    40.450      .064   446.500    56.250    17.320
   119.500    40.500      .064   446.500    56.160    17.300
   119.550    40.550      .064   446.800    56.070    17.250
   119.600    40.610      .064   446.800    55.980    17.170
   119.650    40.670      .064   446.700    55.910    16.960
   119.700    40.730      .064   446.400    55.800    16.670
   119.750    40.780      .064   446.000    55.690    16.450
   119.800    40.840      .064   445.800    55.580    16.330
   119.850    40.850      .064   445.600    55.450    16.260
   119.900    40.830      .064   445.700    55.320    16.210
   119.950    40.800      .064   446.100    55.170    16.150
   120.000    40.730      .064   446.500    55.090    16.070
   120.050    40.640      .064   446.800    55.080    15.780
   120.100    40.520      .064   447.100    55.130    15.560
   120.150    40.390      .064   447.400    55.190    15.400
   120.200    40.280      .064   447.600    55.250    15.250
   120.250    39.950      .064   447.400    55.330    15.180
   120.300    39.750      .064   446.500    55.380    15.150
   120.350    39.510      .065   445.800    55.390    15.150
   120.400    39.220      .065   445.600    55.350    15.180
   120.450    38.910      .065   446.000    55.300    15.280
   120.500    38.660      .065   446.400    55.230    15.410
   120.550    38.370      .065   446.400    55.160    15.590
   120.600    38.330      .065   446.500    55.060    15.680
   120.650    38.320      .065   446.600    54.880    15.770
   120.700    38.330      .065   446.600    54.500    15.820
   120.750    38.320      .065   446.700    54.220    15.760
   120.800    38.280      .065   446.800    53.840    15.650
   120.850    38.200      .065   446.900    53.620    15.460
   120.900    38.020      .065   447.100    53.440    15.150
   120.950    37.830      .065   447.400    53.280    15.070
   121.000    37.580      .065   447.600    53.220    15.040
   121.050    37.390      .065   447.800    53.190    14.980
   121.100    37.170      .065   448.000    53.170    14.960
   121.150    36.930      .065   448.100    53.150    15.060
   121.200    36.680      .065   448.200    53.130    15.290
   121.250    36.590      .065   448.300    53.110    15.580
   121.300    36.470      .065   448.100    53.100    15.530
   121.350    36.440      .065   448.000    53.100    15.460
   121.400    36.460      .065   447.700    53.080    15.450
   121.450    36.560      .065   447.300    53.070    15.530
   121.500    36.730      .065   447.100    53.040    15.600
   121.550    36.850      .065   447.000    53.010    15.620
   121.600    36.850      .065   447.300    52.920    15.590
   121.650    36.800      .065   447.600    52.720    15.500
   121.700    36.700      .065   447.900    52.510    15.340
   121.750    36.620      .065   448.100    52.270    15.260
   121.800    36.570      .065   448.300    52.040    15.210
   121.850    36.610      .065   448.100    51.150    15.190
   121.900    36.710      .065   447.600    50.460    15.240
   121.950    36.880      .065   446.900    50.040    15.300
   122.000    37.070      .065   446.600    49.930    15.410
   122.050    37.250      .065   447.300    49.930    15.550
   122.100    37.420      .065   448.100    49.990    15.670
   122.150    37.450      .065   448.900    50.110    15.780
   122.200    37.470      .065   449.900    50.280    15.860
   122.250    37.500      .065   450.800    50.490    15.900
   122.300    37.540      .065   451.100    50.670    15.890
   122.350    37.610      .065   450.400    50.820    15.870
   122.400    37.700      .065   449.300    50.870    15.870
   122.450    37.810      .065   447.800    50.900    15.960
   122.500    37.950      .065   446.500    50.950    16.140
   122.550    38.110      .065   445.300    51.000    16.420
   122.600    38.240      .065   444.900    51.060    16.780
   122.650    38.480      .065   445.300    51.120    16.960
   122.700    38.560      .065   445.500    51.220    17.070
   122.750    38.670      .065   446.000    51.340    17.010
   122.800    38.660      .065   446.200    51.510    16.910
   122.850    38.580      .065   446.500    51.710    16.800
   122.900    38.390      .065   447.100    51.920    16.700
   122.950    38.180      .065   447.700    52.070    16.930
   123.000    38.000      .065   448.300    52.370    16.980
   123.050    37.670      .065   448.900    52.580    16.910
   123.100    37.500      .065   448.500    52.790    16.880
   123.150    37.440      .065   447.400    52.990    16.990
   123.200    37.450      .065   446.300    53.130    17.030
   123.250    37.500      .065   445.500    53.210    17.000
   123.300    37.630      .065   444.700    53.220    16.940
   123.350    37.770      .065   444.200    53.190    16.820
   123.400    37.950      .065   444.100    53.140    16.680
   123.450    38.190      .065   444.000    53.060    16.550
   123.500    38.430      .065   444.000    52.940    16.460
   123.550    38.440      .065   444.100    52.260    16.430
   123.600    38.410      .064   444.500    51.540    16.460
   123.650    38.420      .064   445.100    50.630    16.520
   123.700    38.580      .064   446.600    50.100    16.600
   123.750    38.700      .064   447.600    49.530    16.620
   123.800    38.920      .065   448.500    49.060    16.560
   123.850    39.240      .065   448.400    48.570    16.440
   123.900    39.360      .065   448.000    48.310    16.330
   123.950    39.420      .065   447.700    48.000    16.170
   124.000    39.340      .065   447.600    47.720    16.050
   124.050    38.270      .065   447.700    47.430    15.990
   124.100    37.670      .065   447.900    47.080    15.920
   124.150    37.280      .065   448.100    46.680    15.950
   124.200    37.120      .065   448.200    46.590    16.070
   124.250    37.030      .065   448.200    46.460    16.250
   124.300    36.980      .065   448.000    46.410    16.390
   124.350    36.950      .065   447.400    46.410    16.590
   124.400    37.030      .065   446.200    46.410    16.790
   124.450    37.180      .065   445.900    46.430    16.980
   124.500    37.300      .065   446.300    46.480    17.220
   124.550    37.490      .065   446.700    46.580    17.470
   124.600    37.670      .065   447.200    46.760    17.650
   124.650    37.640      .065   447.900    46.840    17.700
   124.700    37.440      .065   448.200    46.890    17.720
   124.750    37.230      .065   447.800    46.850    17.700
   124.800    37.020      .065   446.700    46.780    17.660
   124.850    36.950      .065   445.200    46.690    17.560
   124.900    36.940      .065   445.100    46.530    17.470
   124.950    36.960      .065   445.500    46.300    17.350
   125.000    37.010      .065   445.300    46.150    17.250
   125.050    37.100      .065   444.900    45.810    17.140
   125.100    37.180      .066   444.600    45.520    17.080
   125.150    37.190      .066   444.300    45.150    17.190
