~Version Information
 VERS.                2.0:  CWLS LOG ASCII STANDARD -VERSION 2.0
 WRAP.                 NO:  ONE LINE PER DEPTH STEP
~WELL INFORMATION BLOCK
#MNEM.UNIT       DATA		            DESCRIPTION OF MNEMONIC
#---------    -------------            ------------------------
 STRT.M      .000                        :START DEPTH
 STOP.M    79.950                        :STOP DEPTH
 STEP.M      .050                        :STEP
 NULL.    -999999.0                      :NULL VALUE
 COMP.       WML                         :COMPANY
 WELL.                          B62B0898 :WELL
 FLD .    Voerendaal                     :FIELD
 CNTY.                                   :COUNTY
 STAT.                                   :STATE
 SRVC.                                   :SERVICE COMPANY
 DATE.     17-NOV-90                     :LOG DATE
 UWI .                                   :UNIQUE WELL ID
 LIC .                                   :LICENSE NUMBER
~Curve Information Block
#MNEM.UNIT      API CODE     Curve Description
#---------    -------------  ------------------------
DEPTH    .M         00 000 00 00          :  1  DEPTH
UFLOW    .M/S       00 000 00 00          :  2  UFLOW
TEMP     .DEGC      00 000 00 00          :  3  TEMP
SN40     .OHM.M     00 000 00 00          :  4  SN40
SP       .V         00 000 00 00          :  5  SP
CAL      .MM        00 000 00 00          :  6  CAL
TEMP     .DEGC      00 000 00 00          :  7  TEMP
GAMMA    .CPS       00 000 00 00          :  8  GAMMA
LN160    .OHM.M     00 000 00 00          :  9  LN160
~Parameter Information Block
#MNEM.UNIT   Information     Description
#---------- ---------------  ------------------------
 FILE.                         :File Type
 FIID.                         :File Type Identifier
 VERS.                         :System Version
 SER .                         :System Serial Number
 TRUK.                         :Truck Calibration Number
 TOOL.                         :Tool Serial Number
 TIME.                         :Time    HrHrMinMin
 LAT .                         :Latitude
 LON .                         :Longitude
 LMF .            MV           :LOG Measured FROM
 DMF .                         :Driller Measured From
 PD  .                         :Permanent Data
 PDEV.                         :Elevation Permanent Data
 EKB .M                        :Elevation Kelly Bushing
 ELEV.DF                       :Elevation DF
 EGL .M                        :Elevation Ground Level
 DRDP.                         :Drillers Depth
 CASD.                         :Casing Diameter
 CASB.                         :Casing Bottom
 CASX.                         :Casing Type
 CAST.                         :Casing Thickness
 TNOC.                         :Time Circulation Stopped
 LOGU.                         :Logging Unit
 RECB.            Veenendaal   :Recorded By
 OSR1.                         :Other Services
 OSR2.                         :Other Services
 OSR3.                         :Other Services
 BS  .MM                       :Bit Size
 MST .                         :Mean Surface Temperature
 TGRD.                         :Temperature Gradiant
 MAGN.                         :Magnetic Declination
 MDEN.                         :Density Matrix
 MATR.                         :Neutron Matrix
 DTMT.                         :Delta T Matrix
 DTFL.                         :Delta T Fluid
 MUDS.                         :Mud Sample Source
 MRS .                         :Mud Resistivity
 MTP .                         :Mud Temperature
 MFRS.                         :Resistivity Mud Filtrate
 MFTP.                         :Temperature Mud Filtrate
 MCRS.                         :Resistivity Mud Cake
 MCTP.                         :Temperature Mud Cake
 FTYP.                         :Fluid Type
 FD  .K/M3                     :Fluid Density
 DFV .S                        :Fluid Viscosity
 FPH .                         :Fuild PH
 ELCO.                         :Electron Cutoff
~Other Information
#MNEM.UNIT  Information      Description
#---------- ---------------  ------------------------
# --------------------------
## COMMENTS    Top_Depth   Bot_Depth  LithCode  Lat    Long   Elev_Gl
##    Type of LithCode   Lithologie - 1970
##                    .00         .80         .00     
##                    .85        2.25       19.00     
##                   2.30        6.15       12.00     
##                   6.20       28.50        7.00     
##                  28.55       40.50        9.00     
##                  40.55       74.60         .00     
##                  74.65       78.00       10.00     
##                  78.05       78.05         .00     
##    last_layer   78.05
# --------------------------
~A DEPTH    UFLOW    TEMP     SN40     SP       CAL      TEMP     GAMMA    LN160    
# ...
    55.900    13.780    10.480    62.800      .089   546.500    11.250     3.280    91.010
    55.950    13.790    10.480    62.960      .089   545.600    11.250     3.230    90.820
    56.000    13.850    10.480    63.130      .089   547.300    11.250     3.150    90.570
    56.050    14.050    10.480    63.310      .089   549.900    11.250     2.990    90.410
    56.100    14.530    10.480    63.510      .089   553.800    11.250     2.940    90.250
    56.150    14.730    10.480    63.710      .089   555.400    11.250     2.920    90.090
    56.200    14.940    10.480    63.900      .089   550.500    11.250     2.900    89.930
    56.250    15.070    10.480    64.100      .089   553.100    11.250     2.880    89.760
    56.300    15.110    10.480    64.310      .089   554.000    11.250     2.930    89.410
    56.350    15.020    10.480    64.500      .090   553.800    11.260     2.960    89.090
    56.400    14.940    10.480    64.600      .090   553.700    11.260     2.970    88.360
    56.450    14.890    10.480    64.610      .091   553.400    11.260     3.000    88.000
    56.500    14.860    10.480    64.600      .091   551.500    11.260     3.050    87.470
    56.550    14.920    10.480    64.630      .091   548.500    11.260     3.120    87.000
    56.600    15.030    10.480    64.740      .091   544.000    11.270     3.240    86.680
    56.650    15.180    10.480    64.890      .091   536.800    11.270     3.330    86.420
    56.700    15.340    10.480    65.080      .091   537.100    11.270     3.600    86.250
    56.750    15.480    10.470    65.390      .091   543.400    11.270     3.740    86.120
    56.800    15.650    10.470    65.540      .091   549.800    11.270     3.800    86.060
    56.850    15.870    10.470    65.610      .091   551.400    11.280     3.920    86.060
    56.900    16.140    10.470    65.570      .091   549.900    11.280     3.860    86.070
    56.950    16.420    10.470    65.470      .091   549.000    11.280     3.800    86.120
    57.000    16.720    10.470    65.280      .090   544.000    11.280     3.790    86.230
    57.050    16.800    10.470    64.900      .088   541.300    11.280     3.800    86.330
    57.100    16.860    10.470    63.770      .087   544.600    11.290     3.800    86.350
    57.150    17.090    10.470    63.280      .084   545.600    11.290     3.820    86.320
    57.200    17.480    10.480    62.860      .082   548.600    11.290     3.830    86.250
    57.250    17.980    10.480    62.570      .079   553.000    11.290     3.880    86.150
    57.300    18.120    10.480    62.390      .076   554.100    11.290     3.940    86.030
    57.350    18.160    10.480    62.300      .075   554.000    11.290     3.990    85.880
    57.400    18.070    10.480    62.230      .074   553.300    11.290     3.990    85.730
    57.450    17.860    10.480    62.210      .075   548.800    11.290     3.870    85.520
    57.500    17.520    10.480    62.190      .075   538.600    11.290     3.790    85.320
    57.550    17.350    10.480    62.150      .075   535.100    11.290     3.790    85.090
    57.600    17.230    10.480    62.070      .076   529.700    11.290     3.880    84.850
    57.650    17.180    10.470    61.890      .077   529.700    11.290     4.080    84.420
    57.700    17.160    10.470    61.340      .077   531.600    11.290     4.220    84.280
    57.750    17.070    10.470    60.770      .077   529.400    11.290     4.400    84.160
    57.800    16.910    10.470    60.470      .077   528.000    11.290     4.580    84.050
    57.850    16.790    10.470    59.840      .077   532.200    11.290     4.740    83.970
    57.900    16.410    10.470    59.580      .076   536.200    11.290     4.680    83.930
    57.950    16.180    10.470    59.310      .076   536.600    11.290     4.530    83.930
    58.000    16.170    10.470    59.160      .076   536.700    11.290     4.540    83.950
    58.050    16.220    10.470    59.060      .076   536.700    11.290     4.540    83.980
    58.100    16.260    10.470    59.030      .075   537.500    11.290     4.550    84.010
    58.150    16.310    10.470    59.010      .076   541.300    11.300     4.420    84.010
    58.200    16.400    10.460    58.920      .076   543.600    11.300     4.300    83.970
    58.250    16.520    10.460    58.850      .076   542.600    11.300     4.250    83.850
    58.300    16.610    10.460    58.730      .076   537.600    11.300     4.210    83.670
    58.350    16.650    10.460    58.460      .076   532.700    11.300     4.210    83.530
    58.400    16.620    10.460    58.160      .076   527.400    11.300     4.170    83.180
    58.450    16.500    10.460    57.370      .077   537.600    11.300     4.130    82.370
    58.500    16.160    10.460    56.890      .077   547.900    11.300     4.130    81.620
    58.550    15.950    10.460    56.520      .078   553.000    11.310     4.160    80.700
    58.600    15.930    10.460    56.200      .079   547.900    11.310     4.220    79.090
    58.650    16.130    10.460    55.940      .081   546.800    11.310     4.260    77.180
    58.700    16.450    10.460    55.720      .082   546.400    11.310     4.280    75.730
    58.750    16.990    10.460    55.550      .083   546.200    11.310     4.330    74.750
    58.800    17.300    10.460    55.430      .084   546.800    11.310     4.470    74.120
    58.850    17.470    10.470    55.370      .084   547.300    11.310     4.660    73.640
    58.900    17.560    10.470    55.200      .084   546.800    11.310     4.820    73.170
    58.950    17.510    10.470    55.080      .084   549.000    11.320     4.860    72.840
    59.000    17.340    10.490    54.630      .084   552.400    11.320     4.970    72.140
    59.050    17.040    10.510    53.940      .084   552.400    11.320     5.050    71.670
    59.100    16.760    10.530    52.990      .083   553.000    11.320     5.170    71.140
    59.150    16.520    10.550    52.310      .083   556.200    11.320     5.200    70.860
    59.200    16.220    10.570    51.640      .083   559.500    11.320     5.230    70.690
    59.250    15.430    10.590    51.000      .082   559.500    11.330     5.250    70.600
    59.300    15.090    10.620    50.730      .082   562.300    11.330     5.020    70.550
    59.350    14.990    10.630    50.420      .082   564.900    11.330     4.860    70.560
    59.400    15.090    10.640    50.220      .082   567.100    11.340     4.780    70.720
    59.450    15.300    10.650    50.030      .082   567.700    11.340     4.750    70.970
    59.500    15.570    10.660    49.830      .081   568.200    11.340     4.770    71.300
    59.550    15.850    10.670    49.620      .081   566.200    11.350     4.830    71.660
    59.600    16.120    10.680    49.350      .081   554.100    11.350     4.960    72.210
    59.650    16.400    10.680    48.850      .081   544.900    11.350     5.020    72.550
    59.700    16.700    10.680    48.390      .080   541.900    11.350     5.010    72.980
    59.750    17.050    10.690    47.900      .080   538.800    11.360     5.010    73.390
    59.800    17.090    10.690    47.450      .080   539.000    11.360     5.030    73.690
    59.850    16.980    10.690    47.150      .080   544.100    11.360     5.060    74.110
    59.900    16.820    10.690    46.840      .079   547.900    11.370     5.080    74.540
    59.950    16.570    10.690    46.630      .079   551.000    11.370     4.990    74.740
    60.000    16.170    10.690    46.300      .079   555.000    11.370     4.710    74.930
    60.050    15.900    10.700    46.170      .079   557.300    11.380     4.400    74.950
    60.100    15.750    10.700    46.150      .079   559.500    11.380     4.350    74.820
    60.150    15.750    10.710    46.200      .078   564.700    11.380     4.340    74.660
    60.200    15.820    10.710    46.430      .078   565.100    11.380     4.510    74.310
    60.250    15.920    10.710    46.660      .078   562.900    11.380     4.710    73.860
