~Version Information
 VERS.                2.0:  CWLS LOG ASCII STANDARD -VERSION 2.0
 WRAP.                 NO:  ONE LINE PER DEPTH STEP
~WELL INFORMATION BLOCK
#MNEM.UNIT       DATA		            DESCRIPTION OF MNEMONIC
#---------    -------------            ------------------------
 STRT.M      .450                        :START DEPTH
 STOP.M   #######                        :STOP DEPTH
 STEP.M      .050                        :STEP
 NULL.    -999999.0                      :NULL VALUE
 COMP.       SCHIFOOD                    :COMPANY
 WELL.                          B62B0897 :WELL
 FLD .    Heerlen                        :FIELD
 CNTY.                                   :COUNTY
 STAT.                                   :STATE
 SRVC.                                   :SERVICE COMPANY
 DATE.     10-DEC-90                     :LOG DATE
 UWI .                                   :UNIQUE WELL ID
 LIC .                                   :LICENSE NUMBER
~Curve Information Block
#MNEM.UNIT      API CODE     Curve Description
#---------    -------------  ------------------------
DEPTH    .M         00 000 00 00          :  1  DEPTH
SN40     .OHM.M     00 000 00 00          :  2  SN40
SP       .V         00 000 00 00          :  3  SP
CAL      .MM        00 000 00 00          :  4  CAL
LN160    .OHM.M     00 000 00 00          :  5  LN160
GAMMA    .CPS       00 000 00 00          :  6  GAMMA
~Parameter Information Block
#MNEM.UNIT   Information     Description
#---------- ---------------  ------------------------
 FILE.                         :File Type
 FIID.                         :File Type Identifier
 VERS.                         :System Version
 SER .                         :System Serial Number
 TRUK.                         :Truck Calibration Number
 TOOL.                         :Tool Serial Number
 TIME.                         :Time    HrHrMinMin
 LAT .                         :Latitude
 LON .                         :Longitude
 LMF .            MV           :LOG Measured FROM
 DMF .                         :Driller Measured From
 PD  .                         :Permanent Data
 PDEV.                         :Elevation Permanent Data
 EKB .M                        :Elevation Kelly Bushing
 ELEV.DF                       :Elevation DF
 EGL .M                        :Elevation Ground Level
 DRDP.                         :Drillers Depth
 CASD.                         :Casing Diameter
 CASB.                         :Casing Bottom
 CASX.                         :Casing Type
 CAST.                         :Casing Thickness
 TNOC.                         :Time Circulation Stopped
 LOGU.                         :Logging Unit
 RECB.            Bergsma      :Recorded By
 OSR1.                         :Other Services
 OSR2.                         :Other Services
 OSR3.                         :Other Services
 BS  .MM                       :Bit Size
 MST .                         :Mean Surface Temperature
 TGRD.                         :Temperature Gradiant
 MAGN.                         :Magnetic Declination
 MDEN.                         :Density Matrix
 MATR.                         :Neutron Matrix
 DTMT.                         :Delta T Matrix
 DTFL.                         :Delta T Fluid
 MUDS.                         :Mud Sample Source
 MRS .                         :Mud Resistivity
 MTP .                         :Mud Temperature
 MFRS.                         :Resistivity Mud Filtrate
 MFTP.                         :Temperature Mud Filtrate
 MCRS.                         :Resistivity Mud Cake
 MCTP.                         :Temperature Mud Cake
 FTYP.                         :Fluid Type
 FD  .K/M3                     :Fluid Density
 DFV .S                        :Fluid Viscosity
 FPH .                         :Fuild PH
 ELCO.                         :Electron Cutoff
~Other Information
#MNEM.UNIT  Information      Description
#---------- ---------------  ------------------------
# --------------------------
## COMMENTS    Top_Depth   Bot_Depth  LithCode  Lat    Long   Elev_Gl
##    Type of LithCode   Lithologie - 1970
##                    .00         .00         .00     
##                    .45        6.00         .00     
##                   6.05        8.10        2.00     
##                   8.15       15.30       23.00     
##                  15.35       18.50       22.00     
##                  18.55       20.80       11.00     
##                  20.85       22.35       12.00     
##                  22.40       23.40       11.00     
##                  23.45       25.30       12.00     
##                  25.35       26.25       11.00     
##                  26.30       27.80       12.00     
##                  27.85       35.10       11.00     
##                  35.15       47.80       12.00     
##                  47.85       50.40        6.00     
##                  50.45       52.00       23.00     
##                  52.05       53.20       11.00     
##                  53.25       54.60       12.00     
##                  54.65       55.50       11.00     
##                  55.55       56.50       12.00     
##                  56.55       57.25       11.00     
##                  57.30       58.60       12.00     
##                  58.65       64.40       11.00     
##                  64.45       71.10        9.00     
##                  71.15       74.20        7.00     
##                  74.25       75.90        9.00     
##                  75.95       78.90        7.00     
##                  78.95       93.30        9.00     
##                  93.35       95.20       10.00     
##                  95.25       97.60        9.00     
##                  97.65       99.95       10.00     
##                 100.00      100.00         .00     
##                 100.05      126.75     #######     
##    last_layer   126.75
# --------------------------
~A DEPTH    SN40     SP       CAL      LN160    GAMMA    
# ...
    39.650    18.560      .065   583.900    22.890    16.580
    39.700    18.570      .065   583.200    22.870    16.850
    39.750    18.590      .065   582.400    22.860    17.030
    39.800    18.580      .065   581.700    22.850    17.100
    39.850    18.570      .065   581.300    22.830    17.140
    39.900    18.540      .065   581.300    22.810    17.190
    39.950    18.500      .065   581.200    22.790    17.110
    40.000    18.440      .065   581.100    22.760    17.130
    40.050    18.360      .065   581.100    22.740    17.090
    40.100    18.280      .065   580.900    22.730    16.540
    40.150    18.220      .066   580.700    22.710    16.170
    40.200    18.150      .066   580.300    22.680    16.010
    40.250    18.070      .066   579.000    22.660    16.050
    40.300    17.960      .066   577.600    22.630    16.230
    40.350    17.880      .067   571.100    22.610    16.590
    40.400    17.710      .067   561.000    22.580    16.740
    40.450    17.550      .067   552.500    22.550    16.810
    40.500    17.400      .067   558.400    22.530    16.640
    40.550    17.240      .067   564.200    22.510    16.320
    40.600    17.120      .067   570.000    22.490    16.320
    40.650    17.040      .067   577.300    22.470    16.310
    40.700    16.970      .067   568.900    22.450    16.310
    40.750    16.920      .067   560.500    22.420    16.350
    40.800    16.900      .067   552.100    22.400    16.410
    40.850    16.900      .067   545.800    22.380    16.370
    40.900    16.920      .067   552.900    22.350    16.010
    40.950    16.950      .067   560.100    22.330    15.650
    41.000    16.980      .067   567.200    22.300    15.280
    41.050    17.040      .067   574.300    22.270    14.860
    41.100    17.090      .067   582.200    22.250    14.900
    41.150    17.140      .067   575.100    22.220    14.970
    41.200    17.160      .067   568.000    22.200    15.470
    41.250    17.180      .067   560.900    22.160    15.760
    41.300    17.210      .066   563.400    22.140    15.850
    41.350    17.230      .066   575.900    22.110    15.900
    41.400    17.270      .066   576.900    22.080    16.060
    41.450    17.320      .066   570.800    22.060    15.830
    41.500    17.360      .066   564.800    22.040    15.720
    41.550    17.420      .066   558.700    22.010    15.690
    41.600    17.460      .066   553.800    21.990    15.700
    41.650    17.530      .066   560.900    21.960    15.750
    41.700    17.600      .066   567.900    21.930    15.700
    41.750    17.660      .066   574.900    21.880    15.410
    41.800    17.720      .066   582.000    21.870    15.240
    41.850    17.780      .066   583.600    21.860    15.010
    41.900    17.830      .066   575.600    21.850    15.030
    41.950    17.880      .066   567.700    21.850    15.080
    42.000    17.910      .066   566.400    21.840    15.140
    42.050    17.960      .066   577.500    21.860    15.340
    42.100    17.980      .066   588.600    21.870    15.730
    42.150    17.970      .066   588.400    21.870    15.920
    42.200    17.940      .066   586.000    21.860    16.070
    42.250    17.890      .066   593.800    21.870    16.140
    42.300    17.790      .067   598.500    21.880    16.270
    42.350    17.660      .067   580.300    21.890    16.480
    42.400    17.470      .067   583.400    21.910    16.660
    42.450    17.380      .067   586.400    21.930    16.840
    42.500    17.280      .067   588.700    21.940    17.180
    42.550    17.200      .067   584.600    21.940    17.410
    42.600    17.100      .068   580.400    21.950    17.640
    42.650    16.990      .068   576.800    21.990    17.590
    42.700    16.880      .068   582.300    22.030    17.580
    42.750    16.800      .068   587.700    22.060    17.590
    42.800    16.740      .068   588.600    22.100    17.410
    42.850    16.690      .068   580.600    22.130    16.950
    42.900    16.650      .068   572.700    22.150    16.830
    42.950    16.630      .068   564.700    22.180    16.710
    43.000    16.640      .068   556.800    22.220    16.650
    43.050    16.680      .068   561.700    22.260    16.520
    43.100    16.720      .068   574.000    22.280    16.420
    43.150    16.740      .068   586.200    22.310    16.280
    43.200    16.760      .068   587.400    22.340    15.940
    43.250    16.830      .067   578.400    22.360    15.590
    43.300    16.890      .067   569.300    22.400    15.190
    43.350    16.970      .067   569.800    22.450    15.130
    43.400    17.060      .067   583.400    22.490    15.350
    43.450    17.170      .067   597.000    22.510    15.630
    43.500    17.280      .067   607.900    22.560    15.950
    43.550    17.380      .067   601.500    22.610    16.270
    43.600    17.540      .067   599.700    22.650    16.430
    43.650    17.650      .067   599.600    22.700    16.320
    43.700    17.760      .067   608.000    22.730    16.250
    43.750    17.870      .067   611.600    22.760    16.160
    43.800    17.990      .067   609.200    22.790    16.110
    43.850    18.110      .067   597.000    22.820    16.020
    43.900    18.190      .067   592.800    22.850    16.210
    43.950    18.270      .067   582.500    22.900    16.400
    44.000    18.310      .067   572.200    22.950    16.590
    44.050    18.340      .067   559.800    22.980    16.780
    44.100    18.350      .067   569.600    23.020    16.850
    44.150    18.350      .067   579.400    23.060    16.610
    44.200    18.350      .067   589.200    23.100    16.420
    44.250    18.340      .067   599.000    23.130    15.990
    44.300    18.360      .067   600.200    23.180    15.800
    44.350    18.390      .067   594.300    23.230    15.470
    44.400    18.420      .067   589.300    23.290    15.410
    44.450    18.460      .067   598.100    23.380    15.730
    44.500    18.490      .067   597.300    23.430    15.820
    44.550    18.510      .067   581.300    23.470    15.820
    44.600    18.530      .067   571.400    23.520    15.660
    44.650    18.550      .067   579.900    23.570    15.440
    44.700    18.590      .067   588.400    23.630    15.430
    44.750    18.630      .067   596.900    23.690    15.500
    44.800    18.660      .067   605.400    23.750    15.510
    44.850    18.690      .067   606.200    23.830    15.540
    44.900    18.700      .067   593.300    23.880    15.640
    44.950    18.710      .067   590.000    23.930    15.690
    45.000    18.730      .067   597.400    23.990    15.670
    45.050    18.750      .067   605.600    24.090    15.350
    45.100    18.760      .067   598.900    24.160    15.240
    45.150    18.750      .068   592.200    24.230    15.120
    45.200    18.750      .068   585.600    24.310    14.950
    45.250    18.740      .068   580.100    24.400    14.560
    45.300    18.770      .068   588.300    24.490    14.320
    45.350    18.800      .068   596.500    24.590    14.460
    45.400    18.920      .069   604.700    24.690    14.520
    45.450    19.030      .069   608.800    24.800    14.640
    45.500    19.160      .069   601.700    24.900    14.290
    45.550    19.280      .069   594.600    24.990    14.010
    45.600    19.370      .069   594.900    25.110    13.730
    45.650    19.470      .070   604.200    25.230    14.110
    45.700    19.570      .070   613.500    25.330    14.480
    45.750    19.680      .070   615.200    25.440    14.860
    45.800    19.760      .070   615.700    25.540    15.080
    45.850    19.850      .070   617.100    25.640    14.920
    45.900    19.910      .070   610.800    25.760    14.750
    45.950    19.920      .071   607.000    25.870    14.580
    46.000    19.950      .071   603.200    26.000    14.420
    46.050    19.990      .071   606.000    26.100    14.720
    46.100    20.040      .071   609.600    26.230    15.020
    46.150    20.080      .071   610.700    26.390    15.320
    46.200    20.110      .071   598.900    26.510    15.650
