~Version Information
 VERS.                2.0:  CWLS LOG ASCII STANDARD -VERSION 2.0
 WRAP.                 NO:  ONE LINE PER DEPTH STEP
~WELL INFORMATION BLOCK
#MNEM.UNIT       DATA		            DESCRIPTION OF MNEMONIC
#---------    -------------            ------------------------
 STRT.M      .000                        :START DEPTH
 STOP.M   #######                        :STOP DEPTH
 STEP.M      .050                        :STEP
 NULL.    -999999.0                      :NULL VALUE
 COMP.       SCHIFOOD                    :COMPANY
 WELL.                          B62B0896 :WELL
 FLD .    Hoensbroek                     :FIELD
 CNTY.                                   :COUNTY
 STAT.                                   :STATE
 SRVC.                                   :SERVICE COMPANY
 DATE.     17-JUL-90                     :LOG DATE
 UWI .                                   :UNIQUE WELL ID
 LIC .                                   :LICENSE NUMBER
~Curve Information Block
#MNEM.UNIT      API CODE     Curve Description
#---------    -------------  ------------------------
DEPTH    .M         00 000 00 00          :  1  DEPTH
SN40     .OHM.M     00 000 00 00          :  2  SN40
SP       .V         00 000 00 00          :  3  SP
CAL      .MM        00 000 00 00          :  4  CAL
LN160    .OHM.M     00 000 00 00          :  5  LN160
GAMMA    .CPS       00 000 00 00          :  6  GAMMA
~Parameter Information Block
#MNEM.UNIT   Information     Description
#---------- ---------------  ------------------------
 FILE.                         :File Type
 FIID.                         :File Type Identifier
 VERS.                         :System Version
 SER .                         :System Serial Number
 TRUK.                         :Truck Calibration Number
 TOOL.                         :Tool Serial Number
 TIME.                         :Time    HrHrMinMin
 LAT .                         :Latitude
 LON .                         :Longitude
 LMF .            MV           :LOG Measured FROM
 DMF .                         :Driller Measured From
 PD  .                         :Permanent Data
 PDEV.                         :Elevation Permanent Data
 EKB .M                        :Elevation Kelly Bushing
 ELEV.DF                       :Elevation DF
 EGL .M                        :Elevation Ground Level
 DRDP.                         :Drillers Depth
 CASD.                         :Casing Diameter
 CASB.                         :Casing Bottom
 CASX.                         :Casing Type
 CAST.                         :Casing Thickness
 TNOC.                         :Time Circulation Stopped
 LOGU.                         :Logging Unit
 RECB.            Bergsma      :Recorded By
 OSR1.                         :Other Services
 OSR2.                         :Other Services
 OSR3.                         :Other Services
 BS  .MM                       :Bit Size
 MST .                         :Mean Surface Temperature
 TGRD.                         :Temperature Gradiant
 MAGN.                         :Magnetic Declination
 MDEN.                         :Density Matrix
 MATR.                         :Neutron Matrix
 DTMT.                         :Delta T Matrix
 DTFL.                         :Delta T Fluid
 MUDS.                         :Mud Sample Source
 MRS .            6            :Mud Resistivity
 MTP .            19           :Mud Temperature
 MFRS.                         :Resistivity Mud Filtrate
 MFTP.                         :Temperature Mud Filtrate
 MCRS.                         :Resistivity Mud Cake
 MCTP.                         :Temperature Mud Cake
 FTYP.                         :Fluid Type
 FD  .K/M3                     :Fluid Density
 DFV .S                        :Fluid Viscosity
 FPH .                         :Fuild PH
 ELCO.                         :Electron Cutoff
~Other Information
#MNEM.UNIT  Information      Description
#---------- ---------------  ------------------------
# --------------------------
## COMMENTS    Top_Depth   Bot_Depth  LithCode  Lat    Long   Elev_Gl
##    Type of LithCode   Lithologie - 1970
##                    .00        6.00         .00     
##                   6.05        8.00        2.00     
##                   8.05       11.50       22.00     
##                  11.55       15.20       23.00     
##                  15.25       19.00       22.00     
##                  19.05       20.25       11.00     
##                  20.30       22.10       12.00     
##                  22.15       23.70       11.00     
##                  23.75       25.15       12.00     
##                  25.20       26.10       11.00     
##                  26.15       27.20       12.00     
##                  27.25       35.00       11.00     
##                  35.05       47.55       12.00     
##                  47.60       51.00        7.00     
##                  51.05       52.25       11.00     
##                  52.30       54.00        7.00     
##                  54.05       55.10       11.00     
##                  55.15       58.00       12.00     
##                  58.05       62.60       11.00     
##                  62.65       67.20        8.00     
##                  67.25       70.05        9.00     
##                  70.10       74.00        7.00     
##                  74.05       75.40        8.00     
##                  75.45       80.00        7.00     
##                  80.05       92.40        9.00     
##                  92.45       94.50       10.00     
##                  94.55       96.90        8.00     
##                  96.95       99.30       10.00     
##                  99.35       99.35         .00     
##    last_layer   99.35
# --------------------------
~A DEPTH    SN40     SP       CAL      LN160    GAMMA    
# ...
    72.400    35.920      .060   546.600    57.500    22.290
    72.450    35.900      .060   546.500    57.430    22.380
    72.500    35.860      .060   546.300    57.350    22.380
    72.550    35.830      .060   546.200    57.260    22.310
    72.600    35.760      .060   546.200    57.170    22.230
    72.650    35.690      .060   546.100    57.060    22.040
    72.700    35.620      .060   546.200    56.950    21.900
    72.750    35.550      .060   546.400    56.840    21.830
    72.800    35.460      .060   546.700    56.720    21.840
    72.850    35.380      .060   547.500    56.590    21.840
    72.900    35.310      .060   548.900    56.460    21.830
    72.950    35.180      .060   551.800    56.250    21.740
    73.000    35.060      .060   554.600    56.090    21.740
    73.050    34.940      .060   557.300    55.920    21.780
    73.100    34.810      .060   559.800    55.720    21.780
    73.150    34.670      .060   561.000    55.560    21.780
    73.200    34.530      .060   562.500    55.300    21.790
    73.250    34.410      .060   564.000    55.100    21.870
    73.300    34.250      .060   565.300    54.930    22.080
    73.350    34.090      .060   565.800    54.720    22.310
    73.400    33.950      .060   566.300    54.480    22.240
    73.450    33.730      .060   566.600    54.230    22.200
    73.500    33.570      .060   567.000    54.050    22.210
    73.550    33.450      .060   567.300    53.890    22.270
    73.600    33.150      .060   567.900    53.740    22.340
    73.650    32.920      .060   568.300    53.690    22.430
    73.700    32.700      .060   569.200    53.630    22.450
    73.750    32.520      .060   569.800    53.560    22.460
    73.800    32.350      .060   570.800    53.460    22.400
    73.850    32.200      .060   571.500    53.360    22.310
    73.900    32.010      .060   572.100    53.270    22.410
    73.950    31.810      .060   572.500    53.070    22.610
    74.000    31.630      .060   571.900    52.910    22.760
    74.050    31.430      .060   569.200    52.820    22.870
    74.100    31.280      .060   566.500    52.720    22.900
    74.150    31.170      .061   564.300    52.610    22.900
    74.200    31.000      .061   562.000    52.460    22.920
    74.250    30.960      .061   564.300    52.320    22.970
    74.300    30.920      .061   570.200    52.200    22.980
    74.350    30.890      .061   573.100    52.100    22.700
    74.400    30.870      .061   576.300    52.010    22.310
    74.450    30.860      .061   579.500    51.960    22.090
    74.500    30.850      .061   577.700    51.910    21.820
    74.550    30.840      .061   577.700    51.870    21.730
    74.600    30.840      .061   578.400    51.840    21.640
    74.650    30.830      .061   579.700    51.820    21.650
    74.700    30.830      .061   574.500    51.790    21.790
    74.750    30.830      .061   570.200    51.780    21.910
    74.800    30.830      .061   570.700    51.750    21.950
    74.850    30.830      .061   571.800    51.720    21.950
    74.900    30.830      .061   573.100    51.700    21.900
    74.950    30.830      .061   572.700    51.680    21.860
    75.000    30.830      .061   572.200    51.660    21.870
    75.050    30.830      .061   571.700    51.630    21.890
    75.100    30.820      .061   571.500    51.630    21.940
    75.150    30.820      .061   572.000    51.630    22.020
    75.200    30.820      .061   572.700    51.630    22.150
    75.250    30.820      .061   573.900    51.640    22.270
    75.300    30.830      .061   575.400    51.640    22.610
    75.350    30.850      .061   575.700    51.640    22.820
    75.400    30.880      .061   572.600    51.640    22.870
    75.450    30.910      .061   569.500    51.630    22.870
    75.500    30.950      .061   569.100    51.610    22.900
    75.550    30.980      .061   570.500    51.590    22.980
    75.600    31.010      .061   572.500    51.570    22.900
    75.650    31.050      .061   576.500    51.560    22.740
    75.700    31.090      .061   579.700    51.530    22.760
    75.750    31.130      .061   583.500    51.490    22.820
    75.800    31.170      .061   587.500    51.450    22.830
    75.850    31.210      .061   586.100    51.410    22.620
    75.900    31.250      .061   583.400    51.370    22.440
    75.950    31.290      .061   580.700    51.320    22.270
    76.000    31.330      .061   581.000    51.270    22.310
    76.050    31.360      .061   581.900    51.190    22.360
    76.100    31.390      .061   574.300    51.120    22.400
    76.150    31.420      .061   568.700    51.030    22.340
    76.200    31.450      .061   566.600    50.930    22.300
    76.250    31.490      .061   566.700    50.830    22.330
    76.300    31.520      .061   568.600    50.740    22.420
    76.350    31.540      .061   570.800    50.660    22.560
    76.400    31.550      .061   570.300    50.580    22.740
    76.450    31.560      .061   569.500    50.520    22.900
    76.500    31.560      .061   568.600    50.440    23.010
    76.550    31.580      .061   567.300    50.400    23.070
    76.600    31.590      .061   563.600    50.360    23.100
    76.650    31.580      .061   560.000    50.330    23.270
    76.700    31.580      .061   555.300    50.300    23.280
    76.750    31.580      .061   556.200    50.270    23.250
    76.800    31.580      .061   558.500    50.250    23.230
    76.850    31.580      .061   560.500    50.230    23.230
    76.900    31.570      .061   561.400    50.210    23.280
    76.950    31.570      .061   560.900    50.200    23.360
    77.000    31.560      .062   559.700    50.200    23.450
    77.050    31.550      .062   558.200    50.200    23.360
    77.100    31.540      .062   556.100    50.200    23.250
    77.150    31.530      .062   556.300    50.200    23.180
    77.200    31.520      .062   558.200    50.210    23.140
    77.250    31.520      .062   561.100    50.210    23.130
    77.300    31.500      .062   564.900    50.210    23.140
    77.350    31.490      .062   564.300    50.210    23.110
    77.400    31.470      .062   564.300    50.210    23.040
    77.450    31.450      .062   566.800    50.210    22.960
    77.500    31.430      .062   568.700    50.210    22.890
    77.550    31.420      .062   572.200    50.200    22.870
    77.600    31.400      .062   573.900    50.190    22.990
    77.650    31.380      .062   574.200    50.160    23.290
    77.700    31.360      .062   573.800    50.130    23.440
    77.750    31.330      .062   573.400    50.110    23.720
    77.800    31.310      .062   573.000    50.080    23.880
    77.850    31.280      .062   572.700    50.060    23.830
    77.900    31.250      .062   572.500    50.030    23.720
    77.950    31.220      .062   572.500    50.000    23.710
    78.000    31.200      .062   572.700    49.970    23.810
    78.050    31.160      .062   572.000    49.940    23.920
    78.100    31.120      .062   571.100    49.890    24.030
    78.150    31.080      .063   569.900    49.850    24.150
    78.200    31.040      .063   569.400    49.800    24.170
    78.250    30.980      .063   570.000    49.730    24.200
    78.300    30.910      .063   570.600    49.650    24.040
    78.350    30.840      .063   571.300    49.550    23.810
    78.400    30.750      .063   572.100    49.430    23.590
    78.450    30.660      .063   572.800    49.340    23.380
    78.500    30.570      .063   574.000    49.220    23.170
    78.550    30.480      .063   575.000    49.110    22.950
    78.600    30.340      .063   574.600    49.000    22.820
    78.650    30.270      .063   574.300    48.890    22.750
    78.700    30.160      .063   573.900    48.770    22.740
    78.750    30.000      .063   572.100    48.650    22.780
    78.800    29.870      .063   571.700    48.520    22.900
    78.850    29.760      .063   572.000    48.400    23.040
    78.900    29.640      .063   571.000    48.260    23.080
    78.950    29.520      .063   570.000    48.160    23.070
