~Version Information Block
 VERS.                2.00:     CWLS LOG ASCII STANDARD - VERSION 2.000000
 WRAP.                  NO:     One Line Per Depth Step
#
~Well Information Block
#MNEM.UNIT                     Data                         Information
#----------   ------------------------------------------   ----------------
 STRT.M                                         0.0000:
 STOP.M                                       171.0000:
 STEP.M                                         0.0200:
 NULL.                                       -999.2500:
 COMP.                                                :     COMPANY
 WELL.                                        B62B0838:     WELL
 FLD .                                                :     FIELD
 CNTY.                                                :     COUNTY
 STAT.                                                :     STATE
 CTRY.                                                :     COUNTRY
 SRVC.                                                :     SERVICE COMPANY
 DATE.                                                :     DATE
 API .                                                :     API NUMBER
 UWI .                                                :     UWI NUMBER
#
~Curve Information Block
#MNEM.UNIT       API CODE      Curve Description
#----------    -------------   -------------------
 DEPT.M                    :   Depth in Meters
 SN20.OHM-M                :   SN20
 LN100.OHM-M               :   LN100
 CALI.CM                   :   Calr
 GAM(NAT) .CPS             :   GAM(NAT)
#
~Parameter Information Block
#MNEM.UNIT            Value               Description
#----------    --------------------    -------------------
 PDAT.                            :    Permanent Datum
 EPD .M                     0.0000:    Elevation Of Perm. Datum
 WSTA.                         LOC:    
 E   .M                     0.0000:    E (Stretch Coefficient Of The Cable)
 TD  .M                   171.0000:    Total Depth
#
~Other Information Block
<DescLogPlotStart>   NEURALOG PLOT DEFINITION
PLOTDEFVERSION: 3
LASFILE: V:\a4\j4\p44009\boorgatmetingen\SCANS TE VERWERKEN IN DINO\wlg\B62B083
DEPTHSCALE: 200.000000
RESOLUTION: 600
DEPTHLABELFREQ: 50.000000
HEAVYGRIDFREQ: 50.000000
MEDIUMGRIDFREQ: 25.000000
LIGHTGRIDFREQ: 5.000000
#
#   TRACK 1
#
STARTTRACK: 
 LEFTX: 13.760000 inch
 RIGHTX: 15.010000 inch
 SCALETYPE: LINEAR
 NUMCHARTDIVISIONS: 10
CURVE: CALI  30.000000  50.000000  (0,0,255)      Solid             2     N    
ENDTRACK: 
#
#   TRACK 2
#
STARTTRACK: 
 LEFTX: 16.551667 inch
 RIGHTX: 21.551667 inch
 SCALETYPE: LINEAR
 NUMCHARTDIVISIONS: 10
CURVE: GAM(NAT)   0.000000   50.000000  (0,131,131)    Solid             2     N    
ENDTRACK: 
#
#   TRACK 3
#
STARTTRACK: 
 LEFTX: 15.343333 inch
 RIGHTX: 21.240000 inch
 SCALETYPE: LINEAR
 NUMCHARTDIVISIONS: 10
CURVE: SN20  0.000000   100.000000 (255,0,255)    Solid             2     Y    
CURVE: LN100  0.000000   100.000000 (255,0,0)      Dot               2     Y    
ENDTRACK: 
<DescLogPlotEnd>
~Other Information
#MNEM.UNIT  Information      Description
#---------- ---------------  ------------------------
# --------------------------
## COMMENTS    Top_Depth   Bot_Depth  LithCode  Lat    Long   Elev_Gl 
##	0.0	31.2	0.0
##	31.25	97.0	25.0
##	97.05	97.5	11.0
##	97.55	104.0	12.0
##	104.05	110.1	11.0
##	110.15	111.7	12.0
##	111.75	113.1	11.0
##	113.15	116.6	12.0
##	116.65	124.1	11.0
##	124.15	125.9	12.0
##	125.95	139.0	11.0
##	139.05	140.0	10.0
##	140.05	145.5	11.0
##	145.55	146.3	10.0
##	146.35	148.0	12.0
##	148.05	149.4	10.0
##	149.45	150.0	11.0
##	150.05	151.9	10.0
##	151.95	152.6	11.0
##	152.65	155.0	10.0
##	155.05	160.9	14.0
##	160.95	163.2	11.0
##	163.25	164.0	10.0
##	164.05	167.8	11.0
##	167.85	170.0	10.0
##	170.05	171.95	11.0
# --------------------------
~A  DEPTH         SN20             LN100            CALI             GAM(NAT)  
# ...
      47.240      54.19728660      78.64233601      38.84920635      13.71126227
      47.260      54.26734964      78.73092142      38.84920635      13.32903930
      47.280      54.35593506      78.84581437      38.84920635      12.94681634
      47.300      54.39513850      79.09683999      38.84920635      12.56459338
      47.320      54.39513850      79.19560395      38.86996051      12.18237041
      47.340      54.39513850      79.38668888      38.89893323      11.80014745
      47.360      54.39513850      79.52536041      38.92790595      11.48968549
      47.380      54.39513850      79.66148318      38.95687866      11.48968549
      47.400      54.39513850      79.91391707      38.98585138      11.48968549
      47.420      54.39513850      80.02859844      39.01482410      11.51613280
      47.440      54.39513850      80.26868519      39.04379681      11.54041258
      47.460      54.39513850      80.51018020      39.07276953      11.84141110
      47.480      54.39513850      80.69232956      39.10174225      12.43659114
      47.500      54.39513850      80.87117643      39.13071496      12.43659114
      47.520      54.44981840      81.02847282      39.15968768      12.43659114
      47.540      54.51174562      81.25453638      39.10849964      12.43659114
      47.560      54.57367284      81.46370401      39.19312169      12.45425959
      47.580      54.63560007      81.71705692      39.19312169      12.53804532
      47.600      54.69752729      81.86179128      39.27248677      12.53804532
      47.620      54.76154962      82.06202665      39.27248677      12.80986143
      47.640      54.76257773      82.29258279      39.29894180      13.18058843
      47.660      54.76257773      82.38896327      39.29894180      13.18058843
      47.680      54.76257773      82.66684518      39.29894180      13.00670230
      47.700      54.76257773      82.83984410      39.27819549      12.75786270
      47.720      54.92885466      83.04587123      39.26417587      12.77379872
      47.740      55.14434889      83.19163700      39.19153749      12.88518670
      47.760      55.35984311      83.32613331      39.14278288      12.92530955
      47.780      55.57533734      83.50222315      39.14021164      13.18058843
      47.800      55.79083156      83.69498742      39.15736873      13.18058843
      47.820      56.00632579      83.84957306      39.19312169      13.18058843
      47.840      56.22182002      83.99430742      39.19312169      13.18058843
      47.860      56.43731424      84.18598078      39.21957672      13.18058843
      47.880      56.65280847      84.37874505      39.27248677      13.14981400
      47.900      56.86830270      84.53609764      39.35185185      12.96077105
      47.920      57.08379692      84.66647824      39.27550976      12.96077105
      47.940      57.29929115      84.85930201      39.19312169      12.43659114
      47.960      57.51478537      84.94750726      39.17641635      12.43659114
      47.980      57.73027960      85.12050618      39.19317893      12.43615210
      48.000      57.75862069      85.23176936      39.22456604      12.33513696
      48.020      57.75862069      85.27600422      39.20815000      12.33513696
      48.040      57.99595205      85.37429876      39.08830831      12.23368279
      48.060      58.30743124      85.43991550      38.96846662      12.23368279
      48.080      58.61891043      85.51441492      38.84862493      12.23368279
      48.100      58.93038962      85.51441492      38.72878324      11.80687317
      48.120      59.24186880      85.47759166      38.69047619      11.76675032
      48.140      59.55334799      85.40135670      38.69047619      11.70971844
      48.160      59.86482718      85.26003392      38.69047619      11.59113967
      48.180      60.17630637      85.19585850      38.69047619      11.59113967
      48.200      60.48778556      85.03965302      38.69047619      11.59113967
      48.220      60.79926474      84.74095121      38.69047619      11.59113967
      48.240      61.11074393      84.34807057      38.69047619      11.59113967
      48.260      61.42222312      84.00207273      38.69047619      11.69259385
      48.280      61.73370231      83.84680611      38.71693122      11.69259385
      48.300      62.04518150      83.46057342      38.74338624      11.69259385
      48.320      62.35666068      83.01843312      38.77891643      12.01386540
      48.340      62.66813987      82.61140698      38.81523562      12.01386540
      48.360      62.97961906      82.21555443      38.84920635      11.91241123
      48.380      63.29109825      81.83679285      38.84920635      11.91241123
      48.400      63.60257743      81.46517840      38.84920635      11.91241123
      48.420      63.91405662      80.95674035      38.84920635      11.42843921
      48.440      64.22553581      80.60091438      38.84920635      11.49782556
      48.460      64.53701500      80.38230209      38.84920635      11.65481057
      48.480      64.84849419      80.19838743      38.84920635      11.71501462
      48.500      65.15997337      79.84439618      38.84920635      11.79567959
      48.520      65.47145256      79.56974403      38.84920635      11.87859317
      48.540      65.78293175      79.40092033      38.84920635      11.92932026
      48.560      66.09441094      79.33800773      38.84920635      12.03533493
      48.580      66.40589013      79.18909815      38.84920635      12.11128119
      48.600      66.71736931      79.07009610      38.84920635      12.21677376
      48.620      66.94460147      79.03380507      38.84920635      12.45634603
      48.640      66.94460147      78.95659820      38.84920635      12.56017736
      48.660      66.94460147      78.90050876      38.84920635      12.65717388
      48.680      66.94460147      78.90050876      38.84487144      12.74095367
      48.700      66.94460147      78.95703787      38.74338624      12.74095367
      48.720      66.94460147      78.97144784      38.74338624      12.84581338
      48.740      66.94460147      79.03523979      38.72151366      12.91297288
      48.760      66.90102447      79.08462177      38.70248461      12.99770591
      48.780      66.72892803      79.18315432      38.69047619      13.07639322
      48.800      66.69010476      79.24003055      38.66402116      13.27289591
      48.820      66.41199195      79.41994519      38.69047619      13.45670201
      48.840      65.01862943      79.51529757      38.66302794      13.67348961
      48.860      63.62526691      79.72370818      38.63756614      13.82401161
      48.880      62.23190439      79.88958311      38.63756614      13.98489262
      48.900      60.83854187      80.02385132      38.63343544      13.90503652
      48.920      59.44517935      80.20710812      38.58465608      13.73564364
      48.940      58.76140782      80.39853024      38.66661716      13.49490653
      48.960      58.40831401      80.70923210      38.59919243      13.25416941
      48.980      58.05522019      81.03348771      38.63756614      13.03533295
      49.000      57.70212638      81.25266530      38.74392772      12.92591472
      49.020      57.34903256      81.51686452      38.78024691      12.82549882
      49.040      56.99593874      81.85230364      38.83683592      12.73085572
      49.060      56.64284493      82.12332603      38.86024320      12.84946217
      49.080      56.28975111      82.50333720      39.02211083      12.96157794
      49.100      56.17580554      82.79600924      39.13716390      13.04336820
      49.120      56.17580554      83.19299568      39.27930320      13.06658202
      49.140      54.59299039      83.54955223      39.40476190      13.11736646
      49.160      54.59299039      83.80840928      39.48421671      13.04531620
      49.180      54.61026648      83.94311717      39.53048980      12.97131794
      49.200      54.76257773      84.22212966      39.64940128      12.91004396
