~Version Information
 VERS.                2.0:  CWLS LOG ASCII STANDARD -VERSION 2.0
 WRAP.                 NO:  ONE LINE PER DEPTH STEP
~WELL INFORMATION BLOCK
#MNEM.UNIT       DATA		            DESCRIPTION OF MNEMONIC
#---------    -------------            ------------------------
 STRT.M      .000                        :START DEPTH
 STOP.M    99.850                        :STOP DEPTH
 STEP.M      .050                        :STEP
 NULL.    -999999.0                      :NULL VALUE
 COMP.       WML                         :COMPANY
 WELL.                          B62B0901 :WELL
 FLD .    Klimmen                        :FIELD
 CNTY.                                   :COUNTY
 STAT.                                   :STATE
 SRVC.                                   :SERVICE COMPANY
 DATE.     17-JAN-92                     :LOG DATE
 UWI .                                   :UNIQUE WELL ID
 LIC .                                   :LICENSE NUMBER
~Curve Information Block
#MNEM.UNIT      API CODE     Curve Description
#---------    -------------  ------------------------
DEPTH    .M         00 000 00 00          :  1  DEPTH
SN40     .OHM.M     00 000 00 00          :  2  SN40
SP       .V         00 000 00 00          :  3  SP
CAL      .MM        00 000 00 00          :  4  CAL
LN160    .OHM.M     00 000 00 00          :  5  LN160
GAMMA    .CPS       00 000 00 00          :  6  GAMMA
~Parameter Information Block
#MNEM.UNIT   Information     Description
#---------- ---------------  ------------------------
 FILE.                         :File Type
 FIID.                         :File Type Identifier
 VERS.                         :System Version
 SER .                         :System Serial Number
 TRUK.                         :Truck Calibration Number
 TOOL.                         :Tool Serial Number
 TIME.                         :Time    HrHrMinMin
 LAT .                         :Latitude
 LON .                         :Longitude
 LMF .            MV           :LOG Measured FROM
 DMF .                         :Driller Measured From
 PD  .                         :Permanent Data
 PDEV.                         :Elevation Permanent Data
 EKB .M                        :Elevation Kelly Bushing
 ELEV.DF                       :Elevation DF
 EGL .M                        :Elevation Ground Level
 DRDP.                         :Drillers Depth
 CASD.                         :Casing Diameter
 CASB.                         :Casing Bottom
 CASX.                         :Casing Type
 CAST.                         :Casing Thickness
 TNOC.                         :Time Circulation Stopped
 LOGU.                         :Logging Unit
 RECB.            Bergsma      :Recorded By
 OSR1.                         :Other Services
 OSR2.                         :Other Services
 OSR3.                         :Other Services
 BS  .MM                       :Bit Size
 MST .                         :Mean Surface Temperature
 TGRD.                         :Temperature Gradiant
 MAGN.                         :Magnetic Declination
 MDEN.                         :Density Matrix
 MATR.                         :Neutron Matrix
 DTMT.                         :Delta T Matrix
 DTFL.                         :Delta T Fluid
 MUDS.                         :Mud Sample Source
 MRS .                         :Mud Resistivity
 MTP .                         :Mud Temperature
 MFRS.                         :Resistivity Mud Filtrate
 MFTP.                         :Temperature Mud Filtrate
 MCRS.                         :Resistivity Mud Cake
 MCTP.                         :Temperature Mud Cake
 FTYP.                         :Fluid Type
 FD  .K/M3                     :Fluid Density
 DFV .S                        :Fluid Viscosity
 FPH .                         :Fuild PH
 ELCO.                         :Electron Cutoff
~Other Information
#MNEM.UNIT  Information      Description
#---------- ---------------  ------------------------
# --------------------------
## COMMENTS    Top_Depth   Bot_Depth  LithCode  Lat    Long   Elev_Gl
##    Type of LithCode   Lithologie - 1970
##                    .00         .30        7.00     
##                    .35        4.60       11.00     
##                   4.65       77.95         .00     
##                  78.00       88.95        7.00     
##                  89.00       99.05       10.00     
##                  99.10       99.10         .00     
##    last_layer   99.1
# --------------------------
~A DEPTH    SN40     SP       CAL      LN160    GAMMA    
# ...
    37.600    33.390      .025   247.400    49.450    23.380
    37.650    33.320      .025   247.700    48.560    23.700
    37.700    33.270      .025   248.000    47.870    24.050
    37.750    33.280      .025   248.200    47.340    24.420
    37.800    33.400      .025   248.400    46.880    24.620
    37.850    33.520      .025   248.500    46.580    24.820
    37.900    33.790      .025   248.700    46.300    24.850
    37.950    34.080      .025   248.900    46.040    24.660
    38.000    34.320      .025   249.400    45.750    24.540
    38.050    34.420      .025   249.800    45.460    22.960
    38.100    34.300      .025   250.600    45.250    22.440
    38.150    33.860      .025   250.900    45.020    21.280
    38.200    33.300      .025   249.900    44.820    20.590
    38.250    32.740      .025   249.300    44.630    19.640
    38.300    32.490      .025   249.600    44.440    18.780
    38.350    32.460      .025   250.000    44.290    17.700
    38.400    32.820      .025   250.400    44.160    17.150
    38.450    33.480      .026   249.600    43.900    17.010
    38.500    34.160      .026   247.400    43.640    16.870
    38.550    35.070      .026   247.200    43.390    16.770
    38.600    35.480      .026   247.400    43.150    16.720
    38.650    35.580      .025   247.400    42.960    16.770
    38.700    35.410      .025   247.400    42.800    16.900
    38.750    35.130      .025   247.300    42.680    16.960
    38.800    34.780      .025   247.400    42.630    16.980
    38.850    34.500      .025   247.500    42.600    17.000
    38.900    34.340      .025   247.700    42.600    16.940
    38.950    34.330      .025   247.900    42.600    16.470
    39.000    34.370      .025   248.100    42.600    15.860
    39.050    34.380      .025   248.300    42.620    15.320
    39.100    34.360      .025   248.500    42.600    14.780
    39.150    34.030      .025   248.800    42.580    14.520
    39.200    33.320      .025   249.300    42.550    14.500
    39.250    32.920      .025   250.000    42.520    14.460
    39.300    32.550      .025   250.600    42.520    14.240
    39.350    32.310      .025   250.200    42.520    13.790
    39.400    32.200      .025   249.400    42.530    13.630
    39.450    32.230      .025   249.100    42.530    13.560
    39.500    32.340      .025   249.400    42.540    13.470
    39.550    32.530      .025   249.700    42.540    13.420
    39.600    32.670      .025   250.300    42.490    13.500
    39.650    32.570      .025   250.600    42.470    13.660
    39.700    32.300      .025   251.000    42.440    13.840
    39.750    31.700      .025   252.000    42.340    14.430
    39.800    31.160      .025   254.000    42.170    14.830
    39.850    30.570      .025   251.500    41.940    15.370
    39.900    30.300      .025   248.500    41.670    15.750
    39.950    30.360      .025   246.800    41.440    15.970
    40.000    30.760      .025   247.700    41.250    16.060
    40.050    31.190      .025   248.600    41.170    16.120
    40.100    31.650      .025   249.400    41.100    16.170
    40.150    32.040      .025   250.100    40.870    16.150
    40.200    32.330      .025   250.400    40.720    15.910
    40.250    32.480      .025   250.100    40.510    15.390
    40.300    32.390      .025   249.800    40.230    15.030
    40.350    31.780      .025   249.500    39.900    14.960
    40.400    31.270      .025   249.200    39.720    14.960
    40.450    30.430      .025   248.700    39.650    15.120
    40.500    29.960      .025   248.300    39.620    15.340
    40.550    29.240      .025   247.900    39.650    15.490
    40.600    28.770      .025   246.800    39.670    15.830
    40.650    28.790      .025   246.100    39.680    15.930
    40.700    28.950      .025   246.300    39.690    15.950
    40.750    29.330      .025   247.100    39.680    15.830
    40.800    29.590      .025   248.400    39.620    15.680
    40.850    29.610      .025   249.200    39.530    15.880
    40.900    29.280      .025   249.500    39.430    16.530
    40.950    28.370      .025   249.700    39.220    16.660
    41.000    28.080      .025   248.800    38.930    16.720
    41.050    28.080      .025   247.400    38.530    16.680
    41.100    28.430      .025   245.800    38.170    16.330
    41.150    28.840      .025   246.200    38.080    15.900
    41.200    29.300      .025   247.200    38.130    15.810
    41.250    29.790      .025   247.900    38.270    15.790
    41.300    30.250      .025   248.700    38.390    15.360
    41.350    30.980      .025   250.000    38.620    15.260
    41.400    31.140      .025   251.000    38.820    15.350
    41.450    31.210      .025   251.400    38.960    15.480
    41.500    31.160      .025   251.800    39.110    15.180
    41.550    30.740      .025   252.200    39.220    14.960
    41.600    28.570      .025   252.300    39.250    14.730
    41.650    27.580      .025   251.400    39.280    14.780
    41.700    26.780      .025   249.700    39.320    14.850
    41.750    26.510      .025   249.500    39.350    14.900
    41.800    26.520      .025   248.300    39.380    15.120
    41.850    26.910      .025   246.800    39.490    15.370
    41.900    27.290      .025   247.200    39.590    15.300
    41.950    28.100      .025   247.800    39.730    14.860
    42.000    28.620      .025   248.500    39.880    14.770
    42.050    29.010      .025   249.500    39.980    14.790
    42.100    29.280      .025   250.800    40.060    15.430
    42.150    29.380      .024   252.100    40.130    15.750
    42.200    29.290      .024   254.000    40.170    15.720
    42.250    29.120      .024   252.100    40.220    15.530
    42.300    28.340      .024   250.800    40.270    15.170
    42.350    27.730      .024   251.400    40.310    14.960
    42.400    27.200      .024   252.700    40.380    14.900
    42.450    26.750      .024   253.200    40.510    14.840
    42.500    26.600      .024   252.300    40.660    14.820
    42.550    26.830      .024   251.600    40.880    14.960
    42.600    27.320      .024   254.700    41.110    15.100
    42.650    27.860      .024   257.800    41.290    15.180
    42.700    28.540      .024   262.200    41.380    15.130
    42.750    29.010      .024   263.100    41.390    15.020
    42.800    29.350      .024   263.300    41.340    14.530
    42.850    29.350      .024   259.000    41.290    14.210
    42.900    29.180      .024   257.300    41.260    13.700
    42.950    29.010      .024   257.000    41.280    13.010
    43.000    28.940      .024   256.100    41.300    12.660
    43.050    29.060      .024   254.800    41.320    12.340
    43.100    29.310      .024   254.300    41.340    12.310
    43.150    29.580      .024   259.000    41.320    12.370
    43.200    29.800      .024   261.200    41.310    12.600
    43.250    29.960      .024   267.200    41.300    12.800
    43.300    30.330      .024   274.100    41.260    12.960
    43.350    30.580      .024   270.700    41.220    12.970
    43.400    30.870      .024   262.600    41.150    12.790
    43.450    31.240      .024   258.500    40.980    12.730
    43.500    31.620      .024   254.500    40.770    12.680
    43.550    32.040      .024   260.000    40.670    12.530
    43.600    32.360      .024   258.600    40.680    12.570
    43.650    33.070      .024   253.700    40.720    12.660
    43.700    33.240      .024   249.600    40.800    12.800
    43.750    33.360      .024   250.100    40.880    12.590
    43.800    33.780      .024   249.000    40.970    12.110
    43.850    34.260      .024   247.200    41.110    11.940
    43.900    34.660      .024   245.200    41.280    11.890
    43.950    34.990      .024   243.400    41.410    11.690
    44.000    35.540      .024   242.800    41.580    11.360
    44.050    36.040      .024   242.900    41.770    10.810
    44.100    36.630      .024   244.400    41.880    10.850
    44.150    37.140      .024   243.900    41.990    10.870
