~Version Information Block
 VERS.                2.00:     CWLS LOG ASCII STANDARD - VERSION 2.000000
 WRAP.                  NO:     One Line Per Depth Step
#
~Well Information Block
#MNEM.UNIT                     Data                         Information
#----------   ------------------------------------------   ----------------
 STRT.M                                         0.0000:
 STOP.M                                       171.0000:
 STEP.M                                         0.0200:
 NULL.                                       -999.2500:
 COMP.                                                :     COMPANY
 WELL.                                        B62B0838:     WELL
 FLD .                                                :     FIELD
 CNTY.                                                :     COUNTY
 STAT.                                                :     STATE
 CTRY.                                                :     COUNTRY
 SRVC.                                                :     SERVICE COMPANY
 DATE.                                                :     DATE
 API .                                                :     API NUMBER
 UWI .                                                :     UWI NUMBER
#
~Curve Information Block
#MNEM.UNIT       API CODE      Curve Description
#----------    -------------   -------------------
 DEPT.M                    :   Depth in Meters
 SN20.OHM-M                :   SN20
 LN100.OHM-M               :   LN100
 CALI.CM                   :   Calr
 GAM(NAT) .CPS             :   GAM(NAT)
#
~Parameter Information Block
#MNEM.UNIT            Value               Description
#----------    --------------------    -------------------
 PDAT.                            :    Permanent Datum
 EPD .M                     0.0000:    Elevation Of Perm. Datum
 WSTA.                         LOC:    
 E   .M                     0.0000:    E (Stretch Coefficient Of The Cable)
 TD  .M                   171.0000:    Total Depth
#
~Other Information Block
<DescLogPlotStart>   NEURALOG PLOT DEFINITION
PLOTDEFVERSION: 3
LASFILE: V:\a4\j4\p44009\boorgatmetingen\SCANS TE VERWERKEN IN DINO\wlg\B62B083
DEPTHSCALE: 200.000000
RESOLUTION: 600
DEPTHLABELFREQ: 50.000000
HEAVYGRIDFREQ: 50.000000
MEDIUMGRIDFREQ: 25.000000
LIGHTGRIDFREQ: 5.000000
#
#   TRACK 1
#
STARTTRACK: 
 LEFTX: 13.760000 inch
 RIGHTX: 15.010000 inch
 SCALETYPE: LINEAR
 NUMCHARTDIVISIONS: 10
CURVE: CALI  30.000000  50.000000  (0,0,255)      Solid             2     N    
ENDTRACK: 
#
#   TRACK 2
#
STARTTRACK: 
 LEFTX: 16.551667 inch
 RIGHTX: 21.551667 inch
 SCALETYPE: LINEAR
 NUMCHARTDIVISIONS: 10
CURVE: GAM(NAT)   0.000000   50.000000  (0,131,131)    Solid             2     N    
ENDTRACK: 
#
#   TRACK 3
#
STARTTRACK: 
 LEFTX: 15.343333 inch
 RIGHTX: 21.240000 inch
 SCALETYPE: LINEAR
 NUMCHARTDIVISIONS: 10
CURVE: SN20  0.000000   100.000000 (255,0,255)    Solid             2     Y    
CURVE: LN100  0.000000   100.000000 (255,0,0)      Dot               2     Y    
ENDTRACK: 
<DescLogPlotEnd>
~Other Information
#MNEM.UNIT  Information      Description
#---------- ---------------  ------------------------
# --------------------------
## COMMENTS    Top_Depth   Bot_Depth  LithCode  Lat    Long   Elev_Gl 
##	0.0	31.2	0.0
##	31.25	97.0	25.0
##	97.05	97.5	11.0
##	97.55	104.0	12.0
##	104.05	110.1	11.0
##	110.15	111.7	12.0
##	111.75	113.1	11.0
##	113.15	116.6	12.0
##	116.65	124.1	11.0
##	124.15	125.9	12.0
##	125.95	139.0	11.0
##	139.05	140.0	10.0
##	140.05	145.5	11.0
##	145.55	146.3	10.0
##	146.35	148.0	12.0
##	148.05	149.4	10.0
##	149.45	150.0	11.0
##	150.05	151.9	10.0
##	151.95	152.6	11.0
##	152.65	155.0	10.0
##	155.05	160.9	14.0
##	160.95	163.2	11.0
##	163.25	164.0	10.0
##	164.05	167.8	11.0
##	167.85	170.0	10.0
##	170.05	171.95	11.0
# --------------------------
~A  DEPTH         SN20             LN100            CALI             GAM(NAT)  
# ...
      90.800      43.79566544      55.92142453      37.68518519      22.50391083
      90.820      44.01463476      55.92142453      37.68518519      22.42982753
      90.840      44.23606731      55.96254202      37.63227513      22.41384998
      90.860      44.42894481      56.09101187      37.65491816      22.58917189
      90.880      44.62182230      56.09101187      37.70637087      22.73082210
      90.900      44.78518937      56.26059921      37.71164021      22.87239912
      90.920      44.78518937      56.26059921      37.71164021      22.94791426
      90.940      44.78518937      56.26059921      37.71164021      23.05137378
      90.960      44.78518937      56.79762578      37.71164021      23.03075070
      90.980      44.78518937      56.79762578      37.71164021      22.89203338
      91.000      44.78518937      56.79762578      37.73910084      22.79604151
      91.020      44.78518937      56.79762578      37.77542003      22.55631300
      91.040      44.78518937      56.79762578      37.79100529      22.09896034
      91.060      44.78518937      56.79762578      37.79514836      21.91196428
      91.080      44.78518937      56.79762578      37.81746032      21.81115284
      91.100      44.78518937      56.79762578      37.81746032      21.66522297
      91.120      44.78518937      56.79762578      37.85119589      21.58142736
      91.140      44.78518937      56.79762578      37.87037037      21.68989433
      91.160      44.78518937      56.79762578      37.87092422      21.80525545
      91.180      44.78518937      56.79762578      37.89682540      21.99326012
      91.200      44.78518937      56.79762578      37.89682540      22.15646489
      91.220      44.78518937      56.79762578      37.92328042      22.51397912
      91.240      44.78518937      56.79762578      37.92328042      22.94827815
      91.260      44.78518937      56.79762578      37.92328042      23.28969617
      91.280      44.78518937      56.79762578      37.93010922      23.64019761
      91.300      44.78518937      56.79762578      37.99981435      23.98626908
      91.320      44.78518937      56.79762578      38.02910053      24.56075681
      91.340      44.78518937      56.79762578      38.02910053      24.83114307
      91.360      44.78518937      56.79762578      38.02910053      24.89010515
      91.380      44.78518937      56.79762578      38.02910053      24.64732511
      91.400      44.78518937      56.79762578      38.02910053      24.44200203
      91.420      44.78518937      56.83838955      38.02910053      24.33143972
      91.440      44.78518937      57.37562108      38.02910053      24.21871385
      91.460      44.78518937      57.44270890      38.02910053      24.05309435
      91.480      44.78518937      57.67382702      38.02910053      24.05309435
      91.500      44.78518937      57.67382702      38.05555556      24.14980213
      91.520      44.78518937      57.67382702      38.05555556      24.20861589
      91.540      44.78518937      57.67382702      38.05555556      24.21683902
      91.560      44.78518937      57.67382702      38.05555556      24.15454853
      91.580      44.78518937      57.67382702      38.05555556      24.12324804
      91.600      44.78518937      57.67382702      38.05555556      24.11694324
      91.620      44.78518937      57.67382702      38.05555556      24.08691241
      91.640      44.78518937      57.67382702      38.05555556      24.15454853
      91.660      44.78518937      57.67382702      38.05555556      24.22265335
      91.680      44.78518937      57.67382702      38.05555556      24.30920385
      91.700      44.78518937      57.67382702      38.05555556      24.42658614
      91.720      44.78518937      57.67382702      38.05555556      24.50963815
      91.740      44.78518937      57.55248930      38.05555556      24.42502180
      91.760      44.78518937      57.27897740      38.05555556      24.36066366
      91.780      44.78518937      57.00546550      38.05555556      24.31113801
      91.800      44.78518937      56.73195360      38.05555556      24.20687753
      91.820      44.78518937      56.45844169      38.05555556      24.17145756
      91.840      44.78518937      56.18492979      38.05555556      24.20688346
      91.860      44.78518937      55.91141789      38.05555556      24.27411613
      91.880      44.78518937      55.63790599      38.05555556      24.28042093
      91.900      44.78518937      55.36439408      38.05555556      24.28982076
      91.920      44.78518937      55.09088218      38.05555556      24.28661102
      91.940      44.78518937      54.81737028      38.05555556      24.19891545
      91.960      44.78518937      54.67778406      38.05555556      24.05527374
      91.980      44.78518937      54.67778406      38.05555556      24.04140042
      92.000      44.78518937      54.67778406      38.05555556      24.09304317
      92.020      44.78518937      54.64152278      38.05555556      24.19019790
      92.040      44.78518937      54.57443496      38.05555556      24.45150668
      92.060      44.78518937      54.33860938      38.05555556      24.70238526
      92.080      44.78518937      54.33860938      38.05555556      25.00938006
      92.100      44.78518937      54.33860938      38.05555556      25.29516639
      92.120      44.78518937      53.88838135      38.05555556      25.60045447
      92.140      44.78518937      53.39151214      38.05555556      25.78766808
      92.160      44.78518937      52.89464294      38.05555556      25.97479665
      92.180      44.78518937      52.39777373      38.05555556      26.01579560
      92.200      44.78518937      51.90090453      38.05555556      26.06222325
      92.220      44.78518937      51.40403532      38.05555556      26.17628701
      92.240      44.78518937      50.90716612      38.05555556      26.31252435
      92.260      44.78518937      50.41029691      38.05555556      26.47108556
      92.280      44.78518937      49.91342771      38.05555556      26.67923275
      92.300      44.78518937      49.41655851      38.05555556      26.84008805
      92.320      44.81345393      48.91968930      38.05555556      27.01715030
      92.340      44.81345393      48.42282010      38.05555556      27.23300643
      92.360      44.81345393      47.92595089      38.05555556      27.32318001
      92.380      44.81345393      47.63990955      38.05555556      27.34639383
      92.400      44.81345393      47.63990955      38.05555556      27.34801156
      92.420      44.81345393      47.63990955      38.05555556      27.33344606
      92.440      44.61423240      47.30073488      38.05555556      27.32757833
      92.460      44.39200398      47.30073488      38.05555556      27.35905286
      92.480      44.16977556      47.30073488      38.05555556      27.38417315
      92.500      43.94754714      47.30073488      38.05555556      27.48577565
      92.520      43.72531872      47.30073488      38.05555556      27.58288094
      92.540      43.50309030      47.10288298      38.05555556      27.63355859
      92.560      43.28086188      47.10288298      38.05555556      27.67162665
      92.580      43.05863346      47.10288298      38.05555556      27.67162665
      92.600      42.83640504      47.10288298      38.05555556      27.67162665
      92.620      42.61417662      47.10288298      38.05555556      27.56544388
      92.640      42.39194820      47.10288298      38.05555556      27.62089956
      92.660      42.16971978      47.10288298      38.05555556      27.62089956
      92.680      41.94749136      47.10288298      38.05555556      27.62089956
      92.700      41.64354676      47.10288298      38.05555556      27.55904811
      92.720      41.22424785      47.10288298      38.05831864      27.43490024
      92.740      40.80494894      47.24758098      38.10846561      27.36072794
      92.760      40.38565004      47.36022929      38.13492063      27.19899851
