~Version Information
 VERS.                2.0:  CWLS LOG ASCII STANDARD -VERSION 2.0
 WRAP.                 NO:  ONE LINE PER DEPTH STEP
~WELL INFORMATION BLOCK
#MNEM.UNIT       DATA		            DESCRIPTION OF MNEMONIC
#---------    -------------            ------------------------
 STRT.M      .450                        :START DEPTH
 STOP.M   #######                        :STOP DEPTH
 STEP.M      .050                        :STEP
 NULL.    -999999.0                      :NULL VALUE
 COMP.       SCHIFOOD                    :COMPANY
 WELL.                          B62B0897 :WELL
 FLD .    Heerlen                        :FIELD
 CNTY.                                   :COUNTY
 STAT.                                   :STATE
 SRVC.                                   :SERVICE COMPANY
 DATE.     10-DEC-90                     :LOG DATE
 UWI .                                   :UNIQUE WELL ID
 LIC .                                   :LICENSE NUMBER
~Curve Information Block
#MNEM.UNIT      API CODE     Curve Description
#---------    -------------  ------------------------
DEPTH    .M         00 000 00 00          :  1  DEPTH
SN40     .OHM.M     00 000 00 00          :  2  SN40
SP       .V         00 000 00 00          :  3  SP
CAL      .MM        00 000 00 00          :  4  CAL
LN160    .OHM.M     00 000 00 00          :  5  LN160
GAMMA    .CPS       00 000 00 00          :  6  GAMMA
~Parameter Information Block
#MNEM.UNIT   Information     Description
#---------- ---------------  ------------------------
 FILE.                         :File Type
 FIID.                         :File Type Identifier
 VERS.                         :System Version
 SER .                         :System Serial Number
 TRUK.                         :Truck Calibration Number
 TOOL.                         :Tool Serial Number
 TIME.                         :Time    HrHrMinMin
 LAT .                         :Latitude
 LON .                         :Longitude
 LMF .            MV           :LOG Measured FROM
 DMF .                         :Driller Measured From
 PD  .                         :Permanent Data
 PDEV.                         :Elevation Permanent Data
 EKB .M                        :Elevation Kelly Bushing
 ELEV.DF                       :Elevation DF
 EGL .M                        :Elevation Ground Level
 DRDP.                         :Drillers Depth
 CASD.                         :Casing Diameter
 CASB.                         :Casing Bottom
 CASX.                         :Casing Type
 CAST.                         :Casing Thickness
 TNOC.                         :Time Circulation Stopped
 LOGU.                         :Logging Unit
 RECB.            Bergsma      :Recorded By
 OSR1.                         :Other Services
 OSR2.                         :Other Services
 OSR3.                         :Other Services
 BS  .MM                       :Bit Size
 MST .                         :Mean Surface Temperature
 TGRD.                         :Temperature Gradiant
 MAGN.                         :Magnetic Declination
 MDEN.                         :Density Matrix
 MATR.                         :Neutron Matrix
 DTMT.                         :Delta T Matrix
 DTFL.                         :Delta T Fluid
 MUDS.                         :Mud Sample Source
 MRS .                         :Mud Resistivity
 MTP .                         :Mud Temperature
 MFRS.                         :Resistivity Mud Filtrate
 MFTP.                         :Temperature Mud Filtrate
 MCRS.                         :Resistivity Mud Cake
 MCTP.                         :Temperature Mud Cake
 FTYP.                         :Fluid Type
 FD  .K/M3                     :Fluid Density
 DFV .S                        :Fluid Viscosity
 FPH .                         :Fuild PH
 ELCO.                         :Electron Cutoff
~Other Information
#MNEM.UNIT  Information      Description
#---------- ---------------  ------------------------
# --------------------------
## COMMENTS    Top_Depth   Bot_Depth  LithCode  Lat    Long   Elev_Gl
##    Type of LithCode   Lithologie - 1970
##                    .00         .00         .00     
##                    .45        6.00         .00     
##                   6.05        8.10        2.00     
##                   8.15       15.30       23.00     
##                  15.35       18.50       22.00     
##                  18.55       20.80       11.00     
##                  20.85       22.35       12.00     
##                  22.40       23.40       11.00     
##                  23.45       25.30       12.00     
##                  25.35       26.25       11.00     
##                  26.30       27.80       12.00     
##                  27.85       35.10       11.00     
##                  35.15       47.80       12.00     
##                  47.85       50.40        6.00     
##                  50.45       52.00       23.00     
##                  52.05       53.20       11.00     
##                  53.25       54.60       12.00     
##                  54.65       55.50       11.00     
##                  55.55       56.50       12.00     
##                  56.55       57.25       11.00     
##                  57.30       58.60       12.00     
##                  58.65       64.40       11.00     
##                  64.45       71.10        9.00     
##                  71.15       74.20        7.00     
##                  74.25       75.90        9.00     
##                  75.95       78.90        7.00     
##                  78.95       93.30        9.00     
##                  93.35       95.20       10.00     
##                  95.25       97.60        9.00     
##                  97.65       99.95       10.00     
##                 100.00      100.00         .00     
##                 100.05      126.75     #######     
##    last_layer   126.75
# --------------------------
~A DEPTH    SN40     SP       CAL      LN160    GAMMA    
# ...
    99.050    16.830      .070   560.000    28.970    13.170
    99.100    16.940      .070   560.700    29.240    13.040
    99.150    17.030      .070   561.200    29.450    12.930
    99.200    17.250      .070   560.400    29.790    12.890
    99.250    17.390      .070   559.500    30.050    12.880
    99.300    17.580      .070   559.900    30.290    12.840
    99.350    17.820      .070   560.600    30.540    12.690
    99.400    18.060      .069   561.300    30.700    12.470
    99.450    18.500      .069   562.300    30.900    12.090
    99.500    19.040      .069   563.400    31.140    12.020
    99.550    19.370      .069   563.600    31.360    11.980
    99.600    20.250      .068   562.300    31.570    11.890
    99.650    21.000      .068   557.800    31.770    11.470
    99.700    21.710      .067   555.000    32.110    11.010
    99.750    22.700      .067   552.500    32.430    10.550
    99.800    23.690      .066   537.500    32.730    10.260
    99.850    24.680      .066   513.500    32.970    10.090
    99.900    25.680      .065   489.300    33.240    10.010
    99.950    26.670      .064   463.100    33.560     9.930
   100.000    27.660      .064   460.100    33.920     9.790
   100.050    28.370      .063   459.600    34.230     9.590
   100.100    28.380      .063   460.000    34.570     9.410
   100.150    31.360      .063   462.000    34.920     9.320
   100.200    34.330      .063   464.900    35.240     9.280
   100.250    37.070      .062   466.500    35.690     9.210
   100.300    39.450      .062   466.800    36.320     9.020
   100.350    41.820      .062   467.300    36.900     8.780
   100.400    44.190      .062   467.900    37.470     8.600
   100.450    46.050      .062   468.800    38.040     8.370
   100.500    47.510      .062   469.800    38.630     8.520
   100.550    48.970      .062   470.700    39.360     8.680
   100.600    50.430      .061   471.300    41.240     8.800
   100.650    51.880      .061   471.300    43.140     8.910
   100.700    53.110      .061   470.100    45.400     9.000
   100.750    54.110      .061   469.400    47.270     9.180
   100.800    54.860      .061   467.500    49.130     9.260
   100.850    55.340      .061   464.800    51.000     9.290
   100.900    55.950      .061   461.100    52.870     9.320
   100.950    56.710      .061   459.000    54.740     9.360
   101.000    57.170      .061   459.000    56.600     9.460
   101.050    57.670      .061   460.800    58.470     9.610
   101.100    58.020      .061   460.000    60.280     9.760
   101.150    58.350      .061   458.200    62.050     9.820
   101.200    58.610      .061   457.400    63.830     9.910
   101.250    58.840      .061   457.400    65.340    10.160
   101.300    59.040      .061   458.300    66.370    10.560
   101.350    59.290      .061   459.300    67.390    10.890
   101.400    59.420      .061   460.200    68.420    11.250
   101.450    59.540      .061   460.000    69.440    11.400
   101.500    59.630      .061   458.400    70.470    11.500
   101.550    59.700      .061   457.400    71.330    11.500
   101.600    59.750      .061   456.900    72.500    11.530
   101.650    59.760      .061   456.600    73.670    11.560
   101.700    59.760      .061   456.500    74.840    11.420
   101.750    59.710      .061   456.600    76.020    11.260
   101.800    59.650      .061   456.800    76.940    11.040
   101.850    59.590      .061   457.300    77.770    10.930
   101.900    59.480      .060   457.900    78.590    10.800
   101.950    59.360      .060   458.000    79.440    10.710
   102.000    59.220      .060   457.600    79.930    10.650
   102.050    59.060      .060   457.300    80.350    10.630
   102.100    58.920      .060   457.300    80.690    10.860
   102.150    58.800      .059   457.700    81.150    10.920
   102.200    58.700      .059   458.200    81.530    10.900
   102.250    58.650      .059   458.600    82.000    10.820
   102.300    58.590      .059   458.800    82.450    10.800
   102.350    58.520      .059   459.700    82.700    10.790
   102.400    58.450      .059   460.600    83.090    10.760
   102.450    58.370      .059   460.600    83.340    10.770
   102.500    58.290      .059   460.100    83.550    10.850
   102.550    58.210      .059   460.000    83.700    10.960
   102.600    58.160      .059   459.600    83.800    11.150
   102.650    58.020      .059   458.200    83.870    11.380
   102.700    57.910      .059   457.700    83.880    11.400
   102.750    57.840      .059   457.400    83.900    11.240
   102.800    57.790      .059   456.800    83.930    11.130
   102.850    57.750      .059   455.900    83.940    11.030
   102.900    57.720      .059   455.000    83.850    11.020
   102.950    57.710      .059   454.400    83.740    11.000
   103.000    57.670      .059   454.100    83.600    10.970
   103.050    57.650      .059   454.300    83.430    10.800
   103.100    57.640      .059   454.800    83.270    10.620
   103.150    57.660      .059   455.600    83.230    10.410
   103.200    57.690      .059   456.500    83.190    10.390
   103.250    57.750      .059   458.100    83.150    10.330
   103.300    57.820      .059   458.400    83.150    10.360
   103.350    57.880      .059   459.200    83.170    10.590
   103.400    57.990      .059   460.100    83.180    10.720
   103.450    58.090      .058   460.000    83.230    10.840
   103.500    58.190      .058   459.000    83.280    10.690
   103.550    58.260      .058   458.200    83.330    10.610
   103.600    58.320      .058   458.000    83.380    10.560
   103.650    58.370      .058   458.300    83.450    10.480
   103.700    58.410      .058   458.700    83.510    10.350
   103.750    58.460      .057   459.100    83.680    10.400
   103.800    58.520      .057   459.500    83.830    10.620
   103.850    58.570      .057   459.400    83.950    10.790
   103.900    58.620      .056   458.600    84.080    10.980
   103.950    58.670      .056   458.100    84.210    11.210
   104.000    58.710      .055   458.200    84.330    11.410
   104.050    58.750      .054   457.800    84.470    11.470
   104.100    58.790      .054   457.000    84.540    11.240
   104.150    58.840      .053   455.200    84.630    11.160
   104.200    58.880      .052   453.700    84.730    11.140
   104.250    58.930      .051   452.900    84.830    11.090
   104.300    58.970      .051   453.100    84.910    11.040
   104.350    59.020      .050   454.800    84.970    11.010
   104.400    59.060      .049   457.500    85.020    10.960
   104.450    59.080      .048   458.800    85.050    10.870
   104.500    59.140      .048   458.700    85.060    10.840
   104.550    59.200      .047   457.500    85.070    10.810
   104.600    59.240      .046   456.800    85.080    10.760
   104.650    59.310      .046   457.100    85.090    10.660
   104.700    59.360      .046   457.800    85.100    10.510
   104.750    59.380      .045   458.000    85.100    10.380
   104.800    59.370      .045   457.800    85.120    10.250
   104.850    59.330      .045   457.800    85.140    10.230
   104.900    59.280      .045   457.800    85.130    10.190
   104.950    59.240      .045   457.400    85.100    10.060
   105.000    59.210      .045   456.100    85.060     9.900
   105.050    59.190      .045   455.200    85.020     9.810
   105.100    59.210      .045   455.000    84.960     9.900
   105.150    59.280      .045   455.600    84.880     9.930
   105.200    59.420      .045   456.500    84.790     9.920
   105.250    59.650      .045   456.700    84.680     9.950
   105.300    59.830      .044   456.800    84.560     9.960
   105.350    59.990      .045   456.900    84.460     9.960
   105.400    60.130      .045   457.100    84.370     9.990
   105.450    60.240      .045   457.300    84.310     9.980
   105.500    60.310      .045   457.500    84.280     9.950
   105.550    60.370      .045   457.800    84.270     9.870
   105.600    60.390      .045   457.800    84.260     9.810
