~Version Information
 VERS.                2.0:  CWLS LOG ASCII STANDARD -VERSION 2.0
 WRAP.                 NO:  ONE LINE PER DEPTH STEP
~WELL INFORMATION BLOCK
#MNEM.UNIT       DATA		            DESCRIPTION OF MNEMONIC
#---------    -------------            ------------------------
 STRT.M      .450                        :START DEPTH
 STOP.M   #######                        :STOP DEPTH
 STEP.M      .050                        :STEP
 NULL.    -999999.0                      :NULL VALUE
 COMP.       SCHIFOOD                    :COMPANY
 WELL.                          B62B0897 :WELL
 FLD .    Heerlen                        :FIELD
 CNTY.                                   :COUNTY
 STAT.                                   :STATE
 SRVC.                                   :SERVICE COMPANY
 DATE.     10-DEC-90                     :LOG DATE
 UWI .                                   :UNIQUE WELL ID
 LIC .                                   :LICENSE NUMBER
~Curve Information Block
#MNEM.UNIT      API CODE     Curve Description
#---------    -------------  ------------------------
DEPTH    .M         00 000 00 00          :  1  DEPTH
SN40     .OHM.M     00 000 00 00          :  2  SN40
SP       .V         00 000 00 00          :  3  SP
CAL      .MM        00 000 00 00          :  4  CAL
LN160    .OHM.M     00 000 00 00          :  5  LN160
GAMMA    .CPS       00 000 00 00          :  6  GAMMA
~Parameter Information Block
#MNEM.UNIT   Information     Description
#---------- ---------------  ------------------------
 FILE.                         :File Type
 FIID.                         :File Type Identifier
 VERS.                         :System Version
 SER .                         :System Serial Number
 TRUK.                         :Truck Calibration Number
 TOOL.                         :Tool Serial Number
 TIME.                         :Time    HrHrMinMin
 LAT .                         :Latitude
 LON .                         :Longitude
 LMF .            MV           :LOG Measured FROM
 DMF .                         :Driller Measured From
 PD  .                         :Permanent Data
 PDEV.                         :Elevation Permanent Data
 EKB .M                        :Elevation Kelly Bushing
 ELEV.DF                       :Elevation DF
 EGL .M                        :Elevation Ground Level
 DRDP.                         :Drillers Depth
 CASD.                         :Casing Diameter
 CASB.                         :Casing Bottom
 CASX.                         :Casing Type
 CAST.                         :Casing Thickness
 TNOC.                         :Time Circulation Stopped
 LOGU.                         :Logging Unit
 RECB.            Bergsma      :Recorded By
 OSR1.                         :Other Services
 OSR2.                         :Other Services
 OSR3.                         :Other Services
 BS  .MM                       :Bit Size
 MST .                         :Mean Surface Temperature
 TGRD.                         :Temperature Gradiant
 MAGN.                         :Magnetic Declination
 MDEN.                         :Density Matrix
 MATR.                         :Neutron Matrix
 DTMT.                         :Delta T Matrix
 DTFL.                         :Delta T Fluid
 MUDS.                         :Mud Sample Source
 MRS .                         :Mud Resistivity
 MTP .                         :Mud Temperature
 MFRS.                         :Resistivity Mud Filtrate
 MFTP.                         :Temperature Mud Filtrate
 MCRS.                         :Resistivity Mud Cake
 MCTP.                         :Temperature Mud Cake
 FTYP.                         :Fluid Type
 FD  .K/M3                     :Fluid Density
 DFV .S                        :Fluid Viscosity
 FPH .                         :Fuild PH
 ELCO.                         :Electron Cutoff
~Other Information
#MNEM.UNIT  Information      Description
#---------- ---------------  ------------------------
# --------------------------
## COMMENTS    Top_Depth   Bot_Depth  LithCode  Lat    Long   Elev_Gl
##    Type of LithCode   Lithologie - 1970
##                    .00         .00         .00     
##                    .45        6.00         .00     
##                   6.05        8.10        2.00     
##                   8.15       15.30       23.00     
##                  15.35       18.50       22.00     
##                  18.55       20.80       11.00     
##                  20.85       22.35       12.00     
##                  22.40       23.40       11.00     
##                  23.45       25.30       12.00     
##                  25.35       26.25       11.00     
##                  26.30       27.80       12.00     
##                  27.85       35.10       11.00     
##                  35.15       47.80       12.00     
##                  47.85       50.40        6.00     
##                  50.45       52.00       23.00     
##                  52.05       53.20       11.00     
##                  53.25       54.60       12.00     
##                  54.65       55.50       11.00     
##                  55.55       56.50       12.00     
##                  56.55       57.25       11.00     
##                  57.30       58.60       12.00     
##                  58.65       64.40       11.00     
##                  64.45       71.10        9.00     
##                  71.15       74.20        7.00     
##                  74.25       75.90        9.00     
##                  75.95       78.90        7.00     
##                  78.95       93.30        9.00     
##                  93.35       95.20       10.00     
##                  95.25       97.60        9.00     
##                  97.65       99.95       10.00     
##                 100.00      100.00         .00     
##                 100.05      126.75     #######     
##    last_layer   126.75
# --------------------------
~A DEPTH    SN40     SP       CAL      LN160    GAMMA    
# ...
    79.250    32.930      .068   546.300    48.040    13.270
    79.300    32.720      .067   543.700    47.910    13.200
    79.350    32.590      .067   548.200    47.680    13.150
    79.400    32.470      .067   552.800    47.460    13.120
    79.450    32.340      .067   557.300    47.290    13.060
    79.500    32.230      .067   554.100    47.120    12.980
    79.550    32.120      .066   544.700    46.940    12.830
    79.600    32.030      .066   536.900    46.750    12.760
    79.650    31.930      .066   544.000    46.550    12.810
    79.700    31.850      .066   551.100    46.360    12.910
    79.750    31.770      .066   556.900    46.170    13.030
    79.800    31.700      .066   545.200    45.990    12.840
    79.850    31.630      .066   535.600    45.820    12.690
    79.900    31.560      .066   539.500    45.560    12.600
    79.950    31.500      .066   543.300    45.380    12.590
    80.000    31.450      .066   547.100    45.190    12.580
    80.050    31.400      .066   550.900    44.950    12.580
    80.100    31.350      .066   548.700    44.710    12.630
    80.150    31.310      .066   530.400    44.500    12.710
    80.200    31.260      .066   522.200    44.290    12.800
    80.250    31.200      .066   526.800    44.090    12.900
    80.300    31.130      .066   528.300    43.920    13.050
    80.350    31.060      .066   529.500    43.770    13.200
    80.400    30.990      .066   530.300    43.580    13.350
    80.450    30.920      .066   530.700    43.410    13.180
    80.500    30.850      .066   531.200    43.250    13.120
    80.550    30.770      .066   531.500    43.100    13.090
    80.600    30.680      .066   532.300    42.930    13.060
    80.650    30.600      .066   533.800    42.780    13.010
    80.700    30.500      .066   537.300    42.650    12.950
    80.750    30.390      .066   540.600    42.500    12.870
    80.800    30.300      .066   547.500    42.360    12.810
    80.850    30.190      .066   552.000    42.230    12.780
    80.900    30.100      .066   556.100    42.090    12.760
    80.950    30.000      .066   545.700    41.930    12.750
    81.000    29.900      .066   535.200    41.740    12.790
    81.050    29.800      .066   524.800    41.610    12.870
    81.100    29.700      .066   513.500    41.480    12.900
    81.150    29.590      .066   520.200    41.340    12.930
    81.200    29.490      .066   526.900    41.210    12.980
    81.250    29.390      .066   533.600    41.080    13.120
    81.300    29.310      .066   540.300    40.960    13.250
    81.350    29.200      .066   547.100    40.830    13.410
    81.400    29.100      .066   553.800    40.740    13.490
    81.450    29.000      .066   560.500    40.610    13.310
    81.500    28.910      .066   558.600    40.490    13.020
    81.550    28.840      .066   551.300    40.370    12.940
    81.600    28.780      .066   544.100    40.260    12.950
    81.650    28.720      .066   536.900    40.140    13.100
    81.700    28.670      .066   542.600    40.030    13.210
    81.750    28.620      .066   548.400    39.900    13.280
    81.800    28.570      .065   555.200    39.790    13.330
    81.850    28.510      .065   544.800    39.690    13.410
    81.900    28.440      .065   534.500    39.580    13.530
    81.950    28.380      .065   523.400    39.480    13.670
    82.000    28.290      .065   528.600    39.380    13.610
    82.050    28.190      .065   535.100    39.290    13.580
    82.100    28.110      .065   541.700    39.200    13.550
    82.150    28.040      .065   548.200    39.120    13.470
    82.200    27.960      .064   554.700    39.030    13.290
    82.250    27.890      .064   556.400    38.940    13.240
    82.300    27.800      .064   545.700    38.860    13.200
    82.350    27.760      .064   534.900    38.770    13.160
    82.400    27.720      .064   535.600    38.680    13.120
    82.450    27.680      .064   541.600    38.600    13.070
    82.500    27.630      .064   547.700    38.510    12.900
    82.550    27.590      .063   553.700    38.410    12.820
    82.600    27.540      .063   553.500    38.310    12.820
    82.650    27.520      .063   549.000    38.230    13.120
    82.700    27.480      .063   555.700    38.150    13.390
    82.750    27.450      .063   550.500    38.090    13.670
    82.800    27.410      .063   545.300    38.030    13.900
    82.850    27.370      .063   540.100    37.970    14.110
    82.900    27.330      .063   534.900    37.910    14.170
    82.950    27.300      .063   529.700    37.830    14.200
    83.000    27.270      .063   533.500    37.750    14.300
    83.050    27.230      .063   541.200    37.650    14.490
    83.100    27.190      .063   548.900    37.560    14.540
    83.150    27.160      .063   555.900    37.480    14.540
    83.200    27.130      .063   548.700    37.410    14.590
    83.250    27.090      .063   541.500    37.330    14.580
    83.300    27.040      .063   543.500    37.240    14.490
    83.350    26.990      .063   552.100    37.140    14.340
    83.400    26.980      .063   561.600    37.040    14.270
    83.450    26.970      .063   561.600    36.970    14.230
    83.500    26.960      .063   562.000    36.880    14.190
    83.550    26.960      .062   562.500    36.800    14.150
    83.600    26.960      .062   563.500    36.730    14.100
    83.650    26.980      .062   564.200    36.670    14.060
    83.700    27.000      .062   558.100    36.610    14.080
    83.750    27.000      .062   553.700    36.550    14.190
    83.800    26.970      .062   545.700    36.480    14.360
    83.850    26.940      .062   537.700    36.410    14.550
    83.900    26.910      .062   540.900    36.340    14.720
    83.950    26.890      .062   547.200    36.270    14.820
    84.000    26.870      .062   553.400    36.180    14.770
    84.050    26.860      .062   561.000    36.100    14.640
    84.100    26.780      .062   552.800    36.020    14.500
    84.150    26.730      .062   544.600    35.950    14.200
    84.200    26.670      .062   537.200    35.910    14.050
    84.250    26.540      .062   544.900    35.850    13.960
    84.300    26.420      .062   552.700    35.800    13.830
    84.350    26.290      .062   558.800    35.750    13.670
    84.400    26.150      .062   552.800    35.700    13.600
    84.450    26.090      .062   546.900    35.650    13.470
    84.500    26.030      .062   539.600    35.600    13.350
    84.550    25.990      .062   546.900    35.550    12.990
    84.600    25.960      .062   554.200    35.510    12.870
    84.650    25.920      .062   562.200    35.470    12.760
    84.700    25.880      .062   561.100    35.440    12.580
    84.750    25.860      .062   561.700    35.420    12.500
    84.800    25.820      .062   563.800    35.430    12.480
    84.850    25.770      .062   566.100    35.430    12.470
    84.900    25.720      .062   566.300    35.420    12.530
    84.950    25.650      .062   567.100    35.410    12.730
    85.000    25.590      .062   568.500    35.400    12.970
    85.050    25.520      .062   568.500    35.390    13.100
    85.100    25.450      .062   568.000    35.370    13.270
    85.150    25.390      .062   566.900    35.340    13.340
    85.200    25.360      .062   565.900    35.320    13.440
    85.250    25.340      .062   565.300    35.290    13.670
    85.300    25.330      .061   565.400    35.240    13.940
    85.350    25.320      .061   565.900    35.150    14.070
    85.400    25.310      .061   566.900    35.070    14.130
    85.450    25.300      .061   566.700    34.990    14.260
    85.500    25.290      .061   565.900    34.910    14.130
    85.550    25.290      .061   565.500    34.830    14.010
    85.600    25.310      .061   565.500    34.760    13.880
    85.650    25.340      .061   565.300    34.630    13.820
    85.700    25.380      .061   565.100    34.520    13.810
    85.750    25.420      .061   565.000    34.410    13.910
    85.800    25.460      .061   564.800    34.320    13.930
