~Version Information
 VERS.                2.0:  CWLS LOG ASCII STANDARD -VERSION 2.0
 WRAP.                 NO:  ONE LINE PER DEPTH STEP
~WELL INFORMATION BLOCK
#MNEM.UNIT       DATA		            DESCRIPTION OF MNEMONIC
#---------    -------------            ------------------------
 STRT.M      .000                        :START DEPTH
 STOP.M    99.850                        :STOP DEPTH
 STEP.M      .050                        :STEP
 NULL.    -999999.0                      :NULL VALUE
 COMP.       WML                         :COMPANY
 WELL.                          B62B0901 :WELL
 FLD .    Klimmen                        :FIELD
 CNTY.                                   :COUNTY
 STAT.                                   :STATE
 SRVC.                                   :SERVICE COMPANY
 DATE.     17-JAN-92                     :LOG DATE
 UWI .                                   :UNIQUE WELL ID
 LIC .                                   :LICENSE NUMBER
~Curve Information Block
#MNEM.UNIT      API CODE     Curve Description
#---------    -------------  ------------------------
DEPTH    .M         00 000 00 00          :  1  DEPTH
SN40     .OHM.M     00 000 00 00          :  2  SN40
SP       .V         00 000 00 00          :  3  SP
CAL      .MM        00 000 00 00          :  4  CAL
LN160    .OHM.M     00 000 00 00          :  5  LN160
GAMMA    .CPS       00 000 00 00          :  6  GAMMA
~Parameter Information Block
#MNEM.UNIT   Information     Description
#---------- ---------------  ------------------------
 FILE.                         :File Type
 FIID.                         :File Type Identifier
 VERS.                         :System Version
 SER .                         :System Serial Number
 TRUK.                         :Truck Calibration Number
 TOOL.                         :Tool Serial Number
 TIME.                         :Time    HrHrMinMin
 LAT .                         :Latitude
 LON .                         :Longitude
 LMF .            MV           :LOG Measured FROM
 DMF .                         :Driller Measured From
 PD  .                         :Permanent Data
 PDEV.                         :Elevation Permanent Data
 EKB .M                        :Elevation Kelly Bushing
 ELEV.DF                       :Elevation DF
 EGL .M                        :Elevation Ground Level
 DRDP.                         :Drillers Depth
 CASD.                         :Casing Diameter
 CASB.                         :Casing Bottom
 CASX.                         :Casing Type
 CAST.                         :Casing Thickness
 TNOC.                         :Time Circulation Stopped
 LOGU.                         :Logging Unit
 RECB.            Bergsma      :Recorded By
 OSR1.                         :Other Services
 OSR2.                         :Other Services
 OSR3.                         :Other Services
 BS  .MM                       :Bit Size
 MST .                         :Mean Surface Temperature
 TGRD.                         :Temperature Gradiant
 MAGN.                         :Magnetic Declination
 MDEN.                         :Density Matrix
 MATR.                         :Neutron Matrix
 DTMT.                         :Delta T Matrix
 DTFL.                         :Delta T Fluid
 MUDS.                         :Mud Sample Source
 MRS .                         :Mud Resistivity
 MTP .                         :Mud Temperature
 MFRS.                         :Resistivity Mud Filtrate
 MFTP.                         :Temperature Mud Filtrate
 MCRS.                         :Resistivity Mud Cake
 MCTP.                         :Temperature Mud Cake
 FTYP.                         :Fluid Type
 FD  .K/M3                     :Fluid Density
 DFV .S                        :Fluid Viscosity
 FPH .                         :Fuild PH
 ELCO.                         :Electron Cutoff
~Other Information
#MNEM.UNIT  Information      Description
#---------- ---------------  ------------------------
# --------------------------
## COMMENTS    Top_Depth   Bot_Depth  LithCode  Lat    Long   Elev_Gl
##    Type of LithCode   Lithologie - 1970
##                    .00         .30        7.00     
##                    .35        4.60       11.00     
##                   4.65       77.95         .00     
##                  78.00       88.95        7.00     
##                  89.00       99.05       10.00     
##                  99.10       99.10         .00     
##    last_layer   99.1
# --------------------------
~A DEPTH    SN40     SP       CAL      LN160    GAMMA    
# ...
    70.600    51.180      .020   238.400    50.610    16.390
    70.650    51.290      .018   238.400    50.650    16.480
    70.700    51.350      .019   238.400    50.690    16.820
    70.750    51.270      .021   238.400    50.730    16.820
    70.800    51.000      .021   238.500    50.780    16.640
    70.850    50.490      .021   238.500    50.830    16.170
    70.900    50.150      .021   238.500    50.880    14.860
    70.950    49.880      .021   238.600    50.930    14.700
    71.000    49.670      .021   238.600    50.980    14.640
    71.050    49.670      .022   238.700    51.020    14.660
    71.100    49.820      .022   238.700    51.060    14.770
    71.150    49.960      .022   238.800    51.100    14.930
    71.200    50.080      .023   238.800    51.140    15.330
    71.250    50.090      .023   238.900    51.180    15.810
    71.300    50.030      .024   239.000    51.190    16.110
    71.350    49.760      .025   239.100    51.210    16.320
    71.400    49.520      .026   239.200    51.220    16.780
    71.450    48.870      .026   239.300    51.230    17.130
    71.500    48.430      .026   239.400    51.240    17.250
    71.550    48.090      .026   239.400    51.250    17.270
    71.600    47.920      .026   239.400    51.260    17.390
    71.650    47.850      .026   239.400    51.210    17.540
    71.700    47.780      .026   239.400    51.160    17.640
    71.750    47.790      .026   239.400    51.120    17.700
    71.800    47.800      .026   239.400    51.070    17.710
    71.850    47.820      .026   239.500    51.020    17.520
    71.900    47.860      .026   239.600    50.890    17.260
    71.950    47.920      .026   239.300    50.770    17.020
    72.000    48.050      .026   238.800    50.640    16.670
    72.050    48.180      .026   238.400    50.530    16.100
    72.100    48.360      .026   238.200    50.390    15.600
    72.150    48.550      .026   238.200    50.340    15.370
    72.200    48.750      .026   238.400    50.290    14.910
    72.250    48.910      .026   238.600    50.240    14.770
    72.300    49.000      .026   238.900    50.220    14.710
    72.350    48.960      .026   239.200    50.210    14.810
    72.400    48.870      .026   239.900    50.190    14.970
    72.450    48.490      .026   241.100    50.180    15.090
    72.500    47.550      .026   241.700    50.170    15.210
    72.550    47.050      .026   241.300    50.160    15.230
    72.600    47.210      .026   240.800    50.150    15.290
    72.650    47.450      .027   240.100    50.140    15.510
    72.700    47.810      .027   239.400    50.130    15.930
    72.750    48.300      .027   238.600    50.130    16.120
    72.800    48.660      .028   238.100    50.130    16.310
    72.850    48.860      .029   238.000    50.140    16.340
    72.900    48.790      .029   237.900    50.170    16.060
    72.950    48.580      .029   238.300    50.200    15.760
    73.000    48.190      .028   238.700    50.270    15.700
    73.050    47.820      .028   239.000    50.330    15.860
    73.100    47.550      .028   239.400    50.420    16.340
    73.150    47.300      .028   239.100    50.500    16.580
    73.200    47.270      .028   238.500    50.640    16.970
    73.250    47.300      .028   238.000    50.770    17.300
    73.300    47.310      .028   237.400    50.970    17.580
    73.350    47.320      .028   237.500    51.230    17.780
    73.400    47.310      .028   238.200    51.410    18.160
    73.450    47.240      .028   239.400    51.590    17.730
    73.500    47.160      .028   240.800    51.760    17.470
    73.550    47.080      .028   242.400    51.940    17.270
    73.600    47.000      .028   243.100    51.980    17.010
    73.650    46.950      .028   243.200    52.020    16.960
    73.700    46.940      .028   243.100    52.020    16.840
    73.750    46.980      .028   242.000    52.020    16.620
    73.800    47.190      .028   237.700    52.020    16.470
    73.850    47.520      .028   237.200    52.040    16.540
    73.900    47.810      .028   237.200    52.070    16.690
    73.950    48.040      .028   237.400    52.100    16.970
    74.000    48.190      .028   237.600    52.160    17.290
    74.050    48.260      .028   237.800    52.190    17.580
    74.100    48.290      .027   237.900    52.180    17.410
    74.150    48.320      .027   238.100    52.150    16.970
    74.200    48.320      .027   238.200    52.120    15.920
    74.250    48.320      .027   238.400    52.130    15.430
    74.300    48.360      .027   238.500    52.150    15.240
    74.350    48.430      .027   238.600    52.220    15.050
    74.400    48.640      .027   238.800    52.300    14.890
    74.450    48.870      .027   239.000    52.390    14.930
    74.500    49.130      .027   239.300    52.490    15.090
    74.550    49.250      .027   239.500    52.560    15.320
    74.600    49.360      .027   239.700    52.620    15.280
    74.650    49.420      .027   240.100    52.630    15.210
    74.700    49.480      .027   240.100    52.580    15.140
    74.750    49.550      .027   239.400    52.530    15.100
    74.800    49.630      .027   238.500    52.420    15.090
    74.850    49.700      .027   237.900    52.300    15.100
    74.900    49.930      .027   238.300    52.180    15.480
    74.950    50.180      .027   238.800    52.030    15.740
    75.000    50.430      .027   239.500    51.860    16.230
    75.050    50.730      .028   239.600    51.690    16.560
    75.100    50.970      .028   239.000    51.530    16.830
    75.150    51.210      .028   239.100    51.440    17.300
    75.200    51.560      .028   240.000    51.380    17.590
    75.250    52.050      .028   239.600    51.390    17.740
    75.300    52.600      .028   237.900    51.420    17.820
    75.350    53.040      .028   237.000    51.460    17.870
    75.400    53.580      .028   236.700    51.510    17.890
    75.450    53.910      .028   236.600    51.610    17.840
    75.500    54.210      .028   236.600    51.700    17.760
    75.550    54.490      .028   236.500    51.800    17.730
    75.600    54.730      .028   236.400    51.880    17.830
    75.650    55.010      .028   236.300    51.950    18.090
    75.700    55.360      .028   236.200    52.000    18.130
    75.750    55.610      .028   236.200    52.050    18.160
    75.800    55.860      .028   236.200    52.060    18.280
    75.850    56.100      .028   236.200    52.060    18.380
    75.900    56.280      .028   236.100    52.060    18.430
    75.950    56.440      .028   236.100    52.050    18.480
    76.000    56.490      .028   236.200    52.080    18.530
    76.050    56.400      .028   236.300    52.150    19.060
    76.100    56.200      .028   236.400    52.270    19.420
    76.150    55.990      .028   236.600    52.420    19.910
    76.200    55.730      .028   236.700    52.570    20.090
    76.250    55.450      .028   236.900    52.780    20.110
    76.300    55.070      .028   237.100    52.960    20.070
    76.350    54.740      .028   237.300    53.220    20.040
    76.400    54.420      .028   237.500    53.530    20.090
    76.450    54.210      .027   237.700    53.840    20.500
    76.500    53.980      .027   237.900    54.130    20.810
    76.550    53.750      .027   238.000    54.410    20.930
    76.600    53.410      .027   238.100    54.670    20.870
    76.650    52.990      .026   238.100    54.910    20.690
    76.700    52.230      .026   238.200    55.120    19.240
    76.750    51.480      .025   238.200    55.310    18.390
    76.800    51.000      .025   238.200    55.520    18.110
    76.850    50.510      .025   238.300    55.640    17.870
    76.900    50.140      .026   238.300    55.770    17.790
    76.950    49.900      .026   238.300    55.890    17.830
    77.000    49.850      .026   238.300    56.020    17.960
    77.050    49.880      .026   238.300    56.150    18.170
    77.100    49.920      .026   238.300    56.300    18.350
    77.150    49.920      .026   238.300    56.430    18.320
