~Version Information
 VERS.                2.0:  CWLS LOG ASCII STANDARD -VERSION 2.0
 WRAP.                 NO:  ONE LINE PER DEPTH STEP
~WELL INFORMATION BLOCK
#MNEM.UNIT       DATA		            DESCRIPTION OF MNEMONIC
#---------    -------------            ------------------------
 STRT.M      .000                        :START DEPTH
 STOP.M   #######                        :STOP DEPTH
 STEP.M      .050                        :STEP
 NULL.    -999999.0                      :NULL VALUE
 COMP.       SCHIFOOD                    :COMPANY
 WELL.                          B62B0896 :WELL
 FLD .    Hoensbroek                     :FIELD
 CNTY.                                   :COUNTY
 STAT.                                   :STATE
 SRVC.                                   :SERVICE COMPANY
 DATE.     17-JUL-90                     :LOG DATE
 UWI .                                   :UNIQUE WELL ID
 LIC .                                   :LICENSE NUMBER
~Curve Information Block
#MNEM.UNIT      API CODE     Curve Description
#---------    -------------  ------------------------
DEPTH    .M         00 000 00 00          :  1  DEPTH
SN40     .OHM.M     00 000 00 00          :  2  SN40
SP       .V         00 000 00 00          :  3  SP
CAL      .MM        00 000 00 00          :  4  CAL
LN160    .OHM.M     00 000 00 00          :  5  LN160
GAMMA    .CPS       00 000 00 00          :  6  GAMMA
~Parameter Information Block
#MNEM.UNIT   Information     Description
#---------- ---------------  ------------------------
 FILE.                         :File Type
 FIID.                         :File Type Identifier
 VERS.                         :System Version
 SER .                         :System Serial Number
 TRUK.                         :Truck Calibration Number
 TOOL.                         :Tool Serial Number
 TIME.                         :Time    HrHrMinMin
 LAT .                         :Latitude
 LON .                         :Longitude
 LMF .            MV           :LOG Measured FROM
 DMF .                         :Driller Measured From
 PD  .                         :Permanent Data
 PDEV.                         :Elevation Permanent Data
 EKB .M                        :Elevation Kelly Bushing
 ELEV.DF                       :Elevation DF
 EGL .M                        :Elevation Ground Level
 DRDP.                         :Drillers Depth
 CASD.                         :Casing Diameter
 CASB.                         :Casing Bottom
 CASX.                         :Casing Type
 CAST.                         :Casing Thickness
 TNOC.                         :Time Circulation Stopped
 LOGU.                         :Logging Unit
 RECB.            Bergsma      :Recorded By
 OSR1.                         :Other Services
 OSR2.                         :Other Services
 OSR3.                         :Other Services
 BS  .MM                       :Bit Size
 MST .                         :Mean Surface Temperature
 TGRD.                         :Temperature Gradiant
 MAGN.                         :Magnetic Declination
 MDEN.                         :Density Matrix
 MATR.                         :Neutron Matrix
 DTMT.                         :Delta T Matrix
 DTFL.                         :Delta T Fluid
 MUDS.                         :Mud Sample Source
 MRS .            6            :Mud Resistivity
 MTP .            19           :Mud Temperature
 MFRS.                         :Resistivity Mud Filtrate
 MFTP.                         :Temperature Mud Filtrate
 MCRS.                         :Resistivity Mud Cake
 MCTP.                         :Temperature Mud Cake
 FTYP.                         :Fluid Type
 FD  .K/M3                     :Fluid Density
 DFV .S                        :Fluid Viscosity
 FPH .                         :Fuild PH
 ELCO.                         :Electron Cutoff
~Other Information
#MNEM.UNIT  Information      Description
#---------- ---------------  ------------------------
# --------------------------
## COMMENTS    Top_Depth   Bot_Depth  LithCode  Lat    Long   Elev_Gl
##    Type of LithCode   Lithologie - 1970
##                    .00        6.00         .00     
##                   6.05        8.00        2.00     
##                   8.05       11.50       22.00     
##                  11.55       15.20       23.00     
##                  15.25       19.00       22.00     
##                  19.05       20.25       11.00     
##                  20.30       22.10       12.00     
##                  22.15       23.70       11.00     
##                  23.75       25.15       12.00     
##                  25.20       26.10       11.00     
##                  26.15       27.20       12.00     
##                  27.25       35.00       11.00     
##                  35.05       47.55       12.00     
##                  47.60       51.00        7.00     
##                  51.05       52.25       11.00     
##                  52.30       54.00        7.00     
##                  54.05       55.10       11.00     
##                  55.15       58.00       12.00     
##                  58.05       62.60       11.00     
##                  62.65       67.20        8.00     
##                  67.25       70.05        9.00     
##                  70.10       74.00        7.00     
##                  74.05       75.40        8.00     
##                  75.45       80.00        7.00     
##                  80.05       92.40        9.00     
##                  92.45       94.50       10.00     
##                  94.55       96.90        8.00     
##                  96.95       99.30       10.00     
##                  99.35       99.35         .00     
##    last_layer   99.35
# --------------------------
~A DEPTH    SN40     SP       CAL      LN160    GAMMA    
# ...
     6.400    24.560 -999999.0    584.000    18.390    21.680
     6.450    26.250      .159   585.000    18.410    21.890
     6.500    27.640      .157   586.000    18.710    22.060
     6.550    29.020      .155   591.400    19.000    22.190
     6.600    30.240      .151   591.500    19.270    22.300
     6.650    31.150      .148   588.800    20.550    22.350
     6.700    32.060      .144   585.400    21.840    22.410
     6.750    32.980      .141   585.300    23.120    22.550
     6.800    33.890      .137   585.900    24.400    22.680
     6.850    34.560      .134   587.700    26.060    22.730
     6.900    35.080      .131   590.500    27.980    22.730
     6.950    35.380      .127   593.000    29.890    22.690
     7.000    35.790      .124   592.200    31.810    22.660
     7.050    36.020      .121   591.000    33.330    22.710
     7.100    36.200      .118   592.700    34.930    22.770
     7.150    36.370      .115   594.400    36.530    22.840
     7.200    36.420      .112   595.100    38.130    22.970
     7.250    36.420      .110   595.000    39.720    23.140
     7.300    36.330      .107   594.500    41.000    23.300
     7.350    36.200      .105   594.000    41.930    23.550
     7.400    35.990      .102   594.700    42.850    23.640
     7.450    35.460      .099   595.600    43.770    23.740
     7.500    35.110      .097   594.400    44.700    23.810
     7.550    34.840      .094   593.200    45.400    23.910
     7.600    34.570      .092   592.600    46.010    23.990
     7.650    34.310      .090   592.800    46.620    24.110
     7.700    34.050      .089   589.500    47.230    23.900
     7.750    33.820      .088   580.800    48.020    23.840
     7.800    33.620      .087   578.800    48.900    23.970
     7.850    33.430      .085   576.800    49.480    24.160
     7.900    33.270      .084   574.000    49.930    24.330
     7.950    33.070      .083   572.300    50.390    24.310
     8.000    32.960      .082   569.500    50.910    24.050
     8.050    32.810      .081   566.700    51.420    23.890
     8.100    32.640      .080   563.400    51.640    23.580
     8.150    32.540      .079   559.200    51.710    23.500
     8.200    32.420      .078   557.100    51.720    23.560
     8.250    32.350      .077   555.200    51.700    23.590
     8.300    32.290      .076   553.400    51.650    23.590
     8.350    32.250      .075   550.700    51.550    23.550
     8.400    32.220      .074   548.900    51.450    23.500
     8.450    32.190      .073   546.900    51.320    23.580
     8.500    32.180      .072   545.700    51.190    23.660
     8.550    32.160      .071   545.100    51.060    23.810
     8.600    32.140      .071   544.800    50.890    23.930
     8.650    32.130      .070   544.900    50.880    24.060
     8.700    32.120      .070   545.600    50.800    24.210
     8.750    32.100      .069   548.300    50.720    24.210
     8.800    32.090      .069   550.200    50.620    24.190
     8.850    32.070      .068   555.000    50.430    24.170
     8.900    32.050      .068   555.300    50.280    24.090
     8.950    32.030      .068   555.100    50.190    24.010
     9.000    32.010      .068   554.700    50.100    23.900
     9.050    31.990      .067   554.200    50.010    23.830
     9.100    31.970      .067   553.600    49.920    23.790
     9.150    31.950      .067   553.000    49.830    23.810
     9.200    31.920      .067   552.600    49.750    23.920
     9.250    31.900      .067   552.500    49.690    24.100
     9.300    31.870      .066   552.500    49.640    24.310
     9.350    31.850      .066   552.600    49.590    24.370
     9.400    31.820      .066   552.800    49.550    24.290
     9.450    31.790      .066   553.000    49.510    24.150
     9.500    31.750      .066   553.300    49.490    23.930
     9.550    31.710      .066   553.700    49.470    23.760
     9.600    31.680      .066   554.100    49.450    23.600
     9.650    31.640      .066   554.500    49.410    23.540
     9.700    31.610      .066   554.900    49.380    23.620
     9.750    31.580      .066   555.300    49.340    23.740
     9.800    31.550      .066   555.700    49.320    23.920
     9.850    31.520      .066   556.000    49.290    23.990
     9.900    31.490      .066   556.500    49.270    24.180
     9.950    31.460      .066   556.700    49.240    24.160
    10.000    31.420      .066   556.700    49.220    23.900
    10.050    31.390      .066   556.300    49.200    23.620
    10.100    31.350      .066   555.100    49.180    23.520
    10.150    31.310      .066   550.900    49.170    23.580
    10.200    31.260      .066   548.900    49.140    23.690
    10.250    31.210      .066   545.000    49.120    23.820
    10.300    31.160      .066   548.300    49.090    24.010
    10.350    31.120      .065   550.900    49.040    24.220
    10.400    31.070      .065   558.000    49.000    24.470
    10.450    31.010      .065   563.400    48.950    24.550
    10.500    30.960      .065   567.000    48.900    24.510
    10.550    30.910      .065   571.200    48.850    24.280
    10.600    30.850      .065   575.200    48.800    23.900
    10.650    30.780      .065   571.700    48.750    23.720
    10.700    30.720      .065   567.200    48.690    23.640
    10.750    30.660      .064   562.600    48.640    23.580
    10.800    30.590      .064   558.100    48.590    23.540
    10.850    30.510      .064   554.200    48.530    23.440
    10.900    30.430      .064   574.000    48.430    23.360
    10.950    30.350      .064   592.600    48.330    23.280
    11.000    30.290      .064   589.100    48.230    23.230
    11.050    30.170      .064   585.600    48.140    23.210
    11.100    30.040      .063   582.100    48.040    23.190
    11.150    29.930      .063   583.900    47.900    23.190
    11.200    29.810      .063   594.300    47.760    23.200
    11.250    29.690      .063   598.100    47.620    23.220
    11.300    29.580      .063   594.700    47.490    23.270
    11.350    29.450      .063   600.400    47.370    23.320
    11.400    29.330      .063   606.600    47.250    23.410
    11.450    29.210      .063   603.300    47.120    23.530
    11.500    29.130      .063   601.200    47.020    23.650
    11.550    29.010      .063   604.600    46.900    23.760
    11.600    28.870      .063   608.200    46.800    23.840
    11.650    28.700      .063   608.800    46.700    23.870
    11.700    28.560      .063   609.500    46.590    23.870
    11.750    28.470      .063   610.500    46.510    23.860
    11.800    28.350      .063   610.900    46.420    23.840
    11.850    28.210      .063   606.900    46.310    23.830
    11.900    28.130      .063   595.300    46.240    23.780
    11.950    28.030      .062   587.700    46.150    23.620
    12.000    27.940      .062   583.000    46.090    23.480
    12.050    27.870      .062   581.800    46.030    23.180
    12.100    27.810      .062   580.600    45.950    23.070
    12.150    27.760      .062   578.000    45.890    22.820
    12.200    27.720      .062   561.300    45.820    22.720
    12.250    27.690      .062   568.900    45.760    22.800
    12.300    27.670      .062   577.800    45.690    22.990
    12.350    27.640      .062   586.700    45.620    23.130
    12.400    27.630      .062   596.000    45.560    23.230
    12.450    27.620      .062   598.800    45.490    23.260
    12.500    27.610      .062   600.800    45.430    23.270
    12.550    27.600      .062   602.000    45.380    23.290
    12.600    27.600      .062   602.000    45.320    23.320
    12.650    27.600      .062   601.000    45.260    23.350
    12.700    27.610      .062   599.500    45.210    23.440
    12.750    27.610      .061   593.400    45.150    23.630
    12.800    27.620      .061   590.100    45.100    23.720
    12.850    27.630      .061   587.600    45.050    23.750
    12.900    27.630      .061   587.300    45.010    23.780
    12.950    27.640      .061   588.800    44.970    23.780
