~Version Information Block
 VERS.                2.00:     CWLS LOG ASCII STANDARD - VERSION 2.000000
 WRAP.                  NO:     One Line Per Depth Step
#
~Well Information Block
#MNEM.UNIT                     Data                         Information
#----------   ------------------------------------------   ----------------
 STRT.M                                         0.0000:
 STOP.M                                        32.0000:
 STEP.M                                         0.0200:
 NULL.                                       -999.2500:
 COMP.                                                :     COMPANY
 WELL.                                        B62B0912:     WELL
 FLD .                                                :     FIELD
 CNTY.                                                :     COUNTY
 STAT.                                                :     STATE
 CTRY.                                                :     COUNTRY
 SRVC.                                                :     SERVICE COMPANY
 DATE.                                                :     DATE
 API .                                                :     API NUMBER
 UWI .                                                :     UWI NUMBER
#
~Curve Information Block
#MNEM.UNIT       API CODE      Curve Description
#----------    -------------   -------------------
 DEPT.M                    :   Depth in Meters
 CAL .CM                   :   Cal
 GAM(NAT) .CPS             :   GAM(NAT)
 SP  .MV                   :   SP
 SN40.OHM-M                :   SN40
 LN160.OHM-M               :   LN160
#
~Parameter Information Block
#MNEM.UNIT            Value               Description
#----------    --------------------    -------------------
 PDAT.                            :    Permanent Datum
 EPD .M                     0.0000:    Elevation Of Perm. Datum
 WSTA.                         LOC:    
 E   .M                     0.0000:    E (Stretch Coefficient Of The Cable)
 TD  .M                    32.0000:    Total Depth
#
~Other Information Block
<DescLogPlotStart>   NEURALOG PLOT DEFINITION
PLOTDEFVERSION: 3
LASFILE: D:\NeurLrest_23_04_'08en 20_05\nlg_1\B62B0912.las
DEPTHSCALE: 200.000000
RESOLUTION: 600
DEPTHLABELFREQ: 50.000000
HEAVYGRIDFREQ: 50.000000
MEDIUMGRIDFREQ: 25.000000
LIGHTGRIDFREQ: 5.000000
#
#   TRACK 1
#
STARTTRACK: 
 LEFTX: 0.500000 inch
 RIGHTX: 3.000000 inch
 SCALETYPE: LINEAR
 NUMCHARTDIVISIONS: 10
CURVE: SP    0.000000   50.000000  (0,0,255)      Solid             2     N    
ENDTRACK: 
#
#   TRACK 2
#
STARTTRACK: 
 LEFTX: 3.500000 inch
 RIGHTX: 6.000000 inch
 SCALETYPE: LINEAR
 NUMCHARTDIVISIONS: 10
CURVE: CAL   0.000000   100.000000 (0,131,131)    Solid             2     N    
ENDTRACK: 
#
#   TRACK 3
#
STARTTRACK: 
 LEFTX: 6.000000 inch
 RIGHTX: 11.000000 inch
 SCALETYPE: LINEAR
 NUMCHARTDIVISIONS: 10
CURVE: SN40  0.000000   100.000000 (255,0,255)    Solid             2     N    
CURVE: LN160  0.000000   100.000000 (255,0,0)      Dot               2     N    
ENDTRACK: 
#
#   TRACK 4
#
STARTTRACK: 
 LEFTX: 11.000000 inch
 RIGHTX: 16.000000 inch
 SCALETYPE: LINEAR
 NUMCHARTDIVISIONS: 10
CURVE: GAM(NAT)   0.000000   50.000000  (255,131,0)    Solid             2     N    
ENDTRACK: 
<DescLogPlotEnd>
~A  DEPTH        CAL               GAM(NAT)         SP                SN40            LN160  
# ...
      13.640      29.80510753      15.05277311    -999.25000000    -999.25000000    -999.25000000
      13.660      29.80510753      15.08403361    -999.25000000    -999.25000000    -999.25000000
      13.680      29.80510753      15.08403361    -999.25000000    -999.25000000    -999.25000000
      13.700      29.80510753      15.13642762    -999.25000000    -999.25000000    -999.25000000
      13.720      29.80510753      15.53678263    -999.25000000    -999.25000000    -999.25000000
      13.740      29.80510753      15.93713764    -999.25000000    -999.25000000    -999.25000000
      13.760      29.80510753      16.33749265    -999.25000000    -999.25000000    -999.25000000
      13.780      29.80510753      16.73784766    -999.25000000    -999.25000000    -999.25000000
      13.800      29.80510753      17.13820266      38.05443548    -999.25000000    -999.25000000
      13.820      29.62196497      17.53855767      38.05443548    -999.25000000    -999.25000000
      13.840      29.40188172      17.93891268      38.76330428    -999.25000000    -999.25000000
      13.860      29.40188172      18.33926769      39.54409036    -999.25000000    -999.25000000
      13.880      28.52822581      18.73962270      40.32487643    -999.25000000    -999.25000000
      13.900      28.52822581      19.13997771      41.10566250    -999.25000000    -999.25000000
      13.920      28.52822581      19.54033272      41.88644858    -999.25000000    -999.25000000
      13.940      28.52822581      19.63873136      42.66723465    -999.25000000    -999.25000000
      13.960      28.52822581      19.66210897      43.44802072    -999.25000000    -999.25000000
      13.980      28.71008765      18.96210355      44.22880680    -999.25000000    -999.25000000
      14.000      28.97469805      19.90525888      44.57325269    -999.25000000    -999.25000000
      14.020      29.23930846      21.15767055      44.57325269    -999.25000000    -999.25000000
      14.040      29.50391886      22.13409976      45.61927680    -999.25000000    -999.25000000
      14.060      29.76852927      22.69868962      45.69977020    -999.25000000    -999.25000000
      14.080      30.03313967      23.26327948      45.78026361    -999.25000000    -999.25000000
      14.100      30.29775007      23.82786934      48.37029570    -999.25000000    -999.25000000
      14.120      30.56236048      24.39245920      48.37029570    -999.25000000    -999.25000000
      14.140      30.82697088      24.95704906      48.37029570    -999.25000000    -999.25000000
      14.160      31.09158129      25.52163893      48.37029570    -999.25000000    -999.25000000
      14.180      31.35619169      26.08622879      48.37029570    -999.25000000    -999.25000000
      14.200      31.62080209      26.66306587      48.77352151    -999.25000000    -999.25000000
      14.220      31.88541250      27.56386464      48.73991935    -999.25000000    -999.25000000
      14.240      32.15002290      28.46466341      48.65188172    -999.25000000    -999.25000000
      14.260      32.41463331      29.36546218      47.69825269    -999.25000000    -999.25000000
      14.280      32.67924371      30.26626096      47.69825269    -999.25000000    -999.25000000
      14.300      33.07129437      31.15876660      47.41599462    -999.25000000    -999.25000000
      14.320      33.63028385      31.58672974      46.60058966    -999.25000000    -999.25000000
      14.340      34.18927333      32.01469287      46.48649410    -999.25000000    -999.25000000
      14.360      34.74826280      32.44265600      44.46394814    -999.25000000    -999.25000000
      14.380      35.30725228      32.87061914      42.85954301    -999.25000000    -999.25000000
      14.400      35.86624176      33.29858227      42.60080645    -999.25000000    -999.25000000
      14.420      36.42523124      33.72654541      41.81787634    -999.25000000    -999.25000000
      14.440      36.98422072      34.15450854      41.81787634    -999.25000000    -999.25000000
      14.460      37.54321020      34.58247167      40.54099462    -999.25000000    -999.25000000
      14.480      38.10219968      34.73109244      40.54099462    -999.25000000    -999.25000000
      14.500      38.66118915      34.73109244      40.54099462    -999.25000000    -999.25000000
      14.520      39.22017863      34.57855722      39.17746531    -999.25000000    -999.25000000
      14.540      39.77916811      34.30691114      38.71382327    -999.25000000    -999.25000000
      14.560      40.33815759      34.03526506      38.25018123    -999.25000000    -999.25000000
      14.580      40.89714707      33.76361898      37.78653920    -999.25000000    -999.25000000
      14.600      41.45613655      33.49197289      37.32289716    -999.25000000    -999.25000000
      14.620      42.01512603      33.22032681      36.85925512    -999.25000000    -999.25000000
      14.640      42.57411550      32.94868073      36.39561308    -999.25000000    -999.25000000
      14.660      43.13310498      32.67703464      35.93197104    -999.25000000    -999.25000000
      14.680      42.89417129      32.40538856      35.46832900    -999.25000000    -999.25000000
      14.700      42.27605793      32.13374248      35.00468696    -999.25000000    -999.25000000
      14.720      41.65794456      31.89075630      34.54104492    -999.25000000    -999.25000000
      14.740      41.03983119      31.89075630      33.77441756    -999.25000000    -999.25000000
      14.760      40.42171783      31.87996050      32.94265233    -999.25000000    -999.25000000
      14.780      39.80360446      31.12506912      32.37567204    -999.25000000    -999.25000000
      14.800      39.18549110      30.37017775      32.37567204    -999.25000000    -999.25000000
      14.820      38.05697190      29.61528637      32.02226413    -999.25000000    -999.25000000
      14.840      34.53641317      28.86039500      31.67173951    -999.25000000    -999.25000000
      14.860      31.01585443      28.10550362      31.59124610    -999.25000000    -999.25000000
      14.880      29.87231183      27.37266106      31.09879032    -999.25000000    -999.25000000
      14.900      29.87231183      26.75650131      31.09879032    -999.25000000    -999.25000000
      14.920      29.46908602      26.14034156      31.09879032    -999.25000000    -999.25000000
      14.940      29.46908602      25.52418180      29.85551075    -999.25000000    -999.25000000
      14.960      29.46908602      24.90802205      29.85551075    -999.25000000    -999.25000000
      14.980      29.46908602      24.29186229      29.68676292    -999.25000000    -999.25000000
      15.000      29.46908602      23.67570254      29.62029570    -999.25000000    -999.25000000
      15.020      28.99865591      23.05954278      29.62029570    -999.25000000    -999.25000000
      15.040      28.99865591      22.44338303      29.62029570    -999.25000000    -999.25000000
      15.060      28.99865591      21.82722328      29.62029570    -999.25000000    -999.25000000
      15.080      28.99865591      21.21917774      29.96551366    -999.25000000    -999.25000000
      15.100      28.99865591      20.66999187      31.15566622    -999.25000000    -999.25000000
      15.120      28.96029443      20.12080600      32.34581878    -999.25000000    -999.25000000
      15.140      28.73702940      19.62624499      33.53597133    -999.25000000    -999.25000000
      15.160      28.51376437      19.16635764      34.72612389    -999.25000000    -999.25000000
      15.180      28.29049935      18.70647029      35.91627645    -999.25000000    -999.25000000
      15.200      28.06723432      18.24658293      36.96761367    -999.25000000    -999.25000000
      15.220      27.84396929      17.78669558      37.84633339    -999.25000000    -999.25000000
      15.240      27.78897849      17.32680823      38.72505311    -999.25000000    -999.25000000
      15.260      27.78897849      16.86692088      39.60377284    -999.25000000    -999.25000000
