~Version Information
 VERS.                2.0:  CWLS LOG ASCII STANDARD -VERSION 2.0
 WRAP.                 NO:  ONE LINE PER DEPTH STEP
~WELL INFORMATION BLOCK
#MNEM.UNIT       DATA		            DESCRIPTION OF MNEMONIC
#---------    -------------            ------------------------
 STRT.M      .150                        :START DEPTH
 STOP.M   #######                        :STOP DEPTH
 STEP.M      .050                        :STEP
 NULL.    -999999.0                      :NULL VALUE
 COMP.       SOFTDR                      :COMPANY
 WELL.                          B62B0927 :WELL
 FLD .    Heerlen                        :FIELD
 CNTY.                                   :COUNTY
 STAT.                                   :STATE
 SRVC.                                   :SERVICE COMPANY
 DATE.     29-MAY-97                     :LOG DATE
 UWI .                                   :UNIQUE WELL ID
 LIC .                                   :LICENSE NUMBER
~Curve Information Block
#MNEM.UNIT      API CODE     Curve Description
#---------    -------------  ------------------------
DEPTH    .M         00 000 00 00          :  1  DEPTH
GAM(NAT) .CPS       00 000 00 00          :  2  GAM(NAT)
SP       .V         00 000 00 00          :  3  SP
RES(16N) .OHM.M     00 000 00 00          :  4  RES(16N)
RES(64N) .OHM.M     00 000 00 00          :  5  RES(64N)
RES      .OHM       00 000 00 00          :  6  RES
~Parameter Information Block
#MNEM.UNIT   Information     Description
#---------- ---------------  ------------------------
 FILE.                         :File Type
 FIID.                         :File Type Identifier
 VERS.                         :System Version
 SER .                         :System Serial Number
 TRUK.                         :Truck Calibration Number
 TOOL.                         :Tool Serial Number
 TIME.                         :Time    HrHrMinMin
 LAT .                         :Latitude
 LON .                         :Longitude
 LMF .            MV           :LOG Measured FROM
 DMF .                         :Driller Measured From
 PD  .                         :Permanent Data
 PDEV.                         :Elevation Permanent Data
 EKB .M                        :Elevation Kelly Bushing
 ELEV.DF                       :Elevation DF
 EGL .M                        :Elevation Ground Level
 DRDP.                         :Drillers Depth
 CASD.                         :Casing Diameter
 CASB.                         :Casing Bottom
 CASX.                         :Casing Type
 CAST.                         :Casing Thickness
 TNOC.                         :Time Circulation Stopped
 LOGU.                         :Logging Unit
 RECB.            Bergsma      :Recorded By
 OSR1.                         :Other Services
 OSR2.                         :Other Services
 OSR3.                         :Other Services
 BS  .MM                       :Bit Size
 MST .                         :Mean Surface Temperature
 TGRD.                         :Temperature Gradiant
 MAGN.                         :Magnetic Declination
 MDEN.                         :Density Matrix
 MATR.                         :Neutron Matrix
 DTMT.                         :Delta T Matrix
 DTFL.                         :Delta T Fluid
 MUDS.                         :Mud Sample Source
 MRS .                         :Mud Resistivity
 MTP .                         :Mud Temperature
 MFRS.                         :Resistivity Mud Filtrate
 MFTP.                         :Temperature Mud Filtrate
 MCRS.                         :Resistivity Mud Cake
 MCTP.                         :Temperature Mud Cake
 FTYP.                         :Fluid Type
 FD  .K/M3                     :Fluid Density
 DFV .S                        :Fluid Viscosity
 FPH .                         :Fuild PH
 ELCO.                         :Electron Cutoff
~Other Information
#MNEM.UNIT  Information      Description
#---------- ---------------  ------------------------
# --------------------------
## COMMENTS    Top_Depth   Bot_Depth  LithCode  Lat    Long   Elev_Gl
##    Type of LithCode   Lithologie - 1970
##                    .15        3.55       62.00     
##                   3.55        5.50        2.00     
##                   5.50        8.70       26.00     
##                   8.70       15.10       63.00     
##                  15.10       19.15       26.00     
##                  19.15       20.70       43.00     
##                  20.70       22.60       26.00     
##                  22.60       30.05       63.00     
##                  30.05       30.85       26.00     
##                  30.85       52.70       63.00     
##                  52.70       54.00       26.00     
##                  54.00       58.15       63.00     
##                  58.15       59.85       26.00     
##                  59.85       66.75       63.00     
##                  66.75       70.35       26.00     
##                  70.35       72.25       63.00     
##                  72.25       73.10       26.00     
##                  73.10       74.40       63.00     
##                  74.40       75.15       26.00     
##                  75.15       75.95       63.00     
##                  75.95       76.75       26.00     
##                  76.75       77.40       63.00     
##                  77.40       78.20       26.00     
##                  78.20       79.70       63.00     
##                  79.70       80.75       26.00     
##                  80.75       81.70       58.00     
##                  81.70       83.15       26.00     
##                  83.15       84.95       58.00     
##                  84.95       87.35       22.00     
##                  87.35       88.60       23.00     
##                  88.60       89.30       58.00     
##                  89.30       91.10       23.00     
##                  91.10       92.35       58.00     
##                  92.35       94.30       23.00     
##                  94.30       99.05       26.00     
##                  99.05      100.50       23.00     
##                 100.50      103.10       26.00     
##                 103.10      105.80       40.00     
##                 105.80      107.05       43.00     
##                 107.05      110.35       57.00     
##                 110.35      112.35       15.00     
##                 112.35      116.10       63.00     
##                 116.10      120.45       32.00     
##                 120.45      121.95       63.00     
##                 121.95      122.70       12.00     
##                 122.70      124.70       15.00     
##                 124.70      127.95       19.00     
##                 127.95      129.55       58.00     
##                 129.55      130.60       38.00     
##                 130.60      132.70       57.00     
##                 132.70      133.60       59.00     
##                 133.60      135.20       57.00     
##                 135.20      135.85       59.00     
##                 135.85      136.50       57.00     
##                 136.50      137.30       58.00     
##    last_layer   137.3
##    Type of LithCode   Lithologie - 1970
##                   1.90        2.15       87.00     
##                   2.15        3.90       84.00     
##                   3.90        4.25       85.00     
##                   4.25       21.95         .00     
##                  21.95       22.35       87.00     
##                  22.35       24.95       84.00     
##                  24.95       25.30       85.00     
##                  25.30       37.95         .00     
##                  37.95       38.25       87.00     
##                  38.25       40.95       84.00     
##                  40.95       41.20       85.00     
##                  41.20       42.00         .00     
##                  42.00       44.95       74.00     
##                  44.95       46.95         .00     
##                  46.95       47.25       87.00     
##                  47.25       50.90       84.00     
##                  50.90       51.20       85.00     
##                  51.20       59.95         .00     
##                  59.95       60.35       87.00     
##                  60.35       62.95       84.00     
##                  62.95       63.25       85.00     
##                  63.25       76.90         .00     
##                  76.90       77.15       87.00     
##                  77.15       80.00       84.00     
##                  80.00       80.35       85.00     
##                  80.35      106.95         .00     
##                 106.95      107.25       87.00     
##                 107.25      115.45       84.00     
##                 115.45      115.80       85.00     
##                 115.80      116.40         .00     
##                 116.40      117.40       77.00     
##                 117.40      119.40       80.00     
##                 119.40      120.45       77.00     
##                 120.45      121.90         .00     
##                 121.90      122.35       87.00     
##                 122.35      127.90       84.00     
##                 127.90      128.30       85.00     
##                 128.30      130.95         .00     
##                 130.95      131.25       87.00     
##                 131.25      133.95       84.00     
##                 133.95      134.15       85.00     
##    last_layer   134.15
# --------------------------
~A DEPTH    GAM(NAT) SP       RES(16N) RES(64N) RES      
# ...
    59.450    42.700      .048    22.400    21.600   213.900
    59.500    64.700      .049    22.600    21.800   211.700
    59.550    67.400      .050    22.600    22.000   207.000
    59.600    56.300      .050    22.500    22.100   201.700
    59.650    46.000      .050    22.200    22.200   198.000
    59.700    59.600      .050    21.500    22.400   197.800
    59.750    61.600      .049    20.400    22.500   199.000
    59.800    46.300      .049    19.500    22.600   200.200
    59.850    44.800      .049    19.000    22.600   200.900
    59.900    53.700      .050    18.700    22.700   200.900
    59.950    66.500      .050    18.700    22.800   200.500
    60.000    67.900      .049    18.700    22.900   199.400
    60.050    45.000      .049    18.800    23.000   196.800
    60.100    66.100      .049    19.000    23.100   194.100
    60.150    64.000      .050    19.200    23.200   192.500
    60.200    57.400      .050    19.100    23.400   192.000
    60.250    55.800      .050    18.700    23.600   191.600
    60.300    59.500      .051    18.500    23.700   190.900
    60.350    57.600      .051    18.200    23.700   190.300
    60.400    68.100      .051    18.000    23.600   189.900
    60.450    69.700      .051    17.800    23.500   189.400
    60.500    77.100      .052    17.500    23.500   189.100
    60.550    78.200      .054    17.300    23.400   188.800
    60.600    78.600      .054    17.100    23.400   188.800
    60.650    69.600      .053    17.000    23.400   189.700
    60.700    65.400      .052    16.900    23.500   190.700
    60.750    77.200      .052    16.900    23.500   190.500
    60.800    58.000      .052    17.000    23.500   189.700
    60.850    61.800      .052    17.200    23.400   189.000
    60.900    72.300      .054    17.300    23.400   188.600
    60.950    52.200      .055    17.300    23.400   187.500
    61.000    67.500      .055    17.200    23.400   186.600
    61.050    58.300      .055    17.200    23.400   186.400
    61.100    56.300      .054    17.100    23.400   187.000
    61.150    73.800      .054    17.000    23.300   187.900
    61.200    71.200      .054    16.900    23.300   189.000
    61.250    43.500      .053    16.800    23.300   189.600
    61.300    72.800      .053    16.900    23.200   190.000
    61.350    69.800      .053    16.900    23.100   191.500
    61.400    71.100      .052    16.900    23.000   192.900
    61.450    74.800      .052    16.800    23.000   193.700
    61.500    51.200      .052    16.800    23.000   193.900
    61.550    49.900      .054    16.900    22.900   194.200
    61.600    61.100      .055    17.100    22.800   194.000
    61.650    60.900      .055    17.300    22.700   194.400
    61.700    55.800      .054    17.500    22.700   195.000
    61.750    52.600      .055    17.800    22.600   193.100
    61.800    66.300      .055    18.000    22.500   189.500
    61.850    61.900      .053    18.100    22.400   188.500
    61.900    52.900      .052    18.200    22.300   188.500
    61.950    58.700      .051    18.000    22.200   189.000
    62.000    81.500      .050    17.600    22.200   190.400
    62.050    74.300      .050    17.400    22.300   192.000
    62.100    70.900      .050    17.300    22.400   193.400
    62.150    59.800      .050    17.300    22.500   194.400
    62.200    58.300      .050    17.300    22.600   196.300
    62.250    51.000      .050    17.500    22.700   197.200
    62.300    51.500      .050    17.700    22.900   197.500
    62.350    79.200      .050    18.000    23.000   197.700
    62.400    64.900      .050    18.200    23.100   197.400
    62.450    43.200      .050    18.300    23.200   197.200
    62.500    56.000      .050    18.200    23.200   197.000
    62.550    75.500      .051    17.800    23.300   196.700
    62.600    53.100      .051    17.600    23.200   196.000
    62.650    64.600      .051    17.600    23.000   195.600
    62.700    70.000      .050    17.700    22.900   195.500
    62.750    95.400      .051    17.900    22.800   195.800
    62.800    82.000      .051    18.100    22.700   196.800
    62.850    71.400      .051    18.500    22.700   195.000
    62.900    62.700      .053    19.100    22.600   191.400
    62.950    65.700      .054    19.800    22.600   189.400
    63.000    87.700      .054    20.200    22.500   188.900
    63.050    58.000      .054    20.000    22.500   188.800
    63.100    48.800      .053    19.900    22.400   188.900
    63.150    60.700      .053    19.900    22.400   189.600
    63.200    81.000      .052    19.700    22.400   190.900
    63.250    62.400      .051    19.700    22.500   192.500
    63.300    49.900      .050    19.600    22.600   195.000
    63.350    63.300      .050    19.600    22.700   197.600
    63.400    55.500      .049    19.700    22.800   199.900
    63.450    58.900      .049    19.900    22.900   202.900
    63.500    59.700      .048    20.100    22.900   206.100
    63.550    65.200      .049    20.200    23.000   208.600
    63.600    65.100      .049    20.400    23.100   209.800
    63.650    54.800      .049    20.500    23.000   209.200
    63.700    55.800      .049    20.600    22.900   208.800
    63.750    51.600      .049    20.500    22.800   209.100
    63.800    39.500      .049    20.200    22.700   208.600
    63.850    67.300      .049    20.200    22.700   208.700
    63.900    43.100      .050    20.400    22.600   208.500
    63.950    42.900      .050    20.800    22.600   207.700
    64.000    65.000      .051    21.400    22.700   205.900
    64.050    65.200      .051    22.000    22.700   203.100
    64.100    59.400      .052    22.400    22.700   199.400
    64.150    75.200      .053    22.500    22.700   194.700
    64.200    82.100      .055    22.400    22.800   192.400
    64.250    78.300      .056    22.100    22.900   192.300
    64.300    58.000      .056    21.400    23.100   193.300
    64.350    68.400      .056    20.800    23.300   196.300
    64.400    58.800      .056    20.500    23.600   199.600
    64.450    57.500      .056    20.500    23.900   201.200
    64.500    58.700      .054    20.700    24.200   202.500
    64.550    75.400      .052    21.000    24.500   202.900
    64.600    51.100      .051    21.300    24.800   201.000
    64.650    66.800      .051    21.600    25.200   198.400
    64.700    62.300      .051    21.500    25.400   197.000
    64.750    54.500      .050    21.300    25.600   196.800
    64.800    55.900      .050    20.900    25.700   197.100
    64.850    77.400      .050    20.400    25.700   197.700
    64.900    72.200      .050    19.900    25.600   199.600
    64.950    66.200      .050    19.600    25.400   201.700
    65.000    55.900      .050    19.500    25.300   202.000
    65.050    60.800      .051    19.700    25.100   201.300
    65.100    78.800      .051    20.000    25.000   200.900
    65.150    63.000      .050    20.400    25.000   200.400
    65.200    90.500      .050    20.800    25.000   198.000
    65.250    72.200      .050    21.400    25.100   195.000
    65.300    70.800      .050    21.900    25.200   193.800
    65.350    69.700      .050    22.000    25.200   193.300
    65.400    78.200      .049    21.800    25.300   192.600
    65.450    83.800      .049    21.500    25.400   192.300
    65.500    84.400      .049    21.300    25.500   192.700
    65.550    27.400      .048    21.000    25.600   194.700
    65.600    73.100      .048    20.700    25.700   199.700
    65.650    61.500      .048    20.400    25.800   206.200
    65.700    66.100      .048    20.400    25.900   208.500
    65.750    49.700      .048    20.900    26.000   208.800
    65.800    64.900      .048    21.700    26.100   209.900
    65.850    64.400      .048    22.200    26.200   211.200
    65.900    72.100      .048    22.500    26.300   211.600
    65.950    52.300      .048    23.000    26.300   211.400
    66.000    64.400      .048    23.300    26.200   210.300
