~Version Information Block
 VERS.                2.00:     CWLS LOG ASCII STANDARD - VERSION 2.000000
 WRAP.                  NO:     One Line Per Depth Step
#
~Well Information Block
#MNEM.UNIT                     Data                         Information
#----------   ------------------------------------------   ----------------
 STRT.M                                         0.0000:
 STOP.M                                       140.0000:
 STEP.M                                         0.2000:
 NULL.                                       -999.2500:
 COMP.                                                :     COMPANY
 WELL.   B62B0894                                     :     WELL
 FLD .                                                :     FIELD
 CNTY.                                                :     COUNTY
 STAT.                                                :     STATE
 CTRY.                                                :     COUNTRY
 SRVC.                                                :     SERVICE COMPANY
 DATE.                                                :     DATE
 API .                                                :     API NUMBER
 UWI .                                                :     UWI NUMBER
#
~Curve Information Block
#MNEM.UNIT       API CODE      Curve Description
#----------    -------------   -------------------
 DEPT.M                    :   Depth in Meters
 CALIPER.CM                :   Caliper
 GAM(NAT) .CPS             :   GAM(NAT)
#
~Parameter Information Block
#MNEM.UNIT            Value               Description
#----------    --------------------    -------------------
 PDAT.                            :    Permanent Datum
 EPD .M                     0.0000:    Elevation Of Perm. Datum
 WSTA.                         LOC:    
 E   .M                     0.0000:    E (Stretch Coefficient Of The Cable)
 TD  .M                   140.0000:    Total Depth
#
~Other Information Block
<DescLogPlotStart>   NEURALOG PLOT DEFINITION
PLOTDEFVERSION: 3
LASFILE: \\tsn.tno.nl\KG-Data\BENO\nitg\benonas01\j6b2\p62510\01.43 GO-20 Archi
DEPTHSCALE: 480.000000
RESOLUTION: 600
DEPTHLABELFREQ: 50.000000
HEAVYGRIDFREQ: 50.000000
MEDIUMGRIDFREQ: 25.000000
LIGHTGRIDFREQ: 5.000000
#
#   TRACK 1
#
STARTTRACK: 
 LEFTX: 0.380833 inch
 RIGHTX: 2.880833 inch
 SCALETYPE: LINEAR
 NUMCHARTDIVISIONS: 10
CURVE: CALIPER  0.000000   60.000000  (0,0,255)      Solid             2     N    
ENDTRACK: 
#
#   TRACK 2
#
STARTTRACK: 
 LEFTX: 3.619167 inch
 RIGHTX: 8.619167 inch
 SCALETYPE: LINEAR
 NUMCHARTDIVISIONS: 10
CURVE: GAM(NAT)   0.000000   50.000000  (0,131,131)    Solid             2     N    
ENDTRACK: 
<DescLogPlotEnd>
~A  DEPTH         CALIPER          GAM(NAT)  
       0.000      -999.2500      -999.2500
       0.200      -999.2500      -999.2500
       0.400      -999.2500      -999.2500
       0.600      -999.2500      -999.2500
       0.800      -999.2500     -999.2500
       1.000      -999.2500      -999.2500
       1.200      -999.2500      22.03119758
       1.400      -999.2500      22.13183495
       1.600      -999.2500      21.93056021
       1.800      -999.2500      18.32848517
       2.000      -999.2500      17.01237877
       2.200      -999.2500      16.36569703
       2.400      -999.2500      17.43250108
       2.600      -999.2500      17.12857622
       2.800     -999.2500      16.89869171
       3.000      -999.2500      17.25403748
       3.200      28.02000000      18.18421431
       3.400      28.02000000      18.81983515
       3.600      28.02000000      20.13586045
       3.800      28.02000000      20.45454545
       4.000      28.02000000      21.98159774
       4.200      28.02000000      22.34988259
       4.400      28.02000000      22.64201850
       4.600      28.02000000      22.65179470
       4.800      28.02000000      21.66013322
       5.000      28.02000000      21.61187521
       5.200      28.02000000      21.29319020
       5.400      28.02000000      20.55518282
       5.600      28.02000000      21.37439682
       5.800      28.02000000      22.36438654
       6.000      28.02000000      23.35437625
       6.200      28.02000000      23.32025099
       6.400      28.02000000      21.97739756
       6.600      28.02000000      20.63454413
       6.800      28.02000000      19.51526333
       7.000      28.02000000      19.61590070
       7.200      28.02000000      19.93458571
       7.400      28.02000000      19.93458571
       7.600      28.02000000      19.75008386
       7.800      28.02000000      19.36528969
       8.000      28.02000000      18.41807639
       8.200      28.02000000      17.96980160
       8.400      28.02000000      17.38846025
       8.600      28.02000000      16.98255619
       8.800      28.02000000      16.30651268
       9.000      28.02000000      16.84094503
       9.200      28.02000000      16.78640384
       9.400      28.02000000      17.17920640
       9.600      28.02000000      17.72693727
       9.800      28.02000000      17.82673599
      10.000      28.02000000      17.56122107
      10.200      28.02000000      18.11732640
      10.400      28.02000000      19.16303254
      10.600      28.02000000      19.99638185
      10.800      28.02000000      20.03349787
      11.000      28.02000000      19.58235491
      11.200      28.02000000      19.71791345
      11.400      28.02000000      19.75008386
      11.600      28.02000000      19.61590070
      11.800      28.02000000      19.89095222
      12.000      28.02000000      19.55096564
      12.200      28.02000000      18.44591939
      12.400      28.02000000      17.59414386
      12.600      28.02000000      17.30291848
      12.800      28.02000000      16.84837303
      13.000      28.02000000      17.20060382
      13.200      28.02000000      18.78240763
      13.400      28.02000000      19.59912781
      13.600      28.02000000      19.59912781
      13.800      28.34000000      18.24052331
      14.000      28.34000000      18.02247568
      14.200      28.24181818      16.88191882
      14.400      28.34000000      17.18383093
      14.600      28.34000000      17.46865865
      14.800      28.34000000      16.03675660
      15.000      28.30000000      15.82522643
      15.200      28.16750000      16.55590166
      15.400      28.31000000      15.92586380
      15.600      28.34000000      15.73101069
      15.800      28.34000000      16.15584416
      16.000      28.28000000      16.56323381
      16.200      28.34000000      16.66387118
      16.400      28.34000000      16.85191930
      16.600      28.30000000      17.92183831
      16.800      28.34000000      17.30124119
      17.000      28.30000000      17.72056357
      17.200      28.22600000      17.08798581
      17.400      28.34000000      16.25173719
      17.600      28.36000000      15.72458906
      17.800      28.70000000      16.34518618
      18.000      28.46000000      17.30028274
      18.200      28.34000000      16.66387118
      18.400      28.34000000      16.04327407
      18.600      28.34000000      16.31961949
      18.800      28.30000000      16.98255619
      19.000      28.30000000      17.18383093
      19.200      28.25000000      17.60315330
      19.400      28.34000000      17.60315330
      19.600      28.34000000      18.44179805
      19.800      28.34000000      19.17980543
      20.000      28.30000000      18.44179805
      20.200      28.31000000      21.17577994
      20.400      28.33375000      20.85709493
      20.600      28.34000000      21.04502324
      20.800      28.30000000      21.69573968
      21.000      28.34000000      22.04461590
      21.200      28.34000000      22.53438443
      21.400      28.34000000      23.62984275
      21.600      28.34000000      25.33220601
      21.800      28.34000000      26.30828581
      22.000      28.34000000      24.11103656
      22.200      28.29600000      23.27239181
      22.400      28.42000000      24.11103656
      22.600      28.62000000      24.98198112
      22.800      28.34000000      25.81190396
      23.000      28.34000000      27.21034237
      23.200      28.34000000      27.78430057
      23.400      28.34000000      28.72358269
      23.600      28.34000000      29.98154982
      23.800      28.34000000      29.98154982
      24.000      28.32000000      29.98154982
      24.200      28.37636364      27.99619016
      24.400      28.34181818      26.40892318
      24.600      28.34000000      23.79235156
      24.800      28.34000000      23.69171419
      25.000      28.38000000      21.68555614
      25.200      28.42400000      20.78866152
      25.400      28.37840000      17.72983658
      25.600      28.34000000      18.49297935
      25.800      28.34000000      19.59912781
      26.000      28.34000000      19.91781281
      26.200      28.22000000      20.33713519
      26.400      28.36000000      20.11908755
      26.600      28.34000000      20.01845018
      26.800      28.36000000      19.81717544
      27.000      28.34000000      19.47608664
      27.200      28.42600000      17.90185460
      27.400      28.46000000      19.17980543
      27.600      28.34000000      19.59912781
      27.800      28.34000000      19.07916806
      28.000      28.34000000      19.47668568
      28.200      28.37600000      20.53840993
      28.400      28.34000000      21.07514257
      28.600      28.34000000      21.24088273
      28.800      28.36000000      20.95773230
      29.000      28.34000000      21.07514257
      29.200      28.22000000      21.60229070
      29.400      28.35600000      20.85709493
      29.600      28.34000000      21.36838070
      29.800      28.30000000      21.59510231
      30.000      28.18000000      21.36267791
      30.200      28.37000000      20.52163703
      30.400      28.27500000      20.73968467
      30.600      28.26000000      20.94095941
      30.800      28.26000000      21.05836967
      31.000      28.34000000      21.05836967
      31.200      28.44800000      20.76115398
      31.400      28.38000000      18.53673264
      31.600      28.38000000      18.00570278
      31.800      28.38000000      18.50359419
      32.000      28.36000000      18.35494764
      32.200      28.50000000      15.76386344
      32.400      28.34888889      14.13116404
      32.600      28.26000000      13.64578042
      32.800      28.26000000      13.19188192
      33.000      28.26000000      13.24435712
      33.200      28.26000000      13.66142713
      33.400      28.30000000      14.65234581
      33.600      28.28000000      14.91848373
      33.800      28.26000000      15.07044616
      34.000      28.26000000      15.38913116
      34.200      28.30000000      15.80845354
