~Version Information Block
 VERS.                2.00:     CWLS LOG ASCII STANDARD - VERSION 2.000000
 WRAP.                  NO:     One Line Per Depth Step
#
~Well Information Block
#MNEM.UNIT                     Data                         Information
#----------   ------------------------------------------   ----------------
 STRT.M                                         0.0000:
 STOP.M                                        32.0000:
 STEP.M                                         0.0200:
 NULL.                                       -999.2500:
 COMP.                                                :     COMPANY
 WELL.                                        B62B0912:     WELL
 FLD .                                                :     FIELD
 CNTY.                                                :     COUNTY
 STAT.                                                :     STATE
 CTRY.                                                :     COUNTRY
 SRVC.                                                :     SERVICE COMPANY
 DATE.                                                :     DATE
 API .                                                :     API NUMBER
 UWI .                                                :     UWI NUMBER
#
~Curve Information Block
#MNEM.UNIT       API CODE      Curve Description
#----------    -------------   -------------------
 DEPT.M                    :   Depth in Meters
 CAL .CM                   :   Cal
 GAM(NAT) .CPS             :   GAM(NAT)
 SP  .MV                   :   SP
 SN40.OHM-M                :   SN40
 LN160.OHM-M               :   LN160
#
~Parameter Information Block
#MNEM.UNIT            Value               Description
#----------    --------------------    -------------------
 PDAT.                            :    Permanent Datum
 EPD .M                     0.0000:    Elevation Of Perm. Datum
 WSTA.                         LOC:    
 E   .M                     0.0000:    E (Stretch Coefficient Of The Cable)
 TD  .M                    32.0000:    Total Depth
#
~Other Information Block
<DescLogPlotStart>   NEURALOG PLOT DEFINITION
PLOTDEFVERSION: 3
LASFILE: D:\NeurLrest_23_04_'08en 20_05\nlg_1\B62B0912.las
DEPTHSCALE: 200.000000
RESOLUTION: 600
DEPTHLABELFREQ: 50.000000
HEAVYGRIDFREQ: 50.000000
MEDIUMGRIDFREQ: 25.000000
LIGHTGRIDFREQ: 5.000000
#
#   TRACK 1
#
STARTTRACK: 
 LEFTX: 0.500000 inch
 RIGHTX: 3.000000 inch
 SCALETYPE: LINEAR
 NUMCHARTDIVISIONS: 10
CURVE: SP    0.000000   50.000000  (0,0,255)      Solid             2     N    
ENDTRACK: 
#
#   TRACK 2
#
STARTTRACK: 
 LEFTX: 3.500000 inch
 RIGHTX: 6.000000 inch
 SCALETYPE: LINEAR
 NUMCHARTDIVISIONS: 10
CURVE: CAL   0.000000   100.000000 (0,131,131)    Solid             2     N    
ENDTRACK: 
#
#   TRACK 3
#
STARTTRACK: 
 LEFTX: 6.000000 inch
 RIGHTX: 11.000000 inch
 SCALETYPE: LINEAR
 NUMCHARTDIVISIONS: 10
CURVE: SN40  0.000000   100.000000 (255,0,255)    Solid             2     N    
CURVE: LN160  0.000000   100.000000 (255,0,0)      Dot               2     N    
ENDTRACK: 
#
#   TRACK 4
#
STARTTRACK: 
 LEFTX: 11.000000 inch
 RIGHTX: 16.000000 inch
 SCALETYPE: LINEAR
 NUMCHARTDIVISIONS: 10
CURVE: GAM(NAT)   0.000000   50.000000  (255,131,0)    Solid             2     N    
ENDTRACK: 
<DescLogPlotEnd>
~A  DEPTH        CAL               GAM(NAT)         SP                SN40            LN160  
# ...
      20.200      28.32661290      18.36134454      29.48794658      45.73109244      51.41176471
      20.220      28.32661290      18.36134454      29.38499393      45.73109244      51.15739496
      20.240      28.32661290      18.36134454      29.29335761      45.73109244      51.00840336
      20.260      28.32661290      18.35209542      29.21286420      45.73109244      51.00840336
      20.280      28.32661290      18.31191109      29.11626344      45.73109244      50.77310924
      20.300      28.32661290      18.29400922      29.01827523      45.73109244      50.77310924
      20.320      28.32661290      18.36134454      28.97138398      45.73109244      50.54521008
      20.340      28.32661290      18.36134454      28.92449272      45.73109244      50.36974790
      20.360      28.32661290      18.40471053      28.88104839      45.73109244      50.36974790
      20.380      28.32661290      18.47359796      28.86431235      45.73109244      50.36974790
      20.400      28.32661290      18.54248538      28.91107353      45.73109244      50.36974790
      20.420      28.32661290      18.56302521      28.90493843      45.73109244      50.36974790
      20.440      28.32661290      18.56302521      28.85804717      45.73109244      50.20925814
      20.460      28.32661290      18.56302521      28.81384409      45.73109244      50.00617319
      20.480      28.32661290      18.56302521      28.76426465      45.46487395      49.80308824
      20.500      28.32661290      18.56302521      28.74663978      45.32773109      49.60000328
      20.520      28.32661290      18.36134454      28.67943548      45.32773109      49.39691833
      20.540      28.32661290      18.36134454      28.67943548      45.32773109      49.19383338
      20.560      28.32661290      18.36134454      28.61030177      45.32773109      48.99074842
      20.580      28.32661290      18.36134454      28.54502688      45.06800420      48.78766347
      20.600      28.38354479      18.36134454      28.54502688      44.89075630      48.58457852
      20.620      28.45796646      18.23293033      28.50323014      44.89075630      48.38149357
      20.640      28.53238814      18.14285714      28.44422043      44.58621849      48.17840861
      20.660      28.60680981      18.14285714      28.40944762      44.41539916      47.97532366
      20.680      28.68123149      18.14285714      28.29535206      44.33516807      47.77223871
      20.700      28.75565317      18.14285714      28.18710978      44.28571429      47.64705882
      20.720      28.83007484      18.14285714      28.12692941      44.28571429      47.64705882
      20.740      28.90449652      17.82691786      28.05387183      44.28571429      47.48485294
      20.760      28.97891819      17.43623686      27.97296653      44.28571429      47.41176471
      20.780      29.05333987      17.04555586      27.82568071      44.28571429      47.41176471
      20.800      29.12776155      16.65487485      27.74518730      44.28571429      47.21008403
      20.820      29.13306452      16.26419385      27.67137097      44.28571429      47.21008403
      20.840      29.13306452      15.87351285      27.67137097      44.28571429      47.21008403
      20.860      29.13306452      15.48283184      27.70497312      44.28571429      47.21008403
      20.880      29.13306452      15.20168067      27.70497312      44.28571429      47.21008403
      20.900      29.13306452      15.20168067      27.70497312      44.60210084      46.89369748
      20.920      29.13306452      15.15607482      27.70497312      44.68907563      46.80672269
      20.940      29.13306452      15.10084034      27.68576570      44.68907563      46.80672269
      20.960      29.13306452      15.10084034      27.63776882      45.52941176      46.80672269
      20.980      29.13306452      15.00000000      27.59198318      45.52941176      46.80672269
      21.000      29.13306452      15.00000000      27.59603711      45.52941176      46.80672269
      21.020      29.13306452      15.02101460      27.60416667      45.52941176      46.80672269
      21.040      29.13306452      15.14443790      27.52898216      45.52941176      46.80672269
      21.060      28.72983871      15.26786121      27.41271390      45.70676471      46.80672269
      21.080      28.72983871      15.39128451      27.29644564      45.73109244      46.80672269
      21.100      28.72983871      15.51470782      27.18017738      45.73109244      46.80672269
      21.120      28.32661290      15.63813112      27.09573361      45.73109244      46.80672269
      21.140      28.32661290      15.70513698      26.87905394      45.73109244      46.80672269
      21.160      28.31958897      15.64939742      26.64019684      45.73109244      46.80672269
      21.180      27.92338710      15.59365787      26.56410423      45.73109244      46.80672269
      21.200      27.92338710      15.53791831      26.37053417      45.73109244      46.80672269
      21.220      27.93870317      15.48217875      26.21919442      45.52941176      46.80672269
      21.240      27.96893698      15.42643920      26.02486559      45.52941176      46.80672269
      21.260      27.99917079      15.37069964      25.89722078      45.52941176      46.80672269
      21.280      28.02940459      15.31496008      25.85685484      44.68907563      46.80672269
      21.300      28.05963840      15.25922052      25.63204561      44.68907563      46.80672269
      21.320      28.08987220      15.20348097      25.52083333      44.32252101      46.80672269
      21.340      28.12010601      15.14774141      25.52083333      44.28571429      46.80672269
      21.360      28.15033982      15.09200185      25.52083333      44.28571429      46.80672269
      21.380      28.18057362      15.03626230      25.48723118      44.28571429      46.80672269
      21.400      28.21080743      15.00000000      25.48723118      44.28571429      46.80672269
      21.420      28.24104123      15.00000000      25.45150451      44.08733193      46.80672269
      21.440      28.27127504      14.92736243      25.40461325      44.05042017      46.80672269
      21.460      28.30150884      14.84859854      25.38642473      44.05042017      46.80672269
      21.480      28.32661290      14.82522093      25.38642473      44.28584034      46.80672269
      21.500      28.32661290      14.78503660      25.38642473      44.36607143      46.80672269
      21.520      28.32661290      14.78151261      25.38642473      44.44630252      46.80672269
      21.540      28.72983871      14.78151261      25.37176986      44.68907563      46.80672269
      21.560      28.72983871      15.01719397      25.31922043      44.68907563      46.80672269
      21.580      28.72983871      15.30422492      25.28561828      44.87827731      46.80672269
      21.600      28.72983871      15.59125586      25.31922043      44.89075630      46.80672269
      21.620      28.72983871      15.69593928      25.31922043      44.89075630      46.80672269
      21.640      28.72983871      15.79082678      25.31922043      45.16298319      46.80672269
      21.660      28.72983871      15.84033613      25.31922043      45.22689076      46.80672269
      21.680      28.56828824      15.84033613      25.31922043      45.28983193      46.80672269
      21.700      28.32661290      15.84033613      25.31922043      45.73109244      46.80672269
      21.720      28.32661290      15.84033613      25.35282258      45.73109244      46.80672269
      21.740      28.08519771      15.84033613      25.35282258      45.96638655      47.00840336
      21.760      27.92338710      15.84033613      25.37924905      45.96638655      47.00840336
      21.780      27.92338710      15.84033613      25.38642473      45.96638655      47.00840336
      21.800      27.92338710      15.84033613      25.40582726      46.16806723      47.00840336
      21.820      27.92338710      15.84033613      25.42002688      46.16806723      47.00840336
