~Version Information
 VERS.                2.0:  CWLS LOG ASCII STANDARD -VERSION 2.0
 WRAP.                 NO:  ONE LINE PER DEPTH STEP
~WELL INFORMATION BLOCK
#MNEM.UNIT       DATA		            DESCRIPTION OF MNEMONIC
#---------    -------------            ------------------------
 STRT.M      .000                        :START DEPTH
 STOP.M   #######                        :STOP DEPTH
 STEP.M      .050                        :STEP
 NULL.    -999999.0                      :NULL VALUE
 COMP.       SCHIFOOD                    :COMPANY
 WELL.                          B62B0896 :WELL
 FLD .    Hoensbroek                     :FIELD
 CNTY.                                   :COUNTY
 STAT.                                   :STATE
 SRVC.                                   :SERVICE COMPANY
 DATE.     17-JUL-90                     :LOG DATE
 UWI .                                   :UNIQUE WELL ID
 LIC .                                   :LICENSE NUMBER
~Curve Information Block
#MNEM.UNIT      API CODE     Curve Description
#---------    -------------  ------------------------
DEPTH    .M         00 000 00 00          :  1  DEPTH
SN40     .OHM.M     00 000 00 00          :  2  SN40
SP       .V         00 000 00 00          :  3  SP
CAL      .MM        00 000 00 00          :  4  CAL
LN160    .OHM.M     00 000 00 00          :  5  LN160
GAMMA    .CPS       00 000 00 00          :  6  GAMMA
~Parameter Information Block
#MNEM.UNIT   Information     Description
#---------- ---------------  ------------------------
 FILE.                         :File Type
 FIID.                         :File Type Identifier
 VERS.                         :System Version
 SER .                         :System Serial Number
 TRUK.                         :Truck Calibration Number
 TOOL.                         :Tool Serial Number
 TIME.                         :Time    HrHrMinMin
 LAT .                         :Latitude
 LON .                         :Longitude
 LMF .            MV           :LOG Measured FROM
 DMF .                         :Driller Measured From
 PD  .                         :Permanent Data
 PDEV.                         :Elevation Permanent Data
 EKB .M                        :Elevation Kelly Bushing
 ELEV.DF                       :Elevation DF
 EGL .M                        :Elevation Ground Level
 DRDP.                         :Drillers Depth
 CASD.                         :Casing Diameter
 CASB.                         :Casing Bottom
 CASX.                         :Casing Type
 CAST.                         :Casing Thickness
 TNOC.                         :Time Circulation Stopped
 LOGU.                         :Logging Unit
 RECB.            Bergsma      :Recorded By
 OSR1.                         :Other Services
 OSR2.                         :Other Services
 OSR3.                         :Other Services
 BS  .MM                       :Bit Size
 MST .                         :Mean Surface Temperature
 TGRD.                         :Temperature Gradiant
 MAGN.                         :Magnetic Declination
 MDEN.                         :Density Matrix
 MATR.                         :Neutron Matrix
 DTMT.                         :Delta T Matrix
 DTFL.                         :Delta T Fluid
 MUDS.                         :Mud Sample Source
 MRS .            6            :Mud Resistivity
 MTP .            19           :Mud Temperature
 MFRS.                         :Resistivity Mud Filtrate
 MFTP.                         :Temperature Mud Filtrate
 MCRS.                         :Resistivity Mud Cake
 MCTP.                         :Temperature Mud Cake
 FTYP.                         :Fluid Type
 FD  .K/M3                     :Fluid Density
 DFV .S                        :Fluid Viscosity
 FPH .                         :Fuild PH
 ELCO.                         :Electron Cutoff
~Other Information
#MNEM.UNIT  Information      Description
#---------- ---------------  ------------------------
# --------------------------
## COMMENTS    Top_Depth   Bot_Depth  LithCode  Lat    Long   Elev_Gl
##    Type of LithCode   Lithologie - 1970
##                    .00        6.00         .00     
##                   6.05        8.00        2.00     
##                   8.05       11.50       22.00     
##                  11.55       15.20       23.00     
##                  15.25       19.00       22.00     
##                  19.05       20.25       11.00     
##                  20.30       22.10       12.00     
##                  22.15       23.70       11.00     
##                  23.75       25.15       12.00     
##                  25.20       26.10       11.00     
##                  26.15       27.20       12.00     
##                  27.25       35.00       11.00     
##                  35.05       47.55       12.00     
##                  47.60       51.00        7.00     
##                  51.05       52.25       11.00     
##                  52.30       54.00        7.00     
##                  54.05       55.10       11.00     
##                  55.15       58.00       12.00     
##                  58.05       62.60       11.00     
##                  62.65       67.20        8.00     
##                  67.25       70.05        9.00     
##                  70.10       74.00        7.00     
##                  74.05       75.40        8.00     
##                  75.45       80.00        7.00     
##                  80.05       92.40        9.00     
##                  92.45       94.50       10.00     
##                  94.55       96.90        8.00     
##                  96.95       99.30       10.00     
##                  99.35       99.35         .00     
##    last_layer   99.35
# --------------------------
~A DEPTH    SN40     SP       CAL      LN160    GAMMA    
# ...
    92.200    18.800      .063   600.300    27.240    22.380
    92.250    18.690      .064   600.800    27.150    22.390
    92.300    18.610      .064   601.300    27.060    22.410
    92.350    18.530      .064   602.000    26.960    22.540
    92.400    18.450      .065   603.000    26.870    22.660
    92.450    18.350      .065   604.100    26.780    22.950
    92.500    18.260      .065   605.300    26.680    23.180
    92.550    18.160      .065   606.200    26.570    23.300
    92.600    18.090      .065   606.900    26.530    23.380
    92.650    18.030      .066   607.300    26.490    23.350
    92.700    17.990      .066   607.700    26.440    23.230
    92.750    17.900      .066   607.700    26.410    23.080
    92.800    17.850      .066   607.300    26.410    22.870
    92.850    17.800      .067   606.600    26.400    22.740
    92.900    17.740      .067   606.000    26.420    22.670
    92.950    17.680      .067   605.300    26.430    22.680
    93.000    17.600      .068   605.200    26.430    22.740
    93.050    17.550      .068   605.100    26.440    22.820
    93.100    17.500      .068   605.300    26.450    22.920
    93.150    17.450      .069   605.400    26.470    23.020
    93.200    17.410      .069   605.600    26.480    23.120
    93.250    17.370      .069   605.800    26.510    23.270
    93.300    17.330      .069   606.100    26.540    23.410
    93.350    17.290      .069   606.300    26.570    23.460
    93.400    17.250      .070   606.600    26.590    23.380
    93.450    17.220      .070   606.700    26.610    23.290
    93.500    17.190      .070   606.900    26.640    23.190
    93.550    17.160      .070   607.000    26.650    23.110
    93.600    17.150      .070   607.100    26.660    23.050
    93.650    17.130      .071   607.200    26.660    23.040
    93.700    17.130      .071   607.300    26.660    23.020
    93.750    17.130      .071   607.300    26.660    23.120
    93.800    17.150      .072   607.200    26.660    23.340
    93.850    17.160      .072   607.000    26.660    23.470
    93.900    17.180      .073   606.900    26.650    23.570
    93.950    17.200      .075   606.700    26.640    23.520
    94.000    17.240      .076   606.400    26.620    23.430
    94.050    17.280      .076   606.300    26.600    23.340
    94.100    17.320      .078   606.100    26.570    23.260
    94.150    17.360      .078   606.000    26.530    23.180
    94.200    17.400      .078   605.800    26.500    23.100
    94.250    17.430      .078   605.600    26.470    23.090
    94.300    17.480      .078   605.500    26.430    23.130
    94.350    17.530      .078   605.300    26.370    23.200
    94.400    17.570      .078   605.200    26.340    23.310
    94.450    17.640      .078   605.100    26.290    23.420
    94.500    17.710      .078   604.900    26.250    23.560
    94.550    17.780      .078   604.700    26.210    23.780
    94.600    17.850      .078   604.600    26.180    24.080
    94.650    17.920      .078   604.400    26.120    24.250
    94.700    17.990      .078   604.200    26.090    24.210
    94.750    18.050      .078   604.000    26.090    24.050
    94.800    18.100      .078   603.700    26.090    23.830
    94.850    18.160      .078   603.500    26.080    23.640
    94.900    18.220      .078   603.200    26.080    23.480
    94.950    18.280      .078   603.000    26.080    23.330
    95.000    18.350      .077   602.700    26.090    23.190
    95.050    18.410      .077   602.300    26.100    23.070
    95.100    18.460      .077   601.800    26.110    22.960
    95.150    18.510      .077   601.300    26.130    22.880
    95.200    18.570      .077   600.700    26.160    22.900
    95.250    18.620      .077   600.000    26.180    22.980
    95.300    18.670      .077   599.000    26.210    23.040
    95.350    18.720      .077   598.100    26.230    23.060
    95.400    18.770      .077   597.500    26.260    23.050
    95.450    18.800      .077   596.800    26.290    23.030
    95.500    18.830      .077   596.400    26.310    22.990
    95.550    18.860      .077   596.000    26.340    22.930
    95.600    18.890      .077   595.700    26.370    22.880
    95.650    18.890      .077   595.600    26.400    22.870
    95.700    18.890      .077   595.500    26.430    22.880
    95.750    18.890      .077   595.400    26.460    22.980
    95.800    18.890      .077   595.400    26.500    23.060
    95.850    18.870      .077   595.400    26.530    23.110
    95.900    18.860      .077   595.300    26.570    23.140
    95.950    18.850      .077   595.600    26.600    23.150
    96.000    18.840      .077   595.700    26.640    23.060
    96.050    18.820      .077   595.600    26.680    22.950
    96.100    18.800      .077   595.500    26.740    22.810
    96.150    18.770      .077   595.500    26.790    22.700
    96.200    18.730      .077   595.400    26.840    22.550
    96.250    18.690      .077   595.100    26.880    22.280
    96.300    18.630      .077   594.500    26.930    22.040
    96.350    18.580      .077   593.800    26.980    21.900
    96.400    18.530      .077   592.900    27.030    21.820
    96.450    18.450      .077   592.000    27.100    21.770
    96.500    18.350      .077   591.600    27.180    21.780
    96.550    18.280      .077   592.100    27.240    21.830
    96.600    18.190      .077   593.200    27.310    21.920
    96.650    18.110      .077   594.600    27.380    22.010
    96.700    17.970      .077   595.700    27.460    22.140
    96.750    17.830      .077   595.600    27.540    22.290
    96.800    17.700      .077   595.200    27.620    22.410
    96.850    17.580      .077   595.000    27.720    22.540
    96.900    17.470      .077   595.000    27.830    22.700
    96.950    17.380      .077   596.100    27.940    23.140
    97.000    17.240      .077   597.500    28.060    23.340
    97.050    17.160      .077   596.900    28.180    23.660
    97.100    17.080      .077   594.900    28.370    23.890
    97.150    17.010      .077   593.400    28.560    24.080
    97.200    16.950      .077   592.400    28.760    24.190
    97.250    16.900      .077   592.400    28.940    24.260
    97.300    16.870      .077   593.000    29.080    24.300
    97.350    16.840      .077   592.800    29.320    24.330
    97.400    16.800      .078   591.800    29.480    24.290
    97.450    16.800      .078   590.000    29.740    24.250
    97.500    16.800      .078   587.700    30.000    24.230
    97.550    16.800      .078   584.600    30.260    24.220
    97.600    16.820      .078   583.300    30.520    24.240
    97.650    16.860      .078   583.200    30.780    24.200
    97.700    16.900      .078   583.500    31.040    24.070
    97.750    16.950      .078   583.800    31.300    23.870
    97.800    17.010      .078   584.100    31.560    23.770
    97.850    17.100      .078   584.300    31.820    23.710
    97.900    17.300      .078   584.800    32.060    23.680
    97.950    17.560      .078   584.800    32.210    23.650
    98.000    17.820      .078   583.500    32.350    23.600
    98.050    18.080      .078   581.800    32.540    23.460
    98.100    18.340      .078   580.100    32.690    23.260
    98.150    18.660      .078   579.100    32.890    23.020
    98.200    19.130      .078   579.200    33.040    22.810
    98.250    19.590      .077   580.000    33.220    22.710
    98.300    20.060      .077   580.900    33.430    22.670
    98.350    20.520      .077   572.200    33.630    22.670
    98.400    21.460      .077   561.900    33.840    22.670
    98.450    22.400      .076   559.900    34.040    22.670
    98.500    23.340      .075   558.200    34.240    22.650
    98.550    24.240      .074   546.900    34.450    22.620
    98.600    25.130      .074   535.600    34.820    22.590
    98.650    26.010      .073   524.300    35.200    22.510
    98.700    26.900      .072   503.600    35.570    22.420
    98.750    27.730      .071   477.400    35.950    22.330
