~Version Information
 VERS.                2.0:  CWLS LOG ASCII STANDARD -VERSION 2.0
 WRAP.                 NO:  ONE LINE PER DEPTH STEP
~WELL INFORMATION BLOCK
#MNEM.UNIT       DATA		            DESCRIPTION OF MNEMONIC
#---------    -------------            ------------------------
 STRT.M      .150                        :START DEPTH
 STOP.M   #######                        :STOP DEPTH
 STEP.M      .050                        :STEP
 NULL.    -999999.0                      :NULL VALUE
 COMP.       SOFTDR                      :COMPANY
 WELL.                          B62B0927 :WELL
 FLD .    Heerlen                        :FIELD
 CNTY.                                   :COUNTY
 STAT.                                   :STATE
 SRVC.                                   :SERVICE COMPANY
 DATE.     29-MAY-97                     :LOG DATE
 UWI .                                   :UNIQUE WELL ID
 LIC .                                   :LICENSE NUMBER
~Curve Information Block
#MNEM.UNIT      API CODE     Curve Description
#---------    -------------  ------------------------
DEPTH    .M         00 000 00 00          :  1  DEPTH
GAM(NAT) .CPS       00 000 00 00          :  2  GAM(NAT)
SP       .V         00 000 00 00          :  3  SP
RES(16N) .OHM.M     00 000 00 00          :  4  RES(16N)
RES(64N) .OHM.M     00 000 00 00          :  5  RES(64N)
RES      .OHM       00 000 00 00          :  6  RES
~Parameter Information Block
#MNEM.UNIT   Information     Description
#---------- ---------------  ------------------------
 FILE.                         :File Type
 FIID.                         :File Type Identifier
 VERS.                         :System Version
 SER .                         :System Serial Number
 TRUK.                         :Truck Calibration Number
 TOOL.                         :Tool Serial Number
 TIME.                         :Time    HrHrMinMin
 LAT .                         :Latitude
 LON .                         :Longitude
 LMF .            MV           :LOG Measured FROM
 DMF .                         :Driller Measured From
 PD  .                         :Permanent Data
 PDEV.                         :Elevation Permanent Data
 EKB .M                        :Elevation Kelly Bushing
 ELEV.DF                       :Elevation DF
 EGL .M                        :Elevation Ground Level
 DRDP.                         :Drillers Depth
 CASD.                         :Casing Diameter
 CASB.                         :Casing Bottom
 CASX.                         :Casing Type
 CAST.                         :Casing Thickness
 TNOC.                         :Time Circulation Stopped
 LOGU.                         :Logging Unit
 RECB.            Bergsma      :Recorded By
 OSR1.                         :Other Services
 OSR2.                         :Other Services
 OSR3.                         :Other Services
 BS  .MM                       :Bit Size
 MST .                         :Mean Surface Temperature
 TGRD.                         :Temperature Gradiant
 MAGN.                         :Magnetic Declination
 MDEN.                         :Density Matrix
 MATR.                         :Neutron Matrix
 DTMT.                         :Delta T Matrix
 DTFL.                         :Delta T Fluid
 MUDS.                         :Mud Sample Source
 MRS .                         :Mud Resistivity
 MTP .                         :Mud Temperature
 MFRS.                         :Resistivity Mud Filtrate
 MFTP.                         :Temperature Mud Filtrate
 MCRS.                         :Resistivity Mud Cake
 MCTP.                         :Temperature Mud Cake
 FTYP.                         :Fluid Type
 FD  .K/M3                     :Fluid Density
 DFV .S                        :Fluid Viscosity
 FPH .                         :Fuild PH
 ELCO.                         :Electron Cutoff
~Other Information
#MNEM.UNIT  Information      Description
#---------- ---------------  ------------------------
# --------------------------
## COMMENTS    Top_Depth   Bot_Depth  LithCode  Lat    Long   Elev_Gl
##    Type of LithCode   Lithologie - 1970
##                    .15        3.55       62.00     
##                   3.55        5.50        2.00     
##                   5.50        8.70       26.00     
##                   8.70       15.10       63.00     
##                  15.10       19.15       26.00     
##                  19.15       20.70       43.00     
##                  20.70       22.60       26.00     
##                  22.60       30.05       63.00     
##                  30.05       30.85       26.00     
##                  30.85       52.70       63.00     
##                  52.70       54.00       26.00     
##                  54.00       58.15       63.00     
##                  58.15       59.85       26.00     
##                  59.85       66.75       63.00     
##                  66.75       70.35       26.00     
##                  70.35       72.25       63.00     
##                  72.25       73.10       26.00     
##                  73.10       74.40       63.00     
##                  74.40       75.15       26.00     
##                  75.15       75.95       63.00     
##                  75.95       76.75       26.00     
##                  76.75       77.40       63.00     
##                  77.40       78.20       26.00     
##                  78.20       79.70       63.00     
##                  79.70       80.75       26.00     
##                  80.75       81.70       58.00     
##                  81.70       83.15       26.00     
##                  83.15       84.95       58.00     
##                  84.95       87.35       22.00     
##                  87.35       88.60       23.00     
##                  88.60       89.30       58.00     
##                  89.30       91.10       23.00     
##                  91.10       92.35       58.00     
##                  92.35       94.30       23.00     
##                  94.30       99.05       26.00     
##                  99.05      100.50       23.00     
##                 100.50      103.10       26.00     
##                 103.10      105.80       40.00     
##                 105.80      107.05       43.00     
##                 107.05      110.35       57.00     
##                 110.35      112.35       15.00     
##                 112.35      116.10       63.00     
##                 116.10      120.45       32.00     
##                 120.45      121.95       63.00     
##                 121.95      122.70       12.00     
##                 122.70      124.70       15.00     
##                 124.70      127.95       19.00     
##                 127.95      129.55       58.00     
##                 129.55      130.60       38.00     
##                 130.60      132.70       57.00     
##                 132.70      133.60       59.00     
##                 133.60      135.20       57.00     
##                 135.20      135.85       59.00     
##                 135.85      136.50       57.00     
##                 136.50      137.30       58.00     
##    last_layer   137.3
##    Type of LithCode   Lithologie - 1970
##                   1.90        2.15       87.00     
##                   2.15        3.90       84.00     
##                   3.90        4.25       85.00     
##                   4.25       21.95         .00     
##                  21.95       22.35       87.00     
##                  22.35       24.95       84.00     
##                  24.95       25.30       85.00     
##                  25.30       37.95         .00     
##                  37.95       38.25       87.00     
##                  38.25       40.95       84.00     
##                  40.95       41.20       85.00     
##                  41.20       42.00         .00     
##                  42.00       44.95       74.00     
##                  44.95       46.95         .00     
##                  46.95       47.25       87.00     
##                  47.25       50.90       84.00     
##                  50.90       51.20       85.00     
##                  51.20       59.95         .00     
##                  59.95       60.35       87.00     
##                  60.35       62.95       84.00     
##                  62.95       63.25       85.00     
##                  63.25       76.90         .00     
##                  76.90       77.15       87.00     
##                  77.15       80.00       84.00     
##                  80.00       80.35       85.00     
##                  80.35      106.95         .00     
##                 106.95      107.25       87.00     
##                 107.25      115.45       84.00     
##                 115.45      115.80       85.00     
##                 115.80      116.40         .00     
##                 116.40      117.40       77.00     
##                 117.40      119.40       80.00     
##                 119.40      120.45       77.00     
##                 120.45      121.90         .00     
##                 121.90      122.35       87.00     
##                 122.35      127.90       84.00     
##                 127.90      128.30       85.00     
##                 128.30      130.95         .00     
##                 130.95      131.25       87.00     
##                 131.25      133.95       84.00     
##                 133.95      134.15       85.00     
##    last_layer   134.15
# --------------------------
~A DEPTH    GAM(NAT) SP       RES(16N) RES(64N) RES      
# ...
    85.850    59.500      .045    58.800    47.500   246.600
    85.900    72.100      .045    60.200    48.100   239.100
    85.950    54.700      .045    61.400    48.600   233.800
    86.000    63.700      .044    61.900    49.000   232.200
    86.050    38.100      .044    61.500    49.100   232.400
    86.100    55.400      .043    60.800    49.200   234.100
    86.150    38.000      .043    60.400    49.300   236.800
    86.200    68.200      .042    60.100    49.400   239.300
    86.250    46.700      .043    60.200    49.500   240.600
    86.300    43.800      .042    60.700    49.600   241.600
    86.350    34.700      .042    61.200    49.900   242.600
    86.400    37.200      .042    61.600    50.000   243.700
    86.450    36.500      .041    61.900    49.900   245.200
    86.500    43.400      .041    62.200    50.000   246.700
    86.550    37.000      .041    62.600    50.200   247.700
    86.600    39.800      .042    62.700    50.300   247.400
    86.650    53.900      .042    62.900    50.200   246.700
    86.700    57.500      .042    62.700    49.900   246.400
    86.750    38.800      .042    62.100    49.600   246.200
    86.800    46.800      .042    61.300    49.300   246.100
    86.850    62.900      .042    60.400    49.000   245.800
    86.900    44.100      .042    59.900    48.900   246.100
    86.950    61.900      .042    60.000    48.800   245.900
    87.000    32.800      .042    60.200    48.800   245.100
    87.050    64.000      .042    60.200    48.900   244.100
    87.100    63.100      .043    60.200    48.900   242.100
    87.150    46.400      .043    60.100    49.000   237.600
    87.200    55.400      .042    60.000    49.100   233.300
    87.250    38.200      .042    59.800    49.300   234.200
    87.300    50.400      .042    59.200    49.400   238.900
    87.350    33.000      .042    58.200    49.500   241.700
    87.400    37.300      .042    58.000    49.600   242.200
    87.450    31.900      .042    58.100    49.700   242.200
    87.500    22.000      .042    58.200    49.700   241.900
    87.550    33.400      .042    58.200    49.600   241.700
    87.600    14.200      .043    58.100    49.500   241.600
    87.650    30.500      .043    57.900    49.400   241.700
    87.700    23.600      .043    57.800    49.300   241.600
    87.750    28.900      .043    57.600    49.200   241.400
    87.800    26.000      .043    57.500    49.100   241.000
    87.850    35.300      .043    57.400    48.900   240.400
    87.900    49.900      .043    57.200    48.700   239.500
    87.950    29.900      .043    57.000    48.300   238.200
    88.000    32.600      .043    56.900    47.900   236.800
    88.050    33.600      .043    56.800    47.700   235.800
    88.100    32.300      .043    56.500    47.500   235.500
    88.150    29.500      .043    56.100    47.400   235.500
    88.200    40.400      .043    55.600    47.300   235.200
    88.250    39.600      .043    55.100    47.400   234.600
    88.300    30.800      .043    54.800    47.600   234.200
    88.350    37.400      .043    54.400    47.700   233.800
    88.400    10.800      .043    54.000    47.900   234.100
    88.450    29.700      .043    53.400    48.000   235.300
    88.500    32.000      .043    52.700    48.200   235.600
    88.550    37.400      .043    52.100    48.300   234.500
    88.600    31.900      .043    51.600    48.400   234.300
    88.650    41.700      .043    50.900    48.600   235.000
    88.700    49.300      .043    50.000    48.600   235.300
    88.750    28.000      .043    49.200    48.600   235.600
    88.800    43.300      .043    48.500    48.600   235.500
    88.850    66.200      .043    48.100    48.500   234.900
    88.900    61.600      .043    48.300    48.500   233.700
    88.950    60.100      .043    48.700    48.400   232.100
    89.000    57.100      .044    49.100    48.300   230.800
    89.050    59.700      .044    49.500    48.200   229.100
    89.100    30.700      .043    49.900    48.100   225.900
    89.150    36.800      .043    50.300    48.000   221.600
    89.200    26.300      .043    50.700    47.900   220.000
    89.250    49.800      .043    50.900    47.800   220.900
    89.300    43.100      .043    50.800    47.700   222.700
    89.350    30.900      .043    50.700    47.600   224.100
    89.400    35.900      .043    51.000    47.500   225.300
    89.450    31.000      .043    51.200    47.400   226.900
    89.500    31.800      .043    51.500    47.200   228.600
    89.550    28.400      .043    51.800    47.100   230.000
    89.600    35.100      .043    52.200    47.000   231.200
    89.650    32.700      .043    52.600    46.900   232.400
    89.700    27.900      .042    53.000    46.800   233.300
    89.750    40.600      .042    53.400    46.600   234.000
    89.800    30.900      .042    53.700    46.400   234.800
    89.850    46.100      .042    53.900    46.100   235.400
    89.900    33.900      .041    54.200    45.900   236.000
    89.950    38.600      .041    54.300    45.600   236.200
    90.000    38.100      .041    54.500    45.400   236.000
    90.050    42.700      .042    54.600    45.100   235.200
    90.100    41.100      .042    54.700    44.600   234.800
    90.150    32.600      .042    54.700    44.100   234.600
    90.200    35.100      .042    54.800    43.600   234.600
    90.250    38.600      .042    54.700    43.100   234.700
    90.300    30.700      .042    54.500    42.600   234.800
    90.350    39.000      .042    54.300    42.100   234.400
    90.400    31.000      .042    54.100    41.600   233.900
    90.450    38.200      .041    53.700    41.300   233.400
    90.500    42.600      .041    53.400    41.200   233.200
    90.550    26.900      .041    53.200    41.200   233.400
    90.600    46.900      .042    53.200    41.300   233.500
    90.650    39.900      .042    53.200    41.300   233.400
    90.700    41.400      .042    52.800    41.200   232.900
    90.750    57.100      .043    52.100    41.300   231.700
    90.800    41.600      .043    51.300    41.400   229.100
    90.850    38.200      .043    50.300    41.700   226.200
    90.900    36.200      .042    48.900    42.000   227.300
    90.950    37.600      .042    47.100    42.300   232.200
    91.000    43.000      .042    45.300    42.700   236.200
    91.050    44.700      .043    44.000    43.100   237.900
    91.100    70.000      .043    43.500    43.400   238.000
    91.150    47.400      .043    43.700    43.600   237.200
    91.200    52.300      .043    43.700    43.800   235.100
    91.250    48.400      .044    43.500    44.000   231.300
    91.300    62.100      .045    42.700    44.200   226.700
    91.350    48.300      .045    41.600    44.500   219.700
    91.400    53.800      .046    40.700    44.800   214.000
    91.450    50.400      .046    40.300    45.100   213.000
    91.500    30.800      .046    39.800    45.300   213.500
    91.550    52.200      .047    39.200    45.400   214.800
    91.600    80.900      .047    38.900    45.300   214.100
    91.650    55.800      .048    39.000    45.300   209.500
    91.700    41.900      .048    39.500    45.300   204.400
    91.750    53.700      .049    39.700    45.400   202.600
    91.800    44.000      .049    39.300    45.400   201.800
    91.850    42.700      .049    38.400    45.500   201.200
    91.900    67.000      .047    38.000    45.600   202.200
    91.950    61.400      .046    37.900    45.600   205.500
    92.000    41.500      .046    37.900    45.500   209.800
    92.050    54.900      .046    38.300    45.500   214.200
    92.100    42.300      .046    39.100    45.200   215.400
    92.150    47.600      .046    40.200    44.800   212.800
    92.200    37.000      .045    41.600    44.300   212.400
    92.250    49.500      .045    42.500    43.700   213.900
    92.300    47.500      .044    42.600    43.300   213.600
    92.350    40.600      .043    43.000    43.000   214.700
    92.400    43.300      .042    43.600    42.700   217.900
