~Version Information Block
 VERS.                2.00:     CWLS LOG ASCII STANDARD - VERSION 2.000000
 WRAP.                  NO:     One Line Per Depth Step
#
~Well Information Block
#MNEM.UNIT                     Data                         Information
#----------   ------------------------------------------   ----------------
 STRT.M                                         0.0000:
 STOP.M                                        32.0000:
 STEP.M                                         0.0200:
 NULL.                                       -999.2500:
 COMP.                                                :     COMPANY
 WELL.                                        B62B0912:     WELL
 FLD .                                                :     FIELD
 CNTY.                                                :     COUNTY
 STAT.                                                :     STATE
 CTRY.                                                :     COUNTRY
 SRVC.                                                :     SERVICE COMPANY
 DATE.                                                :     DATE
 API .                                                :     API NUMBER
 UWI .                                                :     UWI NUMBER
#
~Curve Information Block
#MNEM.UNIT       API CODE      Curve Description
#----------    -------------   -------------------
 DEPT.M                    :   Depth in Meters
 CAL .CM                   :   Cal
 GAM(NAT) .CPS             :   GAM(NAT)
 SP  .MV                   :   SP
 SN40.OHM-M                :   SN40
 LN160.OHM-M               :   LN160
#
~Parameter Information Block
#MNEM.UNIT            Value               Description
#----------    --------------------    -------------------
 PDAT.                            :    Permanent Datum
 EPD .M                     0.0000:    Elevation Of Perm. Datum
 WSTA.                         LOC:    
 E   .M                     0.0000:    E (Stretch Coefficient Of The Cable)
 TD  .M                    32.0000:    Total Depth
#
~Other Information Block
<DescLogPlotStart>   NEURALOG PLOT DEFINITION
PLOTDEFVERSION: 3
LASFILE: D:\NeurLrest_23_04_'08en 20_05\nlg_1\B62B0912.las
DEPTHSCALE: 200.000000
RESOLUTION: 600
DEPTHLABELFREQ: 50.000000
HEAVYGRIDFREQ: 50.000000
MEDIUMGRIDFREQ: 25.000000
LIGHTGRIDFREQ: 5.000000
#
#   TRACK 1
#
STARTTRACK: 
 LEFTX: 0.500000 inch
 RIGHTX: 3.000000 inch
 SCALETYPE: LINEAR
 NUMCHARTDIVISIONS: 10
CURVE: SP    0.000000   50.000000  (0,0,255)      Solid             2     N    
ENDTRACK: 
#
#   TRACK 2
#
STARTTRACK: 
 LEFTX: 3.500000 inch
 RIGHTX: 6.000000 inch
 SCALETYPE: LINEAR
 NUMCHARTDIVISIONS: 10
CURVE: CAL   0.000000   100.000000 (0,131,131)    Solid             2     N    
ENDTRACK: 
#
#   TRACK 3
#
STARTTRACK: 
 LEFTX: 6.000000 inch
 RIGHTX: 11.000000 inch
 SCALETYPE: LINEAR
 NUMCHARTDIVISIONS: 10
CURVE: SN40  0.000000   100.000000 (255,0,255)    Solid             2     N    
CURVE: LN160  0.000000   100.000000 (255,0,0)      Dot               2     N    
ENDTRACK: 
#
#   TRACK 4
#
STARTTRACK: 
 LEFTX: 11.000000 inch
 RIGHTX: 16.000000 inch
 SCALETYPE: LINEAR
 NUMCHARTDIVISIONS: 10
CURVE: GAM(NAT)   0.000000   50.000000  (255,131,0)    Solid             2     N    
ENDTRACK: 
<DescLogPlotEnd>
~A  DEPTH        CAL               GAM(NAT)         SP                SN40            LN160  
# ...
      21.840      27.92338710      15.84033613      25.46600763      46.16806723      47.00840336
      21.860      27.92338710      15.84033613      25.48723118      46.16806723      47.00840336
      21.880      27.92338710      15.84033613      25.48723118      46.16806723      47.00840336
      21.900      27.92338710      15.84033613      25.53947711      46.16806723      47.01271008
      21.920      27.92338710      15.84033613      25.55443548      46.16806723      47.09294118
      21.940      27.92338710      15.84033613      25.55443548      46.16806723      47.17317227
      21.960      27.92338710      15.84033613      25.75604839      45.96638655      47.21008403
      21.980      27.99059140      15.64202920      25.75604839      45.96638655      47.21008403
      22.000      27.99059140      15.42388568      25.78965054      45.73109244      47.21008403
      22.020      27.99059140      15.20574217      25.78965054      45.73109244      47.21008403
      22.040      27.99059140      15.20168067      25.59940817      45.73109244      47.21008403
      22.060      27.99059140      15.20168067      25.55916146      45.73109244      47.21008403
      22.080      27.99059140      15.30252101      25.51891476      45.73109244      47.21008403
      22.100      27.62031738      15.30252101      25.48723118      45.73109244      47.21008403
      22.120      27.52016129      15.30252101      25.48723118      45.73109244      47.21008403
      22.140      27.52016129      15.96304690      25.45362903      45.73109244      47.21008403
      22.160      27.52016129      16.00323123      25.45362903      45.73109244      47.21008403
      22.180      27.52016129      16.38021686      25.41694849      45.73109244      47.21008403
      22.200      27.52016129      16.68067227      25.38642473      45.73109244      47.21008403
      22.220      27.99059140      16.68067227      25.28956382      45.73109244      47.21008403
      22.240      27.99059140      16.81035666      25.20907041      45.73109244      47.21008403
      22.260      27.99059140      17.05720327      25.15120968      45.73418067      47.21008403
      22.280      27.99059140      17.30404988      25.14889005      45.81441176      47.21008403
      22.300      27.99059140      17.40336134      25.10199879      45.89464286      47.21008403
      22.320      28.39381720      17.40336134      25.05040323      45.96638655      47.21008403
      22.340      28.39381720      17.47072919      24.92531651      45.96638655      47.21008403
      22.360      28.39381720      17.72268908      25.02852931      45.96638655      47.20478992
      22.380      27.99059140      17.72268908      25.00899670      45.96638655      47.00840336
      22.400      27.99059140      16.88235294      24.78158602      45.96638655      47.00840336
      22.420      27.99059140      16.88235294      24.71438172      45.96638655      47.00840336
      22.440      27.99059140      16.88235294      24.64717742      45.96638655      47.00840336
      22.460      27.99059140      16.99506058      24.61357527      45.96638655      47.00840336
      22.480      27.99059140      17.16816231      24.61277315      45.96638655      46.80672269
      22.500      27.99059140      17.34126405      24.57997312      45.96638655      46.80672269
      22.520      27.99059140      17.51436579      24.57997312      45.96638655      46.80672269
      22.540      27.99059140      17.68746752      24.53930368      45.96638655      46.80672269
      22.560      27.99059140      17.82352941      24.49241242      45.96638655      46.80672269
      22.580      27.99059140      17.82352941      24.44552116      45.95691176      46.57142857
      22.600      27.99059140      17.82352941      24.32503035      45.87668067      46.57142857
      22.620      27.99059140      17.82352941      24.18372789      45.76283613      46.57142857
      22.640      27.99059140      17.82352941      24.04233871      45.73109244      46.57142857
      22.660      27.99059140      18.24369748      23.98354579      45.73109244      46.57142857
      22.680      27.99059140      18.24369748      23.84215661      45.69747899      46.33613445
      22.700      27.99059140      18.24369748      23.72734565      45.69747899      46.33613445
      22.720      27.99059140      18.24369748      23.64685224      45.69747899      46.33613445
      22.740      27.99059140      18.24369748      23.50470430      45.69747899      46.33613445
      22.760      27.99059140      18.21367612      23.45226327      45.69747899      46.33613445
      22.780      27.99059140      18.04329455      23.37324402      45.66710084      46.30575630
      22.800      27.99059140      17.87291298      23.25767430      45.49579832      46.13445378
      22.820      27.99059140      17.70253142      23.21078304      45.49579832      46.13445378
      22.840      27.99059140      17.53214985      23.13028963      45.49579832      46.12399160
      22.860      27.99059140      17.36176828      23.04979622      45.49579832      46.04376050
      22.880      27.99059140      17.19138672      23.03427419      45.49579832      45.96352941
      22.900      27.99059140      17.02100515      23.00067204      45.49579832      45.93277311
      22.920      27.99059140      16.85062358      22.96706989      45.49579832      45.93277311
      22.940      27.99059140      16.68024202      22.93346774      45.49579832      45.93277311
      22.960      27.99059140      16.50986045      22.88254422      45.49579832      45.93277311
      22.980      27.99059140      16.46218487      22.83266129      45.49579832      45.93277311
      23.000      27.99059140      16.46218487      22.79905914      45.49579832      45.93277311
      23.020      27.99059140      16.46218487      22.85578053      45.49579832      45.93277311
      23.040      27.99059140      16.46218487      22.82000568      45.49579832      45.93277311
      23.060      27.99059140      16.46218487      22.78423084      45.49579832      45.93277311
      23.080      27.99059140      16.46218487      22.74845599      45.49579832      45.93277311
      23.100      27.99059140      16.46218487      22.69825269      45.49579832      45.93277311
      23.120      27.99059140      16.38863649      22.61899497      45.49579832      45.93277311
      23.140      27.99059140      16.26808349      22.59744624      45.49579832      45.93277311
      23.160      27.99059140      16.14753050      22.58164239      46.15130252      45.93277311
      23.180      27.99059140      16.02697750      22.56384409      46.23153361      45.93277311
      23.200      27.99059140      15.90642451      22.56384409      46.36722689      45.93277311
      23.220      27.99059140      15.78587151      22.56384409      46.59367647      45.93277311
      23.240      27.99059140      15.66531851      22.52848595      46.70752101      45.93277311
      23.260      27.99059140      15.54476552      22.46303763      46.78775210      45.93277311
      23.280      27.99059140      15.42421252      22.42943548      46.86798319      45.93277311
      23.300      27.99059140      15.30365953      22.47105879      46.99044118      45.97500000
      23.320      27.99059140      15.18310653      22.49663978      47.23012605      46.13445378
      23.340      27.99059140      15.06255354      22.49564256      47.27731092      46.13445378
      23.360      27.99059140      14.94200054      22.44875130      47.35697479      46.13445378
      23.380      27.99059140      14.82144755      22.42943548      47.37815126      46.13445378
      23.400      27.99059140      14.79831933      22.38857093      47.37815126      46.13445378
      23.420      27.99059140      14.79831933      22.32862903      47.29840441      46.33613445
      23.440      27.99059140      14.95109950      22.32839057      47.17404622      46.33613445
      23.460      27.99059140      15.16419823      22.28149931      47.04968803      46.33998378
