~Version Information
 VERS.                2.0:  CWLS LOG ASCII STANDARD -VERSION 2.0
 WRAP.                 NO:  ONE LINE PER DEPTH STEP
~WELL INFORMATION BLOCK
#MNEM.UNIT       DATA		            DESCRIPTION OF MNEMONIC
#---------    -------------            ------------------------
 STRT.M      .000                        :START DEPTH
 STOP.M    82.700                        :STOP DEPTH
 STEP.M      .050                        :STEP
 NULL.    -999999.0                      :NULL VALUE
 COMP.       WML                         :COMPANY
 WELL.                          B62B0902 :WELL
 FLD .    Voerendaal                     :FIELD
 CNTY.                                   :COUNTY
 STAT.                                   :STATE
 SRVC.                                   :SERVICE COMPANY
 DATE.     04-FEB-92                     :LOG DATE
 UWI .                                   :UNIQUE WELL ID
 LIC .                                   :LICENSE NUMBER
~Curve Information Block
#MNEM.UNIT      API CODE     Curve Description
#---------    -------------  ------------------------
DEPTH    .M         00 000 00 00          :  1  DEPTH
SN40     .OHM.M     00 000 00 00          :  2  SN40
SP       .V         00 000 00 00          :  3  SP
CAL      .MM        00 000 00 00          :  4  CAL
LN160    .OHM.M     00 000 00 00          :  5  LN160
GAMMA    .CPS       00 000 00 00          :  6  GAMMA
~Parameter Information Block
#MNEM.UNIT   Information     Description
#---------- ---------------  ------------------------
 FILE.                         :File Type
 FIID.                         :File Type Identifier
 VERS.                         :System Version
 SER .                         :System Serial Number
 TRUK.                         :Truck Calibration Number
 TOOL.                         :Tool Serial Number
 TIME.                         :Time    HrHrMinMin
 LAT .                         :Latitude
 LON .                         :Longitude
 LMF .            MV           :LOG Measured FROM
 DMF .                         :Driller Measured From
 PD  .                         :Permanent Data
 PDEV.                         :Elevation Permanent Data
 EKB .M                        :Elevation Kelly Bushing
 ELEV.DF                       :Elevation DF
 EGL .M                        :Elevation Ground Level
 DRDP.                         :Drillers Depth
 CASD.                         :Casing Diameter
 CASB.                         :Casing Bottom
 CASX.                         :Casing Type
 CAST.                         :Casing Thickness
 TNOC.                         :Time Circulation Stopped
 LOGU.                         :Logging Unit
 RECB.            Bergsma      :Recorded By
 OSR1.                         :Other Services
 OSR2.                         :Other Services
 OSR3.                         :Other Services
 BS  .MM                       :Bit Size
 MST .                         :Mean Surface Temperature
 TGRD.                         :Temperature Gradiant
 MAGN.                         :Magnetic Declination
 MDEN.                         :Density Matrix
 MATR.                         :Neutron Matrix
 DTMT.                         :Delta T Matrix
 DTFL.                         :Delta T Fluid
 MUDS.                         :Mud Sample Source
 MRS .                         :Mud Resistivity
 MTP .                         :Mud Temperature
 MFRS.                         :Resistivity Mud Filtrate
 MFTP.                         :Temperature Mud Filtrate
 MCRS.                         :Resistivity Mud Cake
 MCTP.                         :Temperature Mud Cake
 FTYP.                         :Fluid Type
 FD  .K/M3                     :Fluid Density
 DFV .S                        :Fluid Viscosity
 FPH .                         :Fuild PH
 ELCO.                         :Electron Cutoff
~Other Information
#MNEM.UNIT  Information      Description
#---------- ---------------  ------------------------
# --------------------------
## COMMENTS    Top_Depth   Bot_Depth  LithCode  Lat    Long   Elev_Gl
##    Type of LithCode   Lithologie - 1970
##                    .00       10.80       13.00     
##                  10.85       11.80       23.00     
##                  11.85       15.70        6.00     
##                  15.75       16.00       23.00     
##                  16.05       28.00        7.00     
##                  28.05       46.00        9.00     
##                  46.05       46.05         .00     
##    last_layer   46.05
# --------------------------
~A DEPTH    SN40     SP       CAL      LN160    GAMMA    
# ...
    58.250    66.070      .031   212.700    68.370     7.420
    58.300    66.740      .031   212.800    68.060     7.400
    58.350    68.490      .031   212.900    67.890     7.350
    58.400    69.060      .031   213.100    67.820     7.190
    58.450    69.380      .031   213.500    67.790     7.030
    58.500    69.740      .031   214.100    67.800     6.930
    58.550    70.060      .032   215.000    67.820     6.850
    58.600    70.380      .032   215.800    67.680     6.830
    58.650    70.740      .032   217.000    67.470     6.860
    58.700    71.100      .033   217.800    67.220     6.960
    58.750    71.320      .033   217.000    66.730     7.340
    58.800    70.890      .033   213.300    65.890     7.440
    58.850    70.460      .033   213.700    64.530     7.450
    58.900    70.030      .032   214.000    62.230     7.450
    58.950    69.950      .032   214.300    60.970     7.460
    59.000    70.200      .032   214.700    60.100     7.540
    59.050    70.570      .032   214.400    59.450     7.810
    59.100    71.120      .032   213.700    58.910     7.840
    59.150    72.050      .032   212.400    58.440     7.860
    59.200    75.250      .032   211.800    58.220     7.880
    59.250    75.960      .031   212.000    58.000     7.930
    59.300    76.020      .031   212.300    57.890     8.130
    59.350    75.700      .031   212.500    57.790     8.280
    59.400    74.930      .031   212.600    57.720     8.290
    59.450    73.660      .031   212.400    57.640     8.210
    59.500    67.920      .030   212.100    57.520     8.130
    59.550    66.630      .030   212.000    57.170     8.010
    59.600    65.680      .030   211.800    56.610     8.110
    59.650    66.210      .030   211.900    55.390     8.200
    59.700    68.440      .030   212.000    54.870     8.280
    59.750    70.130      .030   212.700    54.550     8.440
    59.800    72.510      .029   213.100    54.280     8.520
    59.850    74.150      .029   212.900    54.190     8.530
    59.900    74.170      .029   212.000    54.170     8.540
    59.950    73.740      .028   211.100    54.200     8.510
    60.000    72.640      .028   210.200    54.290     8.480
    60.050    71.640      .028   209.900    54.490     8.480
    60.100    71.530      .028   210.100    54.740     8.630
    60.150    71.370      .029   210.300    55.130     9.070
    60.200    71.170      .029   210.400    55.480     9.240
    60.250    70.880      .029   210.500    55.770     9.430
    60.300    70.450      .029   210.700    56.440     9.680
    60.350    62.240      .029   210.800    56.840     9.860
    60.400    60.050      .030   211.100    57.250     9.980
    60.450    59.490      .031   211.400    57.650    10.040
    60.500    59.240      .032   211.500    58.030    10.060
    60.550    62.420      .033   211.400    57.940    10.080
    60.600    63.820      .037   211.200    57.750    10.110
    60.650    64.230      .037   211.000    57.440    10.170
    60.700    64.840      .038   210.900    57.250    10.280
    60.750    64.860      .038   210.700    57.050    10.370
    60.800    63.610      .039   210.800    56.810    10.640
    60.850    61.960      .039   210.900    56.450    11.090
    60.900    60.200      .039   211.100    56.060    11.340
    60.950    59.130      .039   211.200    54.110    11.410
    61.000    56.900      .039   211.200    53.480    11.280
    61.050    55.780      .038   211.300    52.540    11.130
    61.100    55.740      .039   211.500    51.700    11.090
    61.150    56.150      .039   211.700    51.320    10.940
    61.200    56.920      .039   211.800    51.340    10.520
    61.250    57.360      .039   211.900    51.340    10.420
    61.300    58.030      .039   212.000    51.330    10.330
    61.350    58.150      .039   212.200    51.320    10.150
    61.400    58.120      .039   212.400    51.300     9.920
    61.450    58.090      .038   212.600    51.260     9.830
    61.500    58.060      .037   212.900    51.220     9.830
    61.550    57.890      .036   213.400    51.170    10.020
    61.600    53.670      .036   213.900    51.060    10.110
    61.650    52.220      .035   214.400    50.950    10.160
    61.700    51.350      .035   214.800    50.810    10.240
    61.750    49.840      .035   215.300    50.590    10.400
    61.800    48.630      .034   216.800    50.350    10.460
    61.850    47.670      .034   217.400    50.020    10.480
    61.900    48.180      .034   217.700    49.710    10.480
    61.950    49.440      .034   217.500    49.400    10.450
    62.000    51.370      .034   216.400    49.120    10.380
    62.050    52.820      .034   215.000    48.940    10.190
    62.100    53.310      .035   214.600    48.810    10.080
    62.150    53.300      .035   213.000    48.780    10.120
    62.200    53.170      .035   213.000    48.770    10.370
    62.250    52.970      .035   214.000    48.840    11.100
    62.300    52.780      .035   215.100    48.990    11.200
    62.350    52.340      .035   219.800    49.240    11.260
    62.400    51.610      .035   222.600    49.610    11.260
    62.450    51.230      .035   226.800    50.120    11.100
    62.500    50.530      .035   229.000    50.750    10.910
    62.550    49.600      .035   227.700    51.400    10.530
    62.600    48.420      .035   224.000    51.940    10.070
    62.650    48.480      .035   220.100    52.370     9.970
    62.700    48.930      .035   216.100    52.670     9.780
    62.750    49.710      .035   213.800    52.790     9.530
    62.800    50.870      .035   213.400    52.780     9.470
    62.850    51.690      .034   213.300    52.510     9.510
    62.900    51.510      .034   213.300    51.820     9.600
    62.950    50.610      .033   213.500    51.270     9.810
    63.000    49.170      .033   213.800    51.000     9.840
    63.050    48.240      .033   214.200    50.950     9.860
    63.100    47.860      .033   214.600    50.950     9.880
    63.150    47.800      .033   214.700    51.000     9.980
    63.200    48.060      .032   214.500    51.130    10.040
    63.250    48.530      .032   214.000    51.240     9.870
    63.300    49.070      .032   213.000    51.610     9.570
    63.350    49.890      .032   212.600    52.000     9.070
    63.400    50.470      .032   212.400    52.320     9.050
    63.450    50.560      .031   212.400    52.730     9.180
    63.500    50.230      .031   212.300    52.990     9.390
    63.550    49.810      .031   212.200    53.060     9.600
    63.600    49.540      .031   212.200    52.940     9.770
    63.650    49.440      .030   211.800    52.740     9.890
    63.700    49.670      .030   210.600    52.460     9.930
    63.750    50.200      .030   210.000    52.190     9.940
    63.800    51.050      .029   209.900    51.890     9.930
    63.850    52.040      .029   209.900    51.670     9.870
    63.900    52.950      .028   210.000    51.500     9.780
    63.950    53.290      .028   210.000    51.160     9.730
    64.000    53.240      .028   210.100    50.520     9.760
    64.050    52.930      .028   210.100    49.960     9.950
    64.100    52.080      .028   210.200    49.720    10.410
    64.150    51.400      .028   210.300    49.690    10.570
    64.200    50.530      .028   210.400    49.730    10.660
    64.250    50.670      .028   210.500    49.870    10.790
    64.300    51.130      .027   210.700    50.050    10.930
    64.350    52.840      .026   210.700    50.250    11.080
    64.400    53.560      .026   210.800    50.450    11.160
    64.450    54.070      .026   210.800    50.670    11.150
    64.500    54.530      .026   210.800    50.860    11.060
    64.550    54.700      .026   210.800    51.050    10.940
    64.600    53.450      .026   211.000    51.200    10.740
    64.650    52.010      .026   211.100    51.330    10.540
    64.700    50.720      .025   211.300    51.430    10.380
    64.750    50.310      .024   211.500    51.490    10.360
    64.800    50.300      .023   211.800    51.530    10.390
