~Version Information
 VERS.                2.0:  CWLS LOG ASCII STANDARD -VERSION 2.0
 WRAP.                 NO:  ONE LINE PER DEPTH STEP
~WELL INFORMATION BLOCK
#MNEM.UNIT       DATA		            DESCRIPTION OF MNEMONIC
#---------    -------------            ------------------------
 STRT.M      .000                        :START DEPTH
 STOP.M    79.950                        :STOP DEPTH
 STEP.M      .050                        :STEP
 NULL.    -999999.0                      :NULL VALUE
 COMP.       WML                         :COMPANY
 WELL.                          B62B0898 :WELL
 FLD .    Voerendaal                     :FIELD
 CNTY.                                   :COUNTY
 STAT.                                   :STATE
 SRVC.                                   :SERVICE COMPANY
 DATE.     17-NOV-90                     :LOG DATE
 UWI .                                   :UNIQUE WELL ID
 LIC .                                   :LICENSE NUMBER
~Curve Information Block
#MNEM.UNIT      API CODE     Curve Description
#---------    -------------  ------------------------
DEPTH    .M         00 000 00 00          :  1  DEPTH
UFLOW    .M/S       00 000 00 00          :  2  UFLOW
TEMP     .DEGC      00 000 00 00          :  3  TEMP
SN40     .OHM.M     00 000 00 00          :  4  SN40
SP       .V         00 000 00 00          :  5  SP
CAL      .MM        00 000 00 00          :  6  CAL
TEMP     .DEGC      00 000 00 00          :  7  TEMP
GAMMA    .CPS       00 000 00 00          :  8  GAMMA
LN160    .OHM.M     00 000 00 00          :  9  LN160
~Parameter Information Block
#MNEM.UNIT   Information     Description
#---------- ---------------  ------------------------
 FILE.                         :File Type
 FIID.                         :File Type Identifier
 VERS.                         :System Version
 SER .                         :System Serial Number
 TRUK.                         :Truck Calibration Number
 TOOL.                         :Tool Serial Number
 TIME.                         :Time    HrHrMinMin
 LAT .                         :Latitude
 LON .                         :Longitude
 LMF .            MV           :LOG Measured FROM
 DMF .                         :Driller Measured From
 PD  .                         :Permanent Data
 PDEV.                         :Elevation Permanent Data
 EKB .M                        :Elevation Kelly Bushing
 ELEV.DF                       :Elevation DF
 EGL .M                        :Elevation Ground Level
 DRDP.                         :Drillers Depth
 CASD.                         :Casing Diameter
 CASB.                         :Casing Bottom
 CASX.                         :Casing Type
 CAST.                         :Casing Thickness
 TNOC.                         :Time Circulation Stopped
 LOGU.                         :Logging Unit
 RECB.            Veenendaal   :Recorded By
 OSR1.                         :Other Services
 OSR2.                         :Other Services
 OSR3.                         :Other Services
 BS  .MM                       :Bit Size
 MST .                         :Mean Surface Temperature
 TGRD.                         :Temperature Gradiant
 MAGN.                         :Magnetic Declination
 MDEN.                         :Density Matrix
 MATR.                         :Neutron Matrix
 DTMT.                         :Delta T Matrix
 DTFL.                         :Delta T Fluid
 MUDS.                         :Mud Sample Source
 MRS .                         :Mud Resistivity
 MTP .                         :Mud Temperature
 MFRS.                         :Resistivity Mud Filtrate
 MFTP.                         :Temperature Mud Filtrate
 MCRS.                         :Resistivity Mud Cake
 MCTP.                         :Temperature Mud Cake
 FTYP.                         :Fluid Type
 FD  .K/M3                     :Fluid Density
 DFV .S                        :Fluid Viscosity
 FPH .                         :Fuild PH
 ELCO.                         :Electron Cutoff
~Other Information
#MNEM.UNIT  Information      Description
#---------- ---------------  ------------------------
# --------------------------
## COMMENTS    Top_Depth   Bot_Depth  LithCode  Lat    Long   Elev_Gl
##    Type of LithCode   Lithologie - 1970
##                    .00         .80         .00     
##                    .85        2.25       19.00     
##                   2.30        6.15       12.00     
##                   6.20       28.50        7.00     
##                  28.55       40.50        9.00     
##                  40.55       74.60         .00     
##                  74.65       78.00       10.00     
##                  78.05       78.05         .00     
##    last_layer   78.05
# --------------------------
~A DEPTH    UFLOW    TEMP     SN40     SP       CAL      TEMP     GAMMA    LN160    
# ...
     4.100     7.720 -999999.0  -999999.0  -999999.0  -999999.0      9.190    13.850 -999999.0 
     4.150    16.220 -999999.0  -999999.0  -999999.0  -999999.0      9.190    13.240 -999999.0 
     4.200    23.990 -999999.0  -999999.0  -999999.0  -999999.0      9.190    12.950 -999999.0 
     4.250    30.130 -999999.0  -999999.0  -999999.0  -999999.0      9.190    12.930 -999999.0 
     4.300    39.240 -999999.0  -999999.0  -999999.0  -999999.0      9.200    12.980 -999999.0 
     4.350    48.360 -999999.0  -999999.0  -999999.0  -999999.0      9.200    13.010 -999999.0 
     4.400    59.050 -999999.0  -999999.0  -999999.0  -999999.0      9.200    13.140 -999999.0 
     4.450    66.930 -999999.0  -999999.0  -999999.0  -999999.0      9.210    13.430 -999999.0 
     4.500    66.640 -999999.0  -999999.0  -999999.0  -999999.0      9.210    13.630 -999999.0 
     4.550    64.080 -999999.0  -999999.0  -999999.0  -999999.0      9.210    13.750 -999999.0 
     4.600    61.510 -999999.0  -999999.0  -999999.0  -999999.0      9.220    14.040 -999999.0 
     4.650    58.950 -999999.0  -999999.0  -999999.0  -999999.0      9.220    14.200 -999999.0 
     4.700    56.380 -999999.0  -999999.0  -999999.0  -999999.0      9.220    14.210 -999999.0 
     4.750    53.820 -999999.0  -999999.0  -999999.0  -999999.0      9.230    14.270 -999999.0 
     4.800    51.890 -999999.0  -999999.0  -999999.0  -999999.0      9.230    14.380 -999999.0 
     4.850    50.240 -999999.0  -999999.0  -999999.0  -999999.0      9.230    14.560 -999999.0 
     4.900    48.590 -999999.0  -999999.0  -999999.0  -999999.0      9.240    14.700 -999999.0 
     4.950    46.940 -999999.0  -999999.0  -999999.0  -999999.0      9.240    14.510 -999999.0 
     5.000    45.290 -999999.0  -999999.0  -999999.0  -999999.0      9.240    14.510 -999999.0 
     5.050    43.630 -999999.0  -999999.0  -999999.0  -999999.0      9.250    14.460 -999999.0 
     5.100    41.980 -999999.0  -999999.0  -999999.0  -999999.0      9.250    14.300 -999999.0 
     5.150    40.330 -999999.0  -999999.0  -999999.0  -999999.0      9.250    14.050 -999999.0 
     5.200    38.700 -999999.0  -999999.0  -999999.0  -999999.0      9.270    13.940 -999999.0 
     5.250    37.140 -999999.0  -999999.0  -999999.0  -999999.0      9.280    13.920 -999999.0 
     5.300    35.580 -999999.0  -999999.0  -999999.0  -999999.0      9.290    13.900 -999999.0 
     5.350    34.010 -999999.0  -999999.0  -999999.0  -999999.0      9.300    13.790 -999999.0 
     5.400    31.600 -999999.0  -999999.0  -999999.0  -999999.0      9.310    13.690 -999999.0 
     5.450    30.750 -999999.0  -999999.0  -999999.0    362.300     9.320    13.460 -999999.0 
     5.500    30.530 -999999.0  -999999.0  -999999.0    362.200     9.340    13.380 -999999.0 
     5.550    30.570 -999999.0  -999999.0  -999999.0    362.300     9.350    13.340 -999999.0 
     5.600    30.720 -999999.0  -999999.0  -999999.0    362.200     9.360    13.230 -999999.0 
     5.650    30.850 -999999.0  -999999.0  -999999.0    362.100     9.370    13.120 -999999.0 
     5.700    30.870 -999999.0  -999999.0  -999999.0    362.100     9.380    12.960 -999999.0 
     5.750    30.790 -999999.0  -999999.0  -999999.0    362.100     9.400    12.700 -999999.0 
     5.800    30.210 -999999.0  -999999.0  -999999.0    362.000     9.410    12.510 -999999.0 
     5.850    29.590 -999999.0  -999999.0  -999999.0    361.900     9.420    11.910 -999999.0 
     5.900    28.940    10.460 -999999.0  -999999.0    361.900     9.430    11.670 -999999.0 
     5.950    28.350    10.460 -999999.0  -999999.0    361.900     9.440    11.490 -999999.0 
     6.000    27.800    10.460 -999999.0  -999999.0    361.900     9.450    11.230 -999999.0 
     6.050    27.200    10.460 -999999.0  -999999.0    361.800     9.470    10.880 -999999.0 
     6.100    26.640    10.460 -999999.0  -999999.0    361.800     9.480    10.760 -999999.0 
     6.150    25.850    10.460 -999999.0  -999999.0    361.900     9.490    10.590 -999999.0 
     6.200    25.290    10.460 -999999.0  -999999.0    361.900     9.500    10.610 -999999.0 
     6.250    24.990    10.460 -999999.0  -999999.0    362.000     9.510    10.660 -999999.0 
     6.300    24.920    10.460 -999999.0  -999999.0    362.000     9.520    10.660 -999999.0 
     6.350    25.330    10.460 -999999.0  -999999.0    362.000     9.520    10.360 -999999.0 
     6.400    25.850    10.460 -999999.0  -999999.0    362.000     9.530    10.240 -999999.0 
     6.450    26.530    10.460 -999999.0  -999999.0    362.000     9.540    10.260 -999999.0 
     6.500    26.740    10.460 -999999.0  -999999.0    361.900     9.550    10.290 -999999.0 
     6.550    26.870    10.460 -999999.0  -999999.0    361.800     9.560    10.150 -999999.0 
     6.600    26.720    10.460 -999999.0  -999999.0    361.700     9.560    10.000 -999999.0 
     6.650    26.500    10.470 -999999.0  -999999.0    361.600     9.570     9.900 -999999.0 
     6.700    26.240    10.470 -999999.0  -999999.0    361.500     9.580     9.980 -999999.0 
     6.750    25.880    10.470 -999999.0  -999999.0    361.600     9.590    10.090 -999999.0 
     6.800    25.490    10.470 -999999.0  -999999.0    361.600     9.600    10.100 -999999.0 
     6.850    24.970    10.470 -999999.0  -999999.0    361.700     9.600    10.090 -999999.0 
     6.900    24.670    10.470 -999999.0  -999999.0    361.800     9.610     9.990 -999999.0 
     6.950    24.280    10.470 -999999.0  -999999.0    362.000     9.620     9.880 -999999.0 
     7.000    23.920    10.470 -999999.0  -999999.0    362.100     9.630     9.770 -999999.0 
     7.050    23.930    10.470 -999999.0  -999999.0    362.200     9.640     9.650 -999999.0 
     7.100    24.110    10.470 -999999.0  -999999.0    362.300     9.650     9.400 -999999.0 
     7.150    24.170    10.470 -999999.0  -999999.0    362.300     9.650     9.270 -999999.0 
     7.200    24.120    10.460 -999999.0  -999999.0    362.600     9.660     9.210 -999999.0 
     7.250    23.910    10.460 -999999.0  -999999.0    363.100     9.660     9.070 -999999.0 
     7.300    23.550    10.460 -999999.0  -999999.0    363.600     9.660     8.930 -999999.0 
     7.350    23.220    10.460 -999999.0  -999999.0    365.600     9.670     8.760 -999999.0 
     7.400    22.920    10.460 -999999.0  -999999.0    367.100     9.670     8.690 -999999.0 
     7.450    22.780    10.460 -999999.0  -999999.0    366.500     9.670     8.640 -999999.0 
     7.500    22.810    10.460 -999999.0  -999999.0    361.500     9.680     8.580 -999999.0 
     7.550    23.110    10.460 -999999.0  -999999.0    361.100     9.680     8.560 -999999.0 
     7.600    23.450    10.460 -999999.0  -999999.0    361.100     9.680     8.530 -999999.0 
     7.650    23.840    10.460 -999999.0  -999999.0    361.100     9.690     8.540 -999999.0 
     7.700    24.220    10.460 -999999.0  -999999.0    361.000     9.690     8.550 -999999.0 
     7.750    24.430    10.460 -999999.0  -999999.0    361.000     9.690     8.640 -999999.0 
     7.800    24.590    10.460 -999999.0  -999999.0    361.000     9.690     8.780 -999999.0 
     7.850    24.470    10.470 -999999.0  -999999.0    361.000     9.700     9.030 -999999.0 
     7.900    24.360    10.470 -999999.0  -999999.0    361.000     9.700     9.030 -999999.0 
     7.950    24.360    10.470 -999999.0  -999999.0    361.000     9.700     8.950 -999999.0 
     8.000    24.820    10.470 -999999.0  -999999.0    361.000     9.710     8.940 -999999.0 
     8.050    25.380    10.470 -999999.0  -999999.0    360.900     9.710     8.950 -999999.0 
     8.100    25.900    10.470 -999999.0  -999999.0    360.900     9.710     8.970 -999999.0 
     8.150    25.900    10.470 -999999.0  -999999.0    360.900     9.720     8.990 -999999.0 
     8.200    25.740    10.470 -999999.0  -999999.0    361.000     9.720     9.070 -999999.0 
     8.250    25.940    10.470 -999999.0  -999999.0    361.000     9.730     9.190 -999999.0 
     8.300    26.230    10.470 -999999.0  -999999.0    361.100     9.730     9.430 -999999.0 
