~Version Information
 VERS.                2.0:  CWLS LOG ASCII STANDARD -VERSION 2.0
 WRAP.                 NO:  ONE LINE PER DEPTH STEP
~WELL INFORMATION BLOCK
#MNEM.UNIT       DATA		            DESCRIPTION OF MNEMONIC
#---------    -------------            ------------------------
 STRT.M      .450                        :START DEPTH
 STOP.M   #######                        :STOP DEPTH
 STEP.M      .050                        :STEP
 NULL.    -999999.0                      :NULL VALUE
 COMP.       SCHIFOOD                    :COMPANY
 WELL.                          B62B0899 :WELL
 FLD .    Heerlen                        :FIELD
 CNTY.                                   :COUNTY
 STAT.                                   :STATE
 SRVC.                                   :SERVICE COMPANY
 DATE.     23-JAN-91                     :LOG DATE
 UWI .                                   :UNIQUE WELL ID
 LIC .                                   :LICENSE NUMBER
~Curve Information Block
#MNEM.UNIT      API CODE     Curve Description
#---------    -------------  ------------------------
DEPTH    .M         00 000 00 00          :  1  DEPTH
SN40     .OHM.M     00 000 00 00          :  2  SN40
SP       .V         00 000 00 00          :  3  SP
CAL      .MM        00 000 00 00          :  4  CAL
LN160    .OHM.M     00 000 00 00          :  5  LN160
GAMMA    .CPS       00 000 00 00          :  6  GAMMA
~Parameter Information Block
#MNEM.UNIT   Information     Description
#---------- ---------------  ------------------------
 FILE.                         :File Type
 FIID.                         :File Type Identifier
 VERS.                         :System Version
 SER .                         :System Serial Number
 TRUK.                         :Truck Calibration Number
 TOOL.                         :Tool Serial Number
 TIME.                         :Time    HrHrMinMin
 LAT .                         :Latitude
 LON .                         :Longitude
 LMF .            MV           :LOG Measured FROM
 DMF .                         :Driller Measured From
 PD  .                         :Permanent Data
 PDEV.                         :Elevation Permanent Data
 EKB .M                        :Elevation Kelly Bushing
 ELEV.DF                       :Elevation DF
 EGL .M                        :Elevation Ground Level
 DRDP.                         :Drillers Depth
 CASD.                         :Casing Diameter
 CASB.                         :Casing Bottom
 CASX.                         :Casing Type
 CAST.                         :Casing Thickness
 TNOC.                         :Time Circulation Stopped
 LOGU.                         :Logging Unit
 RECB.            Veenendaal   :Recorded By
 OSR1.                         :Other Services
 OSR2.                         :Other Services
 OSR3.                         :Other Services
 BS  .MM                       :Bit Size
 MST .                         :Mean Surface Temperature
 TGRD.                         :Temperature Gradiant
 MAGN.                         :Magnetic Declination
 MDEN.                         :Density Matrix
 MATR.                         :Neutron Matrix
 DTMT.                         :Delta T Matrix
 DTFL.                         :Delta T Fluid
 MUDS.                         :Mud Sample Source
 MRS .                         :Mud Resistivity
 MTP .                         :Mud Temperature
 MFRS.                         :Resistivity Mud Filtrate
 MFTP.                         :Temperature Mud Filtrate
 MCRS.                         :Resistivity Mud Cake
 MCTP.                         :Temperature Mud Cake
 FTYP.                         :Fluid Type
 FD  .K/M3                     :Fluid Density
 DFV .S                        :Fluid Viscosity
 FPH .                         :Fuild PH
 ELCO.                         :Electron Cutoff
~Other Information
#MNEM.UNIT  Information      Description
#---------- ---------------  ------------------------
# --------------------------
## COMMENTS    Top_Depth   Bot_Depth  LithCode  Lat    Long   Elev_Gl
##    Type of LithCode   Lithologie - 1970
##                    .00         .00         .00     
##                    .45        5.75         .00     
##                   5.80        7.15       13.00     
##                   7.20        8.50        2.00     
##                   8.55       10.20       23.00     
##                  10.25       11.30       11.00     
##                  11.35       15.15       23.00     
##                  15.20       18.40       21.00     
##                  18.45       27.30       12.00     
##                  27.35       39.00       11.00     
##                  39.05       47.15       12.00     
##                  47.20       49.00       10.00     
##                  49.05       51.00        7.00     
##                  51.05       54.00       10.00     
##                  54.05       55.80        9.00     
##                  55.85       57.00       20.00     
##                  57.05       58.00        9.00     
##                  58.05       60.00       20.00     
##                  60.05       63.20       11.00     
##                  63.25       67.00        8.00     
##                  67.05       70.20        9.00     
##                  70.25       74.00        7.00     
##                  74.05       75.70        9.00     
##                  75.75       78.00        7.00     
##                  78.05       84.00        8.00     
##                  84.05       92.00        9.00     
##                  92.05       94.10       10.00     
##                  94.15       97.50        9.00     
##                  97.55      100.55       10.00     
##                 100.60      100.60         .00     
##                 100.65      126.40     #######     
##    last_layer   126.4
# --------------------------
~A DEPTH    SN40     SP       CAL      LN160    GAMMA    
# ...
    79.300    31.430      .078   538.000    46.550     7.740
    79.350    31.360      .078   538.500    46.320     8.010
    79.400    31.290      .078   539.100    46.100     8.460
    79.450    31.220      .078   540.600    45.870     8.640
    79.500    31.170      .078   541.800    45.650     8.860
    79.550    31.120      .078   543.700    45.410     9.140
    79.600    31.070      .078   544.100    45.230     9.100
    79.650    31.010      .078   544.600    45.070     9.100
    79.700    30.940      .078   546.500    44.840     9.240
    79.750    30.860      .078   546.900    44.610     9.330
    79.800    30.790      .078   546.400    44.420     9.460
    79.850    30.730      .078   544.200    44.230     9.590
    79.900    30.670      .078   543.900    44.050     9.570
    79.950    30.610      .078   542.800    43.880     9.070
    80.000    30.540      .078   541.600    43.740     8.610
    80.050    30.490      .078   541.200    43.580     8.520
    80.100    30.450      .078   541.500    43.450     8.500
    80.150    30.400      .078   542.200    43.320     8.510
    80.200    30.360      .078   543.100    43.170     8.490
    80.250    30.330      .078   543.600    43.030     8.460
    80.300    30.280      .078   543.700    42.860     8.450
    80.350    30.220      .078   543.600    42.710     8.450
    80.400    30.150      .078   543.400    42.610     8.400
    80.450    30.080      .078   543.900    42.440     8.320
    80.500    30.000      .078   544.900    42.300     8.170
    80.550    29.900      .078   545.900    42.190     8.010
    80.600    29.790      .078   546.500    42.040     7.850
    80.650    29.670      .078   546.500    41.910     7.690
    80.700    29.560      .078   545.600    41.780     7.310
    80.750    29.440      .078   543.800    41.680     7.410
    80.800    29.330      .078   540.500    41.560     7.620
    80.850    29.240      .078   539.200    41.480     7.670
    80.900    29.140      .078   539.700    41.380     7.700
    80.950    29.030      .078   540.200    41.310     7.770
    81.000    28.960      .078   540.500    41.240     7.890
    81.050    28.900      .078   540.600    41.160     8.170
    81.100    28.850      .078   540.600    41.080     8.440
    81.150    28.820      .078   541.100    41.000     8.670
    81.200    28.790      .078   541.800    40.920     8.690
    81.250    28.760      .078   542.200    40.830     8.440
    81.300    28.730      .078   542.300    40.740     8.350
    81.350    28.700      .078   542.400    40.660     8.330
    81.400    28.670      .078   542.400    40.570     8.390
    81.450    28.650      .078   542.200    40.480     8.570
    81.500    28.620      .078   541.000    40.370     8.880
    81.550    28.590      .078   539.900    40.260     9.100
    81.600    28.560      .078   539.100    40.140     9.310
    81.650    28.540      .078   538.200    40.020     9.100
    81.700    28.510      .078   537.100    39.900     8.520
    81.750    28.490      .078   537.700    39.800     8.410
    81.800    28.470      .078   539.500    39.670     8.520
    81.850    28.450      .078   540.300    39.550     8.690
    81.900    28.420      .077   540.700    39.440     8.860
    81.950    28.390      .077   540.700    39.350     8.960
    82.000    28.370      .077   540.700    39.270     8.740
    82.050    28.360      .077   540.800    39.190     8.550
    82.100    28.340      .077   540.900    39.110     8.500
    82.150    28.320      .077   541.000    39.040     8.350
    82.200    28.290      .076   541.300    38.970     7.940
    82.250    28.270      .076   541.800    38.900     7.720
    82.300    28.240      .076   542.400    38.810     7.490
    82.350    28.220      .076   543.200    38.760     7.140
    82.400    28.200      .076   543.700    38.710     6.950
    82.450    28.180      .076   543.800    38.660     6.810
    82.500    28.160      .076   543.600    38.600     7.050
    82.550    28.130      .076   543.300    38.550     7.320
    82.600    28.100      .076   543.000    38.480     7.680
    82.650    28.070      .077   542.800    38.420     8.000
    82.700    28.030      .077   543.000    38.360     8.180
    82.750    28.000      .077   543.800    38.310     8.250
    82.800    27.960      .077   543.900    38.240     8.290
    82.850    27.920      .077   543.700    38.170     8.330
    82.900    27.880      .077   543.100    38.100     8.370
    82.950    27.850      .077   542.800    38.010     8.440
    83.000    27.810      .077   542.300    37.920     8.610
    83.050    27.770      .077   541.900    37.820     8.860
    83.100    27.760      .077   541.800    37.690     9.230
    83.150    27.750      .077   541.900    37.520     9.460
    83.200    27.740      .077   542.100    37.340     9.630
    83.250    27.730      .077   542.700    37.220     9.860
    83.300    27.720      .077   543.400    37.080     9.820
    83.350    27.700      .077   543.900    36.940     9.890
    83.400    27.660      .077   544.400    36.820    10.040
    83.450    27.630      .077   544.600    36.730    10.190
    83.500    27.600      .077   544.500    36.630    10.030
    83.550    27.570      .077   544.400    36.540     9.670
    83.600    27.520      .077   543.700    36.460     9.250
    83.650    27.460      .077   542.300    36.390     8.860
    83.700    27.420      .077   541.600    36.320     8.750
    83.750    27.370      .077   540.900    36.270     8.700
    83.800    27.310      .077   540.700    36.240     8.640
    83.850    27.220      .077   540.700    36.210     8.680
    83.900    27.170      .077   540.800    36.200     8.900
    83.950    27.130      .077   540.800    36.180     9.120
    84.000    27.080      .077   541.100    36.170     9.340
    84.050    27.030      .077   541.300    36.150     9.560
    84.100    26.910      .077   541.500    36.140     9.820
    84.150    26.800      .077   541.900    36.120     9.440
    84.200    26.680      .077   542.400    36.110     8.980
    84.250    26.560      .077   543.100    36.090     8.990
    84.300    26.450      .077   543.900    36.070     9.040
    84.350    26.330      .077   544.600    36.040     9.450
    84.400    26.220      .077   545.200    36.020     9.850
    84.450    26.080      .077   545.100    35.990    10.260
    84.500    26.030      .077   544.700    35.970    10.670
    84.550    25.990      .077   545.300    35.940    11.070
    84.600    25.940      .077   545.100    35.910    11.450
    84.650    25.890      .077   544.800    35.880    11.290
    84.700    25.870      .077   544.300    35.850    11.130
    84.750    25.840      .077   543.900    35.840    11.150
    84.800    25.830      .077   543.600    35.820    11.270
    84.850    25.830      .077   543.400    35.780    11.450
    84.900    25.840      .077   543.100    35.740    11.450
    84.950    25.850      .077   543.400    35.690    11.460
    85.000    25.870      .077   543.900    35.640    11.610
    85.050    25.910      .077   544.300    35.570    11.820
    85.100    25.950      .077   544.600    35.500    12.020
    85.150    26.000      .077   544.700    35.430    12.260
    85.200    26.050      .077   544.600    35.340    11.480
    85.250    26.100      .077   544.100    35.260    10.870
    85.300    26.150      .077   543.700    35.170    10.540
    85.350    26.200      .077   543.800    35.100    10.490
    85.400    26.240      .077   544.300    35.040    10.460
    85.450    26.290      .077   544.100    34.960    10.220
    85.500    26.340      .077   543.300    34.880     9.760
    85.550    26.390      .078   542.700    34.790     9.410
    85.600    26.440      .078   542.400    34.680     9.310
    85.650    26.490      .078   542.400    34.580     9.370
    85.700    26.520      .078   542.200    34.490     9.450
    85.750    26.550      .078   542.000    34.390     9.480
    85.800    26.570      .078   541.800    34.280     9.470
    85.850    26.590      .078   541.700    34.180     9.490
