~Version Information
 VERS.                2.0:  CWLS LOG ASCII STANDARD -VERSION 2.0
 WRAP.                 NO:  ONE LINE PER DEPTH STEP
~WELL INFORMATION BLOCK
#MNEM.UNIT       DATA		            DESCRIPTION OF MNEMONIC
#---------    -------------            ------------------------
 STRT.M      .000                        :START DEPTH
 STOP.M    79.950                        :STOP DEPTH
 STEP.M      .050                        :STEP
 NULL.    -999999.0                      :NULL VALUE
 COMP.       WML                         :COMPANY
 WELL.                          B62B0898 :WELL
 FLD .    Voerendaal                     :FIELD
 CNTY.                                   :COUNTY
 STAT.                                   :STATE
 SRVC.                                   :SERVICE COMPANY
 DATE.     17-NOV-90                     :LOG DATE
 UWI .                                   :UNIQUE WELL ID
 LIC .                                   :LICENSE NUMBER
~Curve Information Block
#MNEM.UNIT      API CODE     Curve Description
#---------    -------------  ------------------------
DEPTH    .M         00 000 00 00          :  1  DEPTH
UFLOW    .M/S       00 000 00 00          :  2  UFLOW
TEMP     .DEGC      00 000 00 00          :  3  TEMP
SN40     .OHM.M     00 000 00 00          :  4  SN40
SP       .V         00 000 00 00          :  5  SP
CAL      .MM        00 000 00 00          :  6  CAL
TEMP     .DEGC      00 000 00 00          :  7  TEMP
GAMMA    .CPS       00 000 00 00          :  8  GAMMA
LN160    .OHM.M     00 000 00 00          :  9  LN160
~Parameter Information Block
#MNEM.UNIT   Information     Description
#---------- ---------------  ------------------------
 FILE.                         :File Type
 FIID.                         :File Type Identifier
 VERS.                         :System Version
 SER .                         :System Serial Number
 TRUK.                         :Truck Calibration Number
 TOOL.                         :Tool Serial Number
 TIME.                         :Time    HrHrMinMin
 LAT .                         :Latitude
 LON .                         :Longitude
 LMF .            MV           :LOG Measured FROM
 DMF .                         :Driller Measured From
 PD  .                         :Permanent Data
 PDEV.                         :Elevation Permanent Data
 EKB .M                        :Elevation Kelly Bushing
 ELEV.DF                       :Elevation DF
 EGL .M                        :Elevation Ground Level
 DRDP.                         :Drillers Depth
 CASD.                         :Casing Diameter
 CASB.                         :Casing Bottom
 CASX.                         :Casing Type
 CAST.                         :Casing Thickness
 TNOC.                         :Time Circulation Stopped
 LOGU.                         :Logging Unit
 RECB.            Veenendaal   :Recorded By
 OSR1.                         :Other Services
 OSR2.                         :Other Services
 OSR3.                         :Other Services
 BS  .MM                       :Bit Size
 MST .                         :Mean Surface Temperature
 TGRD.                         :Temperature Gradiant
 MAGN.                         :Magnetic Declination
 MDEN.                         :Density Matrix
 MATR.                         :Neutron Matrix
 DTMT.                         :Delta T Matrix
 DTFL.                         :Delta T Fluid
 MUDS.                         :Mud Sample Source
 MRS .                         :Mud Resistivity
 MTP .                         :Mud Temperature
 MFRS.                         :Resistivity Mud Filtrate
 MFTP.                         :Temperature Mud Filtrate
 MCRS.                         :Resistivity Mud Cake
 MCTP.                         :Temperature Mud Cake
 FTYP.                         :Fluid Type
 FD  .K/M3                     :Fluid Density
 DFV .S                        :Fluid Viscosity
 FPH .                         :Fuild PH
 ELCO.                         :Electron Cutoff
~Other Information
#MNEM.UNIT  Information      Description
#---------- ---------------  ------------------------
# --------------------------
## COMMENTS    Top_Depth   Bot_Depth  LithCode  Lat    Long   Elev_Gl
##    Type of LithCode   Lithologie - 1970
##                    .00         .80         .00     
##                    .85        2.25       19.00     
##                   2.30        6.15       12.00     
##                   6.20       28.50        7.00     
##                  28.55       40.50        9.00     
##                  40.55       74.60         .00     
##                  74.65       78.00       10.00     
##                  78.05       78.05         .00     
##    last_layer   78.05
# --------------------------
~A DEPTH    UFLOW    TEMP     SN40     SP       CAL      TEMP     GAMMA    LN160    
# ...
    73.500    50.920    11.390    49.490      .013   526.500    11.990     6.290    60.770
    73.550    52.690    11.380    49.600      .013   529.300    11.990     6.480    59.900
    73.600    57.020    11.380    49.760      .013   532.100    11.990     6.590    59.520
    73.650    58.450    11.380    49.900      .013   532.000    12.000     6.650    58.850
    73.700    59.330    11.380    50.020      .013   532.200    12.000     6.690    58.350
    73.750    59.540    11.380    50.040      .014   533.800    12.000     6.720    57.940
    73.800    59.490    11.390    49.920      .014   540.300    12.000     6.840    57.600
    73.850    59.140    11.390    49.530      .014   543.800    12.000     6.880    57.320
    73.900    57.630    11.390    49.110      .014   546.400    12.000     6.870    57.110
    73.950    54.120    11.400    48.800      .014   546.900    12.000     6.870    56.950
    74.000    50.610    11.400    48.440      .014   547.300    12.000     6.880    56.790
    74.050    47.100    11.410    48.210      .015   548.400    12.000     6.920    56.570
    74.100    43.590    11.410    48.020      .015   549.000    12.000     7.000    56.080
    74.150    40.080    11.410    47.820      .015   547.500    12.000     7.100    55.630
    74.200    36.560    11.420    47.570      .015   544.000    12.000     7.150    55.120
    74.250    33.050    11.420    47.280      .015   540.900    12.000     7.200    54.140
    74.300    29.540    11.430    46.980      .015   537.700    12.000     7.230    53.330
    74.350    26.890    11.440    46.510      .014   534.500    12.000     7.230    52.560
    74.400    24.740    11.450    46.130      .014   529.800    12.000     7.220    51.820
    74.450    22.590    11.460    45.680      .014   527.700    12.000     7.230    51.190
    74.500    20.450    11.470    45.040      .014   533.700    12.000     7.250    50.470
    74.550    18.300    11.480    44.150      .013   538.700    12.000     7.290    49.820
    74.600    16.560    11.500    43.000      .013   535.300    12.000     7.390    49.370
    74.650    15.880    11.510    42.390      .013   534.300    12.000     7.620    49.180
    74.700    16.080    11.520    42.010      .013   536.400    12.000     7.980    49.080
    74.750    16.890    11.520    41.420      .013   539.300    12.000     8.250    49.020
    74.800    21.170    11.520    41.120      .013   539.900    12.000     8.560    48.970
    74.850    25.460    11.520    40.740      .013   537.000    12.000     9.030    48.940
    74.900    29.740    11.510    40.360      .013   535.200    12.000     9.200    48.950
    74.950    34.030    11.510    40.020      .014   534.900    12.000     9.240    48.950
    75.000    38.310    11.500    39.610      .014   534.100    12.000     9.310    48.940
    75.050    42.600    11.490    39.170      .015   533.700    12.000     9.420    48.900
    75.100    46.880    11.490    38.660      .015   532.700    12.000     9.850    48.760
    75.150    51.200    11.490    37.790      .016   531.800    12.000    10.300    48.530
    75.200    57.300    11.480    37.050      .017   532.100    12.000    10.580    48.280
    75.250    58.530    11.480    35.880      .017   532.000    12.000    10.660    48.000
    75.300    60.490    11.480    35.230      .017   532.000    12.000    10.670    47.630
    75.350    60.410    11.480    34.630      .018   531.100    12.000    10.760    47.330
    75.400    58.290    11.480    34.320      .018   527.800    12.000    10.880    47.000
    75.450    54.100    11.490    34.220      .018   523.800    12.000    10.940    46.800
    75.500    49.910    11.490    34.150      .019   522.800    12.000    10.870    46.570
    75.550    47.030    11.490    34.090      .019   522.300    12.000    10.820    46.330
    75.600    42.790    11.490    33.930      .020   522.100    12.000    10.840    46.180
    75.650    38.550    11.490    33.590      .021   521.900    12.000    10.850    46.020
    75.700    34.310    11.490    33.190 -999999.0    521.100    12.000    10.850    45.870
    75.750    30.060    11.490    32.840 -999999.0    517.700    12.000    10.850    45.740
    75.800    25.820    11.490    32.660 -999999.0    511.900    12.000    10.770    45.640
    75.850    21.580    11.490    32.530 -999999.0    498.800    12.000    10.690    45.590
    75.900    17.330    11.490    32.430 -999999.0    484.100    12.000    10.670    45.590
    75.950    13.090    11.490    32.380 -999999.0    460.900    12.000    10.710    45.580
    76.000     8.850    11.490    32.370 -999999.0    437.800    12.000    10.810    45.570
    76.050     4.600    11.490    32.380 -999999.0    414.600    12.000    10.990    45.560
    76.100      .000    11.490    32.400 -999999.0    391.400    12.000    10.970    45.540
    76.150 -999999.0     11.490    32.450 -999999.0    368.200    12.000    10.790    45.540
    76.200 -999999.0     11.500    32.540 -999999.0    345.000 -999999.0     10.620    45.570
    76.250 -999999.0     11.500    32.640 -999999.0    321.800 -999999.0     10.430    45.600
    76.300 -999999.0     11.500    32.700 -999999.0    298.700 -999999.0     10.370    45.640
    76.350 -999999.0     11.510    32.720 -999999.0    275.500 -999999.0     10.630    45.690
    76.400 -999999.0     11.510    32.670 -999999.0    252.300 -999999.0     10.850    45.740
    76.450 -999999.0     11.510    32.600 -999999.0    224.800 -999999.0     10.880    45.820
    76.500 -999999.0     11.510    32.580 -999999.0    193.800 -999999.0     10.520    45.940
    76.550 -999999.0     11.520    32.550 -999999.0    162.700 -999999.0     10.350 -999999.0 
    76.600 -999999.0     11.520    32.590 -999999.0    131.700 -999999.0     10.260 -999999.0 
    76.650 -999999.0     11.520    32.700 -999999.0    107.000 -999999.0     10.110 -999999.0 
    76.700 -999999.0     11.520    32.770 -999999.0     92.700 -999999.0      9.900 -999999.0 
    76.750 -999999.0     11.520    32.860 -999999.0     77.000 -999999.0      9.850 -999999.0 
    76.800 -999999.0     11.520    32.950 -999999.0     65.500 -999999.0     10.080 -999999.0 
    76.850 -999999.0     11.520    33.030 -999999.0     55.000 -999999.0     10.260 -999999.0 
    76.900 -999999.0     11.520    33.050 -999999.0     52.000 -999999.0     10.320 -999999.0 
    76.950 -999999.0     11.520    33.010 -999999.0     51.200 -999999.0     10.230 -999999.0 
    77.000 -999999.0     11.510    32.940 -999999.0     39.400 -999999.0     10.240 -999999.0 
    77.050 -999999.0     11.510    32.820 -999999.0     22.400 -999999.0     10.340 -999999.0 
    77.100 -999999.0     11.510    32.740 -999999.0     16.900 -999999.0     10.560 -999999.0 
    77.150 -999999.0     11.510 -999999.0  -999999.0     16.800 -999999.0  -999999.0  -999999.0 
    77.200 -999999.0     11.510 -999999.0  -999999.0     19.100 -999999.0  -999999.0  -999999.0 
    77.250 -999999.0     11.520 -999999.0  -999999.0     19.800 -999999.0  -999999.0  -999999.0 
    77.300 -999999.0     11.520 -999999.0  -999999.0     19.900 -999999.0  -999999.0  -999999.0 
    77.350 -999999.0     11.520 -999999.0  -999999.0     18.900 -999999.0  -999999.0  -999999.0 
    77.400 -999999.0     11.530 -999999.0  -999999.0     17.300 -999999.0  -999999.0  -999999.0 
    77.450 -999999.0     11.530 -999999.0  -999999.0     16.200 -999999.0  -999999.0  -999999.0 
    77.500 -999999.0     11.540 -999999.0  -999999.0     15.200 -999999.0  -999999.0  -999999.0 
    77.550 -999999.0     11.540 -999999.0  -999999.0     14.600 -999999.0  -999999.0  -999999.0 
    77.600 -999999.0     11.540 -999999.0  -999999.0     13.800 -999999.0  -999999.0  -999999.0 
    77.650 -999999.0     11.550 -999999.0  -999999.0     11.200 -999999.0  -999999.0  -999999.0 
    77.700 -999999.0     11.550 -999999.0  -999999.0      9.200 -999999.0  -999999.0  -999999.0 
    77.750 -999999.0     11.550 -999999.0  -999999.0      7.100 -999999.0  -999999.0  -999999.0 
    77.800 -999999.0     11.550 -999999.0  -999999.0      4.700 -999999.0  -999999.0  -999999.0 
