~Version Information
 VERS.                2.0:  CWLS LOG ASCII STANDARD -VERSION 2.0
 WRAP.                 NO:  ONE LINE PER DEPTH STEP
~WELL INFORMATION BLOCK
#MNEM.UNIT       DATA		            DESCRIPTION OF MNEMONIC
#---------    -------------            ------------------------
 STRT.M      .000                        :START DEPTH
 STOP.M    79.950                        :STOP DEPTH
 STEP.M      .050                        :STEP
 NULL.    -999999.0                      :NULL VALUE
 COMP.       WML                         :COMPANY
 WELL.                          B62B0898 :WELL
 FLD .    Voerendaal                     :FIELD
 CNTY.                                   :COUNTY
 STAT.                                   :STATE
 SRVC.                                   :SERVICE COMPANY
 DATE.     17-NOV-90                     :LOG DATE
 UWI .                                   :UNIQUE WELL ID
 LIC .                                   :LICENSE NUMBER
~Curve Information Block
#MNEM.UNIT      API CODE     Curve Description
#---------    -------------  ------------------------
DEPTH    .M         00 000 00 00          :  1  DEPTH
UFLOW    .M/S       00 000 00 00          :  2  UFLOW
TEMP     .DEGC      00 000 00 00          :  3  TEMP
SN40     .OHM.M     00 000 00 00          :  4  SN40
SP       .V         00 000 00 00          :  5  SP
CAL      .MM        00 000 00 00          :  6  CAL
TEMP     .DEGC      00 000 00 00          :  7  TEMP
GAMMA    .CPS       00 000 00 00          :  8  GAMMA
LN160    .OHM.M     00 000 00 00          :  9  LN160
~Parameter Information Block
#MNEM.UNIT   Information     Description
#---------- ---------------  ------------------------
 FILE.                         :File Type
 FIID.                         :File Type Identifier
 VERS.                         :System Version
 SER .                         :System Serial Number
 TRUK.                         :Truck Calibration Number
 TOOL.                         :Tool Serial Number
 TIME.                         :Time    HrHrMinMin
 LAT .                         :Latitude
 LON .                         :Longitude
 LMF .            MV           :LOG Measured FROM
 DMF .                         :Driller Measured From
 PD  .                         :Permanent Data
 PDEV.                         :Elevation Permanent Data
 EKB .M                        :Elevation Kelly Bushing
 ELEV.DF                       :Elevation DF
 EGL .M                        :Elevation Ground Level
 DRDP.                         :Drillers Depth
 CASD.                         :Casing Diameter
 CASB.                         :Casing Bottom
 CASX.                         :Casing Type
 CAST.                         :Casing Thickness
 TNOC.                         :Time Circulation Stopped
 LOGU.                         :Logging Unit
 RECB.            Veenendaal   :Recorded By
 OSR1.                         :Other Services
 OSR2.                         :Other Services
 OSR3.                         :Other Services
 BS  .MM                       :Bit Size
 MST .                         :Mean Surface Temperature
 TGRD.                         :Temperature Gradiant
 MAGN.                         :Magnetic Declination
 MDEN.                         :Density Matrix
 MATR.                         :Neutron Matrix
 DTMT.                         :Delta T Matrix
 DTFL.                         :Delta T Fluid
 MUDS.                         :Mud Sample Source
 MRS .                         :Mud Resistivity
 MTP .                         :Mud Temperature
 MFRS.                         :Resistivity Mud Filtrate
 MFTP.                         :Temperature Mud Filtrate
 MCRS.                         :Resistivity Mud Cake
 MCTP.                         :Temperature Mud Cake
 FTYP.                         :Fluid Type
 FD  .K/M3                     :Fluid Density
 DFV .S                        :Fluid Viscosity
 FPH .                         :Fuild PH
 ELCO.                         :Electron Cutoff
~Other Information
#MNEM.UNIT  Information      Description
#---------- ---------------  ------------------------
# --------------------------
## COMMENTS    Top_Depth   Bot_Depth  LithCode  Lat    Long   Elev_Gl
##    Type of LithCode   Lithologie - 1970
##                    .00         .80         .00     
##                    .85        2.25       19.00     
##                   2.30        6.15       12.00     
##                   6.20       28.50        7.00     
##                  28.55       40.50        9.00     
##                  40.55       74.60         .00     
##                  74.65       78.00       10.00     
##                  78.05       78.05         .00     
##    last_layer   78.05
# --------------------------
~A DEPTH    UFLOW    TEMP     SN40     SP       CAL      TEMP     GAMMA    LN160    
# ...
     8.350    26.370    10.470 -999999.0  -999999.0    361.000     9.740     9.550 -999999.0 
     8.400    26.280    10.480 -999999.0  -999999.0    361.000     9.740     9.560 -999999.0 
     8.450    25.710    10.480 -999999.0  -999999.0    361.000     9.750     9.580 -999999.0 
     8.500    25.300    10.480 -999999.0  -999999.0    361.000     9.750     9.660 -999999.0 
     8.550    24.460    10.480 -999999.0  -999999.0    361.100     9.760     9.760 -999999.0 
     8.600    24.150    10.480 -999999.0  -999999.0    361.100     9.760     9.830 -999999.0 
     8.650    23.930    10.480 -999999.0  -999999.0    361.000     9.770     9.860 -999999.0 
     8.700    24.030    10.480 -999999.0  -999999.0    361.100     9.770     9.720 -999999.0 
     8.750    24.320    10.480 -999999.0  -999999.0    361.100     9.780     9.520 -999999.0 
     8.800    24.520    10.480 -999999.0  -999999.0    361.200     9.780     9.440 -999999.0 
     8.850    24.730    10.480 -999999.0  -999999.0    361.300     9.790     9.440 -999999.0 
     8.900    24.880    10.480 -999999.0  -999999.0    361.300     9.790     9.520 -999999.0 
     8.950    24.890    10.490 -999999.0  -999999.0    361.300     9.800     9.660 -999999.0 
     9.000    24.860    10.490 -999999.0  -999999.0    361.300     9.800     9.760 -999999.0 
     9.050    24.680    10.490 -999999.0  -999999.0    361.200     9.810     9.790 -999999.0 
     9.100    24.060    10.490 -999999.0  -999999.0    361.000     9.810     9.850 -999999.0 
     9.150    23.830    10.490 -999999.0  -999999.0    360.900     9.820    10.020 -999999.0 
     9.200    24.130    10.490 -999999.0  -999999.0    360.700     9.820    10.070 -999999.0 
     9.250    24.590    10.490 -999999.0  -999999.0    360.600     9.830    10.040 -999999.0 
     9.300    24.650    10.490 -999999.0  -999999.0    360.600     9.840    10.000 -999999.0 
     9.350    24.630    10.490 -999999.0  -999999.0    360.500     9.840     9.940 -999999.0 
     9.400    24.520    10.490 -999999.0  -999999.0    360.500     9.850     9.850 -999999.0 
     9.450    24.380    10.490 -999999.0  -999999.0    360.500     9.850     9.680 -999999.0 
     9.500    24.230    10.490 -999999.0  -999999.0    360.500     9.860     9.240 -999999.0 
     9.550    23.980    10.490 -999999.0  -999999.0    360.400     9.860     8.890 -999999.0 
     9.600    23.210    10.490 -999999.0  -999999.0    360.400     9.870     8.510 -999999.0 
     9.650    22.730    10.480 -999999.0  -999999.0    360.400     9.880     8.490 -999999.0 
     9.700    22.430    10.480 -999999.0  -999999.0    360.300     9.880     8.400 -999999.0 
     9.750    22.330    10.480 -999999.0  -999999.0    360.300     9.890     8.290 -999999.0 
     9.800    22.360    10.480 -999999.0  -999999.0    360.200     9.890     8.190 -999999.0 
     9.850    22.650    10.480 -999999.0  -999999.0    360.000     9.900     8.110 -999999.0 
     9.900    22.900    10.480 -999999.0  -999999.0    360.000     9.900     8.050 -999999.0 
     9.950    23.120    10.480 -999999.0  -999999.0    360.100     9.910     8.010 -999999.0 
    10.000    23.580    10.480 -999999.0  -999999.0    360.300     9.910     8.140 -999999.0 
    10.050    23.980    10.480 -999999.0  -999999.0    360.300     9.920     8.450 -999999.0 
    10.100    24.290    10.490 -999999.0  -999999.0    360.300     9.920     8.730 -999999.0 
    10.150    24.710    10.490 -999999.0  -999999.0    360.400     9.930     8.720 -999999.0 
    10.200    25.110    10.490 -999999.0  -999999.0    360.500     9.940     8.720 -999999.0 
    10.250    25.370    10.490 -999999.0  -999999.0    360.700     9.940     8.740 -999999.0 
    10.300    25.420    10.490 -999999.0  -999999.0    360.700     9.950     8.770 -999999.0 
    10.350    25.410    10.500 -999999.0  -999999.0    360.800     9.950     8.830 -999999.0 
    10.400    25.620    10.500 -999999.0  -999999.0    360.900     9.960     8.880 -999999.0 
    10.450    26.130    10.500 -999999.0  -999999.0    360.900     9.970     9.140 -999999.0 
    10.500    27.140    10.500 -999999.0  -999999.0    361.000     9.970     9.240 -999999.0 
    10.550    28.150    10.500 -999999.0  -999999.0    360.800     9.980     9.240 -999999.0 
    10.600    29.160    10.500 -999999.0  -999999.0    360.800     9.980     9.250 -999999.0 
    10.650    29.750    10.500 -999999.0  -999999.0    360.800     9.990     9.270 -999999.0 
    10.700    29.860    10.500 -999999.0  -999999.0    360.700    10.000     9.260 -999999.0 
    10.750    29.700    10.500 -999999.0  -999999.0    360.500    10.000     8.800 -999999.0 
    10.800    29.320    10.500 -999999.0  -999999.0    360.200    10.010     8.660 -999999.0 
    10.850    29.280    10.500 -999999.0  -999999.0    360.100    10.010     8.520 -999999.0 
    10.900    29.220    10.500 -999999.0  -999999.0    360.000    10.020     8.410 -999999.0 
    10.950    29.150    10.500 -999999.0  -999999.0    360.100    10.030     8.450 -999999.0 
    11.000    28.960    10.500 -999999.0  -999999.0    360.200    10.030     8.570 -999999.0 
    11.050    28.610    10.500 -999999.0  -999999.0    360.200    10.040     8.790 -999999.0 
    11.100    28.680    10.500 -999999.0  -999999.0    360.300    10.040     8.860 -999999.0 
    11.150    28.840    10.490 -999999.0  -999999.0    360.500    10.050     8.940 -999999.0 
    11.200    28.610    10.490 -999999.0  -999999.0    360.700    10.050     9.050 -999999.0 
    11.250    28.060    10.490 -999999.0  -999999.0    360.700    10.050     8.900 -999999.0 
    11.300    27.320    10.490 -999999.0  -999999.0    360.700    10.050     8.700 -999999.0 
    11.350    27.090    10.500 -999999.0  -999999.0    360.800    10.050     8.620 -999999.0 
    11.400    26.930    10.500 -999999.0  -999999.0    360.700    10.050     8.760 -999999.0 
    11.450    27.220    10.500 -999999.0  -999999.0    360.700    10.050     8.830 -999999.0 
    11.500    27.590    10.500 -999999.0  -999999.0    360.700    10.050     8.870 -999999.0 
    11.550    27.950    10.500 -999999.0  -999999.0    360.600    10.050     8.910 -999999.0 
    11.600    28.200    10.510 -999999.0  -999999.0    360.500    10.050     9.000 -999999.0 
    11.650    28.280    10.510 -999999.0  -999999.0    360.400    10.060     9.070 -999999.0 
    11.700    28.330    10.510 -999999.0  -999999.0    360.500    10.060     9.320 -999999.0 
    11.750    28.470    10.510 -999999.0  -999999.0    360.600    10.060     9.480 -999999.0 
    11.800    28.680    10.510 -999999.0  -999999.0    360.700    10.060     9.540 -999999.0 
    11.850    28.600    10.510 -999999.0  -999999.0    360.800    10.060     9.520 -999999.0 
    11.900    28.320    10.520 -999999.0  -999999.0    361.000    10.060     9.460 -999999.0 
    11.950    27.940    10.520 -999999.0  -999999.0    361.200    10.060     9.350 -999999.0 
    12.000    27.510    10.520 -999999.0  -999999.0    361.800    10.060     9.190 -999999.0 
    12.050    27.610    10.520 -999999.0  -999999.0    363.100    10.060     9.070 -999999.0 
    12.100    27.740    10.520 -999999.0  -999999.0    364.200    10.060     8.950 -999999.0 
    12.150    27.670    10.510 -999999.0  -999999.0    365.600    10.060     8.790 -999999.0 
    12.200    27.160    10.510 -999999.0  -999999.0    364.900    10.070     8.720 -999999.0 
    12.250    26.680    10.510 -999999.0  -999999.0    362.200    10.070     8.770 -999999.0 
    12.300    26.540    10.510 -999999.0  -999999.0    361.400    10.080     9.220 -999999.0 
    12.350    26.630    10.510 -999999.0  -999999.0    361.200    10.090     9.570 -999999.0 
    12.400    26.900    10.510 -999999.0  -999999.0    361.100    10.090     9.700 -999999.0 
    12.450    27.500    10.510 -999999.0  -999999.0    361.100    10.100     9.800 -999999.0 
    12.500    28.050    10.510 -999999.0  -999999.0    361.100    10.110     9.830 -999999.0 
    12.550    28.480    10.510 -999999.0  -999999.0    361.100    10.120     9.730 -999999.0 
    12.600    28.690    10.510 -999999.0  -999999.0    361.100    10.120     9.620 -999999.0 
