~Version Information
 VERS.                2.0:  CWLS LOG ASCII STANDARD -VERSION 2.0
 WRAP.                 NO:  ONE LINE PER DEPTH STEP
~WELL INFORMATION BLOCK
#MNEM.UNIT       DATA		            DESCRIPTION OF MNEMONIC
#---------    -------------            ------------------------
 STRT.M      .000                        :START DEPTH
 STOP.M   #######                        :STOP DEPTH
 STEP.M      .050                        :STEP
 NULL.    -999999.0                      :NULL VALUE
 COMP.       SCHIFOOD                    :COMPANY
 WELL.                          B62B0896 :WELL
 FLD .    Hoensbroek                     :FIELD
 CNTY.                                   :COUNTY
 STAT.                                   :STATE
 SRVC.                                   :SERVICE COMPANY
 DATE.     17-JUL-90                     :LOG DATE
 UWI .                                   :UNIQUE WELL ID
 LIC .                                   :LICENSE NUMBER
~Curve Information Block
#MNEM.UNIT      API CODE     Curve Description
#---------    -------------  ------------------------
DEPTH    .M         00 000 00 00          :  1  DEPTH
SN40     .OHM.M     00 000 00 00          :  2  SN40
SP       .V         00 000 00 00          :  3  SP
CAL      .MM        00 000 00 00          :  4  CAL
LN160    .OHM.M     00 000 00 00          :  5  LN160
GAMMA    .CPS       00 000 00 00          :  6  GAMMA
~Parameter Information Block
#MNEM.UNIT   Information     Description
#---------- ---------------  ------------------------
 FILE.                         :File Type
 FIID.                         :File Type Identifier
 VERS.                         :System Version
 SER .                         :System Serial Number
 TRUK.                         :Truck Calibration Number
 TOOL.                         :Tool Serial Number
 TIME.                         :Time    HrHrMinMin
 LAT .                         :Latitude
 LON .                         :Longitude
 LMF .            MV           :LOG Measured FROM
 DMF .                         :Driller Measured From
 PD  .                         :Permanent Data
 PDEV.                         :Elevation Permanent Data
 EKB .M                        :Elevation Kelly Bushing
 ELEV.DF                       :Elevation DF
 EGL .M                        :Elevation Ground Level
 DRDP.                         :Drillers Depth
 CASD.                         :Casing Diameter
 CASB.                         :Casing Bottom
 CASX.                         :Casing Type
 CAST.                         :Casing Thickness
 TNOC.                         :Time Circulation Stopped
 LOGU.                         :Logging Unit
 RECB.            Bergsma      :Recorded By
 OSR1.                         :Other Services
 OSR2.                         :Other Services
 OSR3.                         :Other Services
 BS  .MM                       :Bit Size
 MST .                         :Mean Surface Temperature
 TGRD.                         :Temperature Gradiant
 MAGN.                         :Magnetic Declination
 MDEN.                         :Density Matrix
 MATR.                         :Neutron Matrix
 DTMT.                         :Delta T Matrix
 DTFL.                         :Delta T Fluid
 MUDS.                         :Mud Sample Source
 MRS .            6            :Mud Resistivity
 MTP .            19           :Mud Temperature
 MFRS.                         :Resistivity Mud Filtrate
 MFTP.                         :Temperature Mud Filtrate
 MCRS.                         :Resistivity Mud Cake
 MCTP.                         :Temperature Mud Cake
 FTYP.                         :Fluid Type
 FD  .K/M3                     :Fluid Density
 DFV .S                        :Fluid Viscosity
 FPH .                         :Fuild PH
 ELCO.                         :Electron Cutoff
~Other Information
#MNEM.UNIT  Information      Description
#---------- ---------------  ------------------------
# --------------------------
## COMMENTS    Top_Depth   Bot_Depth  LithCode  Lat    Long   Elev_Gl
##    Type of LithCode   Lithologie - 1970
##                    .00        6.00         .00     
##                   6.05        8.00        2.00     
##                   8.05       11.50       22.00     
##                  11.55       15.20       23.00     
##                  15.25       19.00       22.00     
##                  19.05       20.25       11.00     
##                  20.30       22.10       12.00     
##                  22.15       23.70       11.00     
##                  23.75       25.15       12.00     
##                  25.20       26.10       11.00     
##                  26.15       27.20       12.00     
##                  27.25       35.00       11.00     
##                  35.05       47.55       12.00     
##                  47.60       51.00        7.00     
##                  51.05       52.25       11.00     
##                  52.30       54.00        7.00     
##                  54.05       55.10       11.00     
##                  55.15       58.00       12.00     
##                  58.05       62.60       11.00     
##                  62.65       67.20        8.00     
##                  67.25       70.05        9.00     
##                  70.10       74.00        7.00     
##                  74.05       75.40        8.00     
##                  75.45       80.00        7.00     
##                  80.05       92.40        9.00     
##                  92.45       94.50       10.00     
##                  94.55       96.90        8.00     
##                  96.95       99.30       10.00     
##                  99.35       99.35         .00     
##    last_layer   99.35
# --------------------------
~A DEPTH    SN40     SP       CAL      LN160    GAMMA    
# ...
    32.800    14.950      .068   561.100    18.840    26.660
    32.850    14.900      .068   561.900    18.830    26.620
    32.900    14.850      .068   562.600    18.820    26.700
    32.950    14.810      .068   563.200    18.810    26.780
    33.000    14.760      .068   563.000    18.810    26.820
    33.050    14.720      .068   562.400    18.810    26.650
    33.100    14.680      .068   561.900    18.810    26.450
    33.150    14.630      .068   561.900    18.810    25.940
    33.200    14.580      .068   562.700    18.810    25.820
    33.250    14.530      .068   564.200    18.830    25.840
    33.300    14.490      .068   566.100    18.860    25.870
    33.350    14.380      .069   568.000    18.900    25.810
    33.400    14.280      .069   569.700    18.930    25.800
    33.450    14.140      .069   571.300    18.970    25.890
    33.500    13.980      .069   573.200    19.020    26.050
    33.550    13.820      .069   575.100    19.080    26.170
    33.600    13.680      .069   576.800    19.130    26.240
    33.650    13.480      .069   578.000    19.170    26.220
    33.700    13.320      .070   579.300    19.210    26.200
    33.750    13.220      .070   580.300    19.260    26.090
    33.800    13.170      .071   581.200    19.310    25.950
    33.850    13.140      .071   581.500    19.360    25.960
    33.900    13.110      .072   581.600    19.440    25.940
    33.950    13.100      .072   581.700    19.500    25.840
    34.000    13.090      .072   581.900    19.560    25.600
    34.050    13.110      .072   581.700    19.630    25.610
    34.100    13.130      .073   580.800    19.700    26.030
    34.150    13.190      .073   578.400    19.770    26.240
    34.200    13.260      .073   573.100    19.860    26.220
    34.250    13.340      .073   570.300    19.930    25.960
    34.300    13.470      .073   569.700    19.990    25.850
    34.350    13.630      .073   569.400    20.050    25.880
    34.400    13.780      .073   569.000    20.100    25.970
    34.450    13.980      .073   568.600    20.160    25.970
    34.500    14.210      .073   568.100    20.200    25.840
    34.550    14.470      .073   567.600    20.250    25.040
    34.600    14.720      .073   567.100    20.290    25.180
    34.650    14.940      .073   566.800    20.340    25.200
    34.700    15.100      .073   566.600    20.390    25.160
    34.750    15.310      .073   566.600    20.450    25.060
    34.800    15.530      .073   567.800    20.500    24.800
    34.850    15.760      .073   569.500    20.550    24.710
    34.900    15.940      .072   571.600    20.600    24.670
    34.950    16.170      .072   572.800    20.660    24.660
    35.000    16.450      .072   574.100    20.710    24.660
    35.050    16.710      .072   573.500    20.760    24.650
    35.100    16.990      .072   571.700    20.820    24.620
    35.150    17.210      .072   570.300    20.870    24.550
    35.200    17.420      .072   568.300    20.920    24.330
    35.250    17.550      .072   566.200    21.010    24.140
    35.300    17.780      .072   563.900    21.100    23.910
    35.350    17.940      .072   562.200    21.170    23.720
    35.400    18.120      .072   561.300    21.240    23.640
    35.450    18.250      .072   560.800    21.310    23.540
    35.500    18.300      .072   560.500    21.380    23.520
    35.550    18.300      .072   560.200    21.450    23.550
    35.600    18.260      .072   560.100    21.520    23.580
    35.650    18.200      .072   560.100    21.590    23.570
    35.700    18.110      .072   560.100    21.660    23.500
    35.750    17.990      .072   560.200    21.730    23.330
    35.800    17.860      .072   560.400    21.800    23.210
    35.850    17.740      .073   560.700    21.870    23.190
    35.900    17.600      .073   561.000    21.930    23.300
    35.950    17.460      .073   563.100    21.980    23.430
    36.000    17.290      .073   567.900    22.060    23.670
    36.050    17.140      .073   572.700    22.130    23.830
    36.100    16.980      .073   576.200    22.180    24.000
    36.150    16.830      .073   584.500    22.260    24.040
    36.200    16.630      .073   592.800    22.310    24.040
    36.250    16.570      .073   601.000    22.370    24.030
    36.300    16.500      .073   607.200    22.420    24.010
    36.350    16.480      .073   605.900    22.470    24.010
    36.400    16.450      .073   604.500    22.530    24.040
    36.450    16.430      .073   602.800    22.580    24.250
    36.500    16.410      .073   604.200    22.630    24.490
    36.550    16.390      .073   605.500    22.670    24.700
    36.600    16.370      .073   606.900    22.720    24.920
    36.650    16.360      .073   608.300    22.760    25.050
    36.700    16.340      .073   608.500    22.800    25.150
    36.750    16.320      .073   608.200    22.840    25.180
    36.800    16.300      .073   607.900    22.890    24.850
    36.850    16.300      .073   607.500    22.930    24.580
    36.900    16.290      .073   608.200    22.980    24.470
    36.950    16.280      .073   608.900    23.010    24.470
    37.000    16.290      .073   608.100    23.040    24.510
    37.050    16.300      .073   605.200    23.070    24.560
    37.100    16.310      .073   602.300    23.120    24.600
    37.150    16.320      .073   599.300    23.160    24.600
    37.200    16.330      .073   600.800    23.200    24.560
    37.250    16.350      .073   601.800    23.230    24.580
    37.300    16.380      .073   602.900    23.270    24.610
    37.350    16.410      .073   604.200    23.300    24.750
    37.400    16.450      .073   605.600    23.330    24.890
    37.450    16.490      .073   608.200    23.370    25.030
    37.500    16.530      .073   606.900    23.400    25.120
    37.550    16.570      .073   604.200    23.430    25.150
    37.600    16.620      .073   604.400    23.460    25.060
    37.650    16.670      .073   605.700    23.480    24.780
    37.700    16.730      .073   607.300    23.490    24.570
    37.750    16.780      .073   607.900    23.490    24.480
    37.800    16.830      .073   607.900    23.500    24.570
    37.850    16.880      .073   607.800    23.510    24.710
    37.900    16.930      .073   607.000    23.510    24.960
    37.950    16.990      .073   606.200    23.490    25.090
    38.000    17.050      .073   605.300    23.480    25.170
    38.050    17.090      .073   604.700    23.460    25.060
    38.100    17.130      .073   604.100    23.450    24.850
    38.150    17.180      .073   603.500    23.440    24.670
    38.200    17.210      .073   602.900    23.430    24.540
    38.250    17.240      .073   602.600    23.430    24.480
    38.300    17.260      .073   602.300    23.430    24.480
    38.350    17.280      .073   602.000    23.420    24.480
    38.400    17.300      .073   602.100    23.420    24.550
    38.450    17.310      .073   602.200    23.420    24.630
    38.500    17.320      .073   602.200    23.420    24.700
    38.550    17.330      .073   602.200    23.420    24.760
    38.600    17.330      .073   601.800    23.420    24.800
    38.650    17.330      .073   601.400    23.420    24.810
    38.700    17.330      .073   601.100    23.430    24.760
    38.750    17.330      .073   600.800    23.430    24.690
    38.800    17.320      .073   600.500    23.440    24.630
    38.850    17.320      .073   600.300    23.450    24.610
    38.900    17.310      .073   600.000    23.460    24.630
    38.950    17.300      .073   599.700    23.470    24.680
    39.000    17.290      .074   599.300    23.480    24.730
    39.050    17.260      .074   599.000    23.500    24.750
    39.100    17.230      .074   598.500    23.510    24.760
    39.150    17.190      .074   598.000    23.530    24.760
    39.200    17.150      .074   597.300    23.550    24.780
    39.250    17.110      .074   596.300    23.570    24.810
    39.300    17.050      .075   595.200    23.580    24.850
    39.350    16.990      .075   594.100    23.600    24.930
