~Version Information Block
 VERS.                2.00:     CWLS LOG ASCII STANDARD - VERSION 2.000000
 WRAP.                  NO:     One Line Per Depth Step
#
~Well Information Block
#MNEM.UNIT                     Data                         Information
#----------   ------------------------------------------   ----------------
 STRT.M                                         0.0000:
 STOP.M                                       140.0000:
 STEP.M                                         0.2000:
 NULL.                                       -999.2500:
 COMP.                                                :     COMPANY
 WELL.   B62B0894                                     :     WELL
 FLD .                                                :     FIELD
 CNTY.                                                :     COUNTY
 STAT.                                                :     STATE
 CTRY.                                                :     COUNTRY
 SRVC.                                                :     SERVICE COMPANY
 DATE.                                                :     DATE
 API .                                                :     API NUMBER
 UWI .                                                :     UWI NUMBER
#
~Curve Information Block
#MNEM.UNIT       API CODE      Curve Description
#----------    -------------   -------------------
 DEPT.M                    :   Depth in Meters
 CALIPER.CM                :   Caliper
 GAM(NAT) .CPS             :   GAM(NAT)
#
~Parameter Information Block
#MNEM.UNIT            Value               Description
#----------    --------------------    -------------------
 PDAT.                            :    Permanent Datum
 EPD .M                     0.0000:    Elevation Of Perm. Datum
 WSTA.                         LOC:    
 E   .M                     0.0000:    E (Stretch Coefficient Of The Cable)
 TD  .M                   140.0000:    Total Depth
#
~Other Information Block
<DescLogPlotStart>   NEURALOG PLOT DEFINITION
PLOTDEFVERSION: 3
LASFILE: \\tsn.tno.nl\KG-Data\BENO\nitg\benonas01\j6b2\p62510\01.43 GO-20 Archi
DEPTHSCALE: 480.000000
RESOLUTION: 600
DEPTHLABELFREQ: 50.000000
HEAVYGRIDFREQ: 50.000000
MEDIUMGRIDFREQ: 25.000000
LIGHTGRIDFREQ: 5.000000
#
#   TRACK 1
#
STARTTRACK: 
 LEFTX: 0.380833 inch
 RIGHTX: 2.880833 inch
 SCALETYPE: LINEAR
 NUMCHARTDIVISIONS: 10
CURVE: CALIPER  0.000000   60.000000  (0,0,255)      Solid             2     N    
ENDTRACK: 
#
#   TRACK 2
#
STARTTRACK: 
 LEFTX: 3.619167 inch
 RIGHTX: 8.619167 inch
 SCALETYPE: LINEAR
 NUMCHARTDIVISIONS: 10
CURVE: GAM(NAT)   0.000000   50.000000  (0,131,131)    Solid             2     N    
ENDTRACK: 
<DescLogPlotEnd>
~A  DEPTH         CALIPER          GAM(NAT)  
# ...
     102.800      28.42000000      11.87602434
     103.000      28.42000000      12.25295922
     103.200      28.40200000      12.40891360
     103.400      28.42000000      11.86869699
     103.600      28.58000000      10.35726266
     103.800      31.26000000       9.68634686
     104.000      44.50000000       9.39066469
     104.200      44.98000000       9.14961422
     104.400      46.26000000       9.14961422
     104.600      46.26000000       9.21014041
     104.800      46.26000000       9.56893660
     105.000      46.26000000       9.68634686
     105.200      46.26000000       9.98825897
     105.400      46.26000000      10.03201227
     105.600      46.26000000       9.14961422
     105.800      46.26000000       8.94833948
     106.000      45.74000000       8.62965448
     106.200      46.74000000       8.84770211
     106.400      46.74000000       9.98825897
     106.600      46.50000000      10.27826532
     106.800      46.26000000      10.39071261
     107.000      46.50000000      10.20630661
     107.200      47.02000000       9.98825897
     107.400      46.74000000       9.88762160
     107.600      46.74000000       9.68634686
     107.800      45.50000000       9.68634686
     108.000      45.68000000       9.78698423
     108.200      46.74000000       9.78698423
     108.400      47.02000000       9.88762160
     108.600      47.34000000       9.86131212
     108.800      48.02000000       9.88762160
     109.000      47.26000000       9.74181722
     109.200      47.02000000       9.46829923
     109.400      46.50000000       9.43753295
     109.600      46.00000000       9.04897685
     109.800      45.74000000       9.18102746
     110.000      46.00000000       9.46829923
     110.200      46.26000000       9.35088896
     110.400      46.38000000       8.93156659
     110.600      46.62000000       8.71469306
     110.800      46.74000000       8.71351895
     111.000      46.26000000       9.21574735
     111.200      46.26000000       9.13284133
     111.400      46.26000000       9.13284133
     111.600      46.26000000       9.13284133
     111.800      46.26000000      10.29017108
     112.000      45.74000000      10.39080845
     112.200      45.74000000      11.12881583
     112.400      45.26000000      11.34686347
     112.600      45.26000000      11.44750084
     112.800      45.28000000      11.12881583
     113.000      45.46000000       9.97148608
     113.200      48.32000000       9.45152633
     113.400      48.74000000       9.25025159
     113.600      45.74000000       9.45152633
     113.800      45.74000000       9.87084871
     114.000      45.74000000       9.77021134
     114.200      45.74000000       9.66957397
     114.400      45.74000000       9.77021134
     114.600      45.74000000       9.77021134
     114.800      45.74000000       9.45152633
     115.000      45.74000000       9.13284133
     115.200      45.74000000       8.84995447
     115.400      46.50000000       9.35088896
     115.600      46.50000000       9.35088896
     115.800      46.26000000       9.35088896
     116.000      45.74000000       9.64393540
     116.200      45.50000000      10.08889634
     116.400      45.26000000      10.44342742
     116.600      45.26000000      10.39080845
     116.800      45.26000000       9.44438587
     117.000      45.26000000       8.83092922
     117.200      45.26000000       9.65308861
     117.400      45.26000000      10.08889634
     117.600      45.26000000      10.61791345
     117.800      45.26000000      10.88502694
     118.000      45.50000000      10.86421486
     118.200      45.74000000      10.35350588
     118.400      45.74000000       9.87084871
     118.600      46.26000000       9.58892030
     118.800      46.26000000       9.35088896
     119.000      46.50000000       8.93156659
     119.200      46.50000000       9.79239948
     119.400      46.50000000      10.08889634
     119.600      46.50000000      11.02817846
     119.800      46.50000000      11.02817846
     120.000      46.50000000      11.34686347
     120.200      46.26000000      11.12881583
     120.400      46.26000000      10.92754109
     120.600      45.74000000      10.92754109
     120.800      45.50000000      10.77481190
     121.000      45.50000000      10.70949346
     121.200      45.62000000      10.92754109
     121.400      46.14000000      11.10406383
     121.600      46.26000000      11.54813821
     121.800      46.74000000      10.72648201
     122.000      46.50000000       9.77021134
     122.200      46.50000000      10.05233143
     122.400      45.50000000      11.02817846
     122.600      45.74000000      11.02817846
     122.800      45.50000000      11.02817846
     123.000      45.74000000      10.80150477
     123.200      45.74000000      10.18953371
     123.400      46.26000000      10.08889634
     123.600      47.44000000      10.08889634
     123.800      46.74000000      10.70949346
     124.000      46.26000000      10.70949346
     124.200      46.26000000      10.18953371
     124.400      46.26000000      10.35084104
     124.600      46.26000000      11.12881583
     124.800      46.26000000      11.22945320
     125.000      46.26000000      11.34686347
     125.200      46.26000000      11.54813821
     125.400      46.26000000      11.54813821
     125.600      46.26000000      11.54813821
     125.800      46.26000000      11.44750084
     126.000      46.26000000      10.92346768
     126.200      45.74000000      10.08889634
     126.400      45.74000000       9.97148608
     126.600      45.74000000       9.77021134
     126.800      45.74000000      10.16087602
     127.000      45.74000000      10.39080845
     127.200      45.74000000       9.97148608
     127.400      45.74000000       9.87084871
     127.600      45.74000000       9.87084871
     127.800      45.50000000       9.87084871
     128.000      45.74000000      11.70645380
     128.200      51.50000000      12.28614559
     128.400      47.26000000      12.50361815
     128.600      48.02000000      12.60483059
     128.800      48.02000000      12.28614559
     129.000      46.26000000      12.28614559
     129.200      46.26000000      12.60023003
     129.400      46.26000000      12.44651843
     129.600      46.26000000      11.49354723
     129.800      46.26000000      10.24628241
     130.000      45.78000000      10.84846887
     130.200      45.74000000      11.01140557
     130.400      45.74000000      10.81981119
     130.600      45.74000000      10.79335793
     130.800      45.62000000      11.33009057
     131.000      45.50000000      11.33009057
     131.200      45.76000000      11.21268031
     131.400      46.14000000      11.01140557
     131.600      45.74000000      10.79335793
     131.800      45.74000000      10.69272056
     132.000      48.14000000      10.59208319
     132.200      47.26000000      10.52400920
     132.400      46.74000000      10.07212345
     132.600      46.26000000       9.33411607
     132.800      46.26000000       9.35889203
     133.000      46.26000000       9.43475344
     133.200      46.26000000      11.01140557
     133.400      46.26000000      11.11204294
     133.600      45.74000000      10.68877038
     133.800      45.26000000       9.43475344
     134.000      45.50000000       8.17678631
     134.200      47.22000000       8.57576556
     134.400      46.36000000       9.95471318
     134.600      46.74000000      10.15150716
     134.800      47.60000000      11.21268031
     135.000      47.98000000      11.70208942
     135.200      48.64000000      12.37001006
     135.400      47.26000000      12.30718359
     135.600      46.50000000      11.90036900
     135.800      45.74000000      11.63200268
     136.000      48.23428571      11.73070472
     136.200      53.50000000      12.15847805
     136.400      49.88000000      12.58625139
     136.600      46.26000000      13.01402472
     136.800      46.46000000      13.42339579
