~Version Information
 VERS.                2.0:  CWLS LOG ASCII STANDARD -VERSION 2.0
 WRAP.                 NO:  ONE LINE PER DEPTH STEP
~WELL INFORMATION BLOCK
#MNEM.UNIT       DATA		            DESCRIPTION OF MNEMONIC
#---------    -------------            ------------------------
 STRT.M      .450                        :START DEPTH
 STOP.M   #######                        :STOP DEPTH
 STEP.M      .050                        :STEP
 NULL.    -999999.0                      :NULL VALUE
 COMP.       SCHIFOOD                    :COMPANY
 WELL.                          B62B0897 :WELL
 FLD .    Heerlen                        :FIELD
 CNTY.                                   :COUNTY
 STAT.                                   :STATE
 SRVC.                                   :SERVICE COMPANY
 DATE.     10-DEC-90                     :LOG DATE
 UWI .                                   :UNIQUE WELL ID
 LIC .                                   :LICENSE NUMBER
~Curve Information Block
#MNEM.UNIT      API CODE     Curve Description
#---------    -------------  ------------------------
DEPTH    .M         00 000 00 00          :  1  DEPTH
SN40     .OHM.M     00 000 00 00          :  2  SN40
SP       .V         00 000 00 00          :  3  SP
CAL      .MM        00 000 00 00          :  4  CAL
LN160    .OHM.M     00 000 00 00          :  5  LN160
GAMMA    .CPS       00 000 00 00          :  6  GAMMA
~Parameter Information Block
#MNEM.UNIT   Information     Description
#---------- ---------------  ------------------------
 FILE.                         :File Type
 FIID.                         :File Type Identifier
 VERS.                         :System Version
 SER .                         :System Serial Number
 TRUK.                         :Truck Calibration Number
 TOOL.                         :Tool Serial Number
 TIME.                         :Time    HrHrMinMin
 LAT .                         :Latitude
 LON .                         :Longitude
 LMF .            MV           :LOG Measured FROM
 DMF .                         :Driller Measured From
 PD  .                         :Permanent Data
 PDEV.                         :Elevation Permanent Data
 EKB .M                        :Elevation Kelly Bushing
 ELEV.DF                       :Elevation DF
 EGL .M                        :Elevation Ground Level
 DRDP.                         :Drillers Depth
 CASD.                         :Casing Diameter
 CASB.                         :Casing Bottom
 CASX.                         :Casing Type
 CAST.                         :Casing Thickness
 TNOC.                         :Time Circulation Stopped
 LOGU.                         :Logging Unit
 RECB.            Bergsma      :Recorded By
 OSR1.                         :Other Services
 OSR2.                         :Other Services
 OSR3.                         :Other Services
 BS  .MM                       :Bit Size
 MST .                         :Mean Surface Temperature
 TGRD.                         :Temperature Gradiant
 MAGN.                         :Magnetic Declination
 MDEN.                         :Density Matrix
 MATR.                         :Neutron Matrix
 DTMT.                         :Delta T Matrix
 DTFL.                         :Delta T Fluid
 MUDS.                         :Mud Sample Source
 MRS .                         :Mud Resistivity
 MTP .                         :Mud Temperature
 MFRS.                         :Resistivity Mud Filtrate
 MFTP.                         :Temperature Mud Filtrate
 MCRS.                         :Resistivity Mud Cake
 MCTP.                         :Temperature Mud Cake
 FTYP.                         :Fluid Type
 FD  .K/M3                     :Fluid Density
 DFV .S                        :Fluid Viscosity
 FPH .                         :Fuild PH
 ELCO.                         :Electron Cutoff
~Other Information
#MNEM.UNIT  Information      Description
#---------- ---------------  ------------------------
# --------------------------
## COMMENTS    Top_Depth   Bot_Depth  LithCode  Lat    Long   Elev_Gl
##    Type of LithCode   Lithologie - 1970
##                    .00         .00         .00     
##                    .45        6.00         .00     
##                   6.05        8.10        2.00     
##                   8.15       15.30       23.00     
##                  15.35       18.50       22.00     
##                  18.55       20.80       11.00     
##                  20.85       22.35       12.00     
##                  22.40       23.40       11.00     
##                  23.45       25.30       12.00     
##                  25.35       26.25       11.00     
##                  26.30       27.80       12.00     
##                  27.85       35.10       11.00     
##                  35.15       47.80       12.00     
##                  47.85       50.40        6.00     
##                  50.45       52.00       23.00     
##                  52.05       53.20       11.00     
##                  53.25       54.60       12.00     
##                  54.65       55.50       11.00     
##                  55.55       56.50       12.00     
##                  56.55       57.25       11.00     
##                  57.30       58.60       12.00     
##                  58.65       64.40       11.00     
##                  64.45       71.10        9.00     
##                  71.15       74.20        7.00     
##                  74.25       75.90        9.00     
##                  75.95       78.90        7.00     
##                  78.95       93.30        9.00     
##                  93.35       95.20       10.00     
##                  95.25       97.60        9.00     
##                  97.65       99.95       10.00     
##                 100.00      100.00         .00     
##                 100.05      126.75     #######     
##    last_layer   126.75
# --------------------------
~A DEPTH    SN40     SP       CAL      LN160    GAMMA    
# ...
   118.850    44.320      .028   454.000    59.410    11.430
   118.900    44.480      .028   454.200    59.460    11.600
   118.950    44.610      .028   455.200    59.520    11.710
   119.000    44.710      .028   456.300    59.540    11.800
   119.050    44.770      .028   457.400    59.570    11.940
   119.100    44.750      .028   457.300    59.580    11.860
   119.150    44.650      .028   456.700    59.590    11.730
   119.200    44.540      .027   456.000    59.590    11.670
   119.250    44.430      .027   455.800    59.600    11.710
   119.300    44.270      .027   456.300    59.580    11.850
   119.350    44.180      .027   456.500    59.540    12.210
   119.400    44.150      .027   456.400    59.490    12.570
   119.450    44.120      .027   456.700    59.450    13.000
   119.500    44.120      .027   458.000    59.380    13.330
   119.550    44.120      .027   457.800    59.310    13.770
   119.600    44.110      .027   457.200    59.250    14.210
   119.650    44.130      .027   456.700    59.190    14.720
   119.700    44.150      .027   456.000    59.130    14.250
   119.750    44.170      .027   454.200    59.090    13.780
   119.800    44.180      .027   454.600    59.000    13.360
   119.850    44.200      .027   455.900    58.860    12.670
   119.900    44.210      .027   456.500    58.500    11.980
   119.950    44.220      .027   456.700    58.100    11.650
   120.000    44.220      .027   457.100    57.670    11.820
   120.050    44.210      .027   458.000    57.240    11.770
   120.100    44.210      .026   459.300    56.890    11.670
   120.150    44.210      .026   459.100    56.630    11.620
   120.200    44.240      .026   457.600    56.370    11.580
   120.250    44.280      .026   456.500    56.200    11.620
   120.300    44.320      .025   456.100    56.030    11.740
   120.350    44.370      .025   456.500    55.920    11.790
   120.400    44.440      .024   456.900    55.860    11.840
   120.450    44.440      .024   457.200    55.820    12.080
   120.500    44.430      .024   457.100    55.780    12.340
   120.550    44.410      .023   456.900    55.730    12.590
   120.600    44.320      .023   456.600    55.700    12.770
   120.650    44.170      .023   456.700    55.710    12.840
   120.700    43.990      .023   456.600    55.760    12.990
   120.750    43.680      .023   456.100    55.840    13.090
   120.800    43.360      .023   453.900    55.900    12.740
   120.850    43.230      .023   453.000    55.910    12.480
   120.900    43.170      .022   452.900    55.880    12.350
   120.950    43.150      .022   453.000    55.770    12.560
   121.000    43.160      .022   452.700    55.560    12.860
   121.050    43.170      .022   452.300    55.220    13.050
   121.100    43.180      .022   452.000    54.710    13.020
   121.150    43.160      .022   451.900    54.070    12.800
   121.200    43.110      .022   452.000    53.600    12.550
   121.250    43.070      .022   452.000    53.190    12.600
   121.300    43.020      .022   452.500    52.820    12.940
   121.350    42.980      .022   453.400    52.570    13.320
   121.400    42.930      .021   455.000    52.360    13.710
   121.450    42.880      .021   456.600    52.180    14.090
   121.500    42.850      .021   456.400    52.060    14.450
   121.550    42.730      .021   454.800    51.970    14.210
   121.600    42.590      .021   453.500    51.890    14.130
   121.650    42.440      .021   453.600    51.800    14.100
   121.700    42.220      .021   454.800    51.710    14.200
   121.750    41.980      .021   456.100    51.630    14.380
   121.800    41.720      .020   458.400    51.540    14.560
   121.850    41.430      .020   458.000    51.460    14.740
   121.900    41.110      .020   456.100    51.310    14.920
   121.950    40.770      .020   455.800    51.170    15.090
   122.000    40.430      .020   455.900    51.060    15.230
   122.050    40.290      .020   456.200    50.810    15.570
   122.100    40.200      .020   456.400    50.590    15.910
   122.150    40.130      .020   456.600    50.340    16.260
   122.200    40.120      .020   456.100    50.080    16.600
   122.250    40.130      .020   453.400    49.810    16.920
   122.300    40.140      .020   450.300    49.640    16.770
   122.350    40.140      .020   449.700    49.530    16.650
   122.400    40.090      .020   450.500    49.510    16.600
   122.450    39.980      .020   451.800    49.570    16.250
   122.500    39.870      .020   453.600    49.620    15.910
   122.550    39.760      .020   454.600    49.770    15.590
   122.600    39.590      .020   454.900    49.990    15.380
   122.650    39.410      .020   454.300    50.230    15.010
   122.700    39.240      .020   452.700    50.410    14.630
   122.750    39.060      .020   450.400    50.550    14.890
   122.800    38.900      .020   447.800    50.670    15.250
   122.850    38.800      .019   447.700    50.710    15.620
   122.900    38.750      .019   447.600    50.720    15.920
   122.950    38.720      .019   447.600    50.720    16.250
   123.000    38.720      .019   447.700    50.710    16.580
   123.050    38.730      .019   447.500    50.630    16.910
   123.100    38.770      .019   447.500    50.530    17.180
   123.150    38.810      .019   447.400    50.420    17.180
   123.200    38.850      .019   447.300    50.280    17.200
   123.250    38.870      .019   447.100    49.990    17.510
   123.300    38.910      .019   447.100    49.800    17.870
   123.350    38.950      .019   447.700    49.450    18.250
   123.400    39.010      .019   448.400    49.180    17.860
   123.450    39.060      .019   449.100    48.970    17.470
   123.500    39.130      .019   449.500    48.830    17.180
   123.550    39.170      .019   449.600    48.800    17.120
   123.600    39.220      .019   449.800    48.830    17.020
   123.650    39.310      .019   450.500    48.900    16.800
   123.700    39.400      .019   450.800    49.020    16.680
   123.750    39.500      .019   448.000    49.140    16.620
   123.800    39.590      .019   447.000    49.260    16.520
   123.850    39.730      .019   446.500    49.390    16.510
   123.900    39.900      .019   446.300    49.500    16.650
   123.950    40.090      .019   446.000    49.700    16.780
   124.000    40.250      .019   444.800    49.820    16.910
   124.050    40.360      .018   443.000    49.930    17.010
   124.100    40.440      .018   440.400    50.020    16.840
   124.150    40.400      .018   437.600    50.080    16.830
   124.200    40.330      .018   437.200    50.090    16.810
   124.250    40.260      .018   439.500    50.080    16.720
   124.300    40.160      .018   441.400    50.030    16.610
   124.350    40.040      .018   443.000    49.990    16.540
   124.400    39.920      .018   443.500    49.920    16.640
   124.450    39.820      .018   442.500    49.860    16.810
   124.500    39.730      .018   443.200    49.790    16.950
   124.550    39.660      .018   443.800    49.720    17.060
   124.600    39.620      .018   444.400    49.620    17.060
   124.650    39.650      .018   447.500    49.510    16.850
   124.700    39.700      .018   448.900    49.390    16.550
   124.750    39.780      .018   450.200    49.230    16.250
   124.800    40.010      .018   445.900    49.070    15.960
   124.850    40.290      .018   442.100    48.850    15.660
   124.900    40.530      .018   439.700    48.590    15.370
   124.950    40.810      .018   440.100    48.090    15.040
   125.000    41.050      .018   441.800    47.670    15.140
   125.050    41.230      .018   444.100    47.220    15.270
   125.100    41.310      .018   446.800    46.790    15.420
   125.150    41.380      .019   447.700    46.430    15.570
   125.200    41.380      .019   448.000    46.120    15.530
   125.250    41.390      .019   448.600    45.830    15.440
   125.300    41.400      .019   450.000    45.560    15.360
   125.350    41.380      .018   450.500    45.300    15.280
   125.400    41.360      .018   450.700    45.030    15.230
