~Version Information
 VERS.                2.0:  CWLS LOG ASCII STANDARD -VERSION 2.0
 WRAP.                 NO:  ONE LINE PER DEPTH STEP
~WELL INFORMATION BLOCK
#MNEM.UNIT       DATA		            DESCRIPTION OF MNEMONIC
#---------    -------------            ------------------------
 STRT.M      .000                        :START DEPTH
 STOP.M    82.700                        :STOP DEPTH
 STEP.M      .050                        :STEP
 NULL.    -999999.0                      :NULL VALUE
 COMP.       WML                         :COMPANY
 WELL.                          B62B0902 :WELL
 FLD .    Voerendaal                     :FIELD
 CNTY.                                   :COUNTY
 STAT.                                   :STATE
 SRVC.                                   :SERVICE COMPANY
 DATE.     04-FEB-92                     :LOG DATE
 UWI .                                   :UNIQUE WELL ID
 LIC .                                   :LICENSE NUMBER
~Curve Information Block
#MNEM.UNIT      API CODE     Curve Description
#---------    -------------  ------------------------
DEPTH    .M         00 000 00 00          :  1  DEPTH
SN40     .OHM.M     00 000 00 00          :  2  SN40
SP       .V         00 000 00 00          :  3  SP
CAL      .MM        00 000 00 00          :  4  CAL
LN160    .OHM.M     00 000 00 00          :  5  LN160
GAMMA    .CPS       00 000 00 00          :  6  GAMMA
~Parameter Information Block
#MNEM.UNIT   Information     Description
#---------- ---------------  ------------------------
 FILE.                         :File Type
 FIID.                         :File Type Identifier
 VERS.                         :System Version
 SER .                         :System Serial Number
 TRUK.                         :Truck Calibration Number
 TOOL.                         :Tool Serial Number
 TIME.                         :Time    HrHrMinMin
 LAT .                         :Latitude
 LON .                         :Longitude
 LMF .            MV           :LOG Measured FROM
 DMF .                         :Driller Measured From
 PD  .                         :Permanent Data
 PDEV.                         :Elevation Permanent Data
 EKB .M                        :Elevation Kelly Bushing
 ELEV.DF                       :Elevation DF
 EGL .M                        :Elevation Ground Level
 DRDP.                         :Drillers Depth
 CASD.                         :Casing Diameter
 CASB.                         :Casing Bottom
 CASX.                         :Casing Type
 CAST.                         :Casing Thickness
 TNOC.                         :Time Circulation Stopped
 LOGU.                         :Logging Unit
 RECB.            Bergsma      :Recorded By
 OSR1.                         :Other Services
 OSR2.                         :Other Services
 OSR3.                         :Other Services
 BS  .MM                       :Bit Size
 MST .                         :Mean Surface Temperature
 TGRD.                         :Temperature Gradiant
 MAGN.                         :Magnetic Declination
 MDEN.                         :Density Matrix
 MATR.                         :Neutron Matrix
 DTMT.                         :Delta T Matrix
 DTFL.                         :Delta T Fluid
 MUDS.                         :Mud Sample Source
 MRS .                         :Mud Resistivity
 MTP .                         :Mud Temperature
 MFRS.                         :Resistivity Mud Filtrate
 MFTP.                         :Temperature Mud Filtrate
 MCRS.                         :Resistivity Mud Cake
 MCTP.                         :Temperature Mud Cake
 FTYP.                         :Fluid Type
 FD  .K/M3                     :Fluid Density
 DFV .S                        :Fluid Viscosity
 FPH .                         :Fuild PH
 ELCO.                         :Electron Cutoff
~Other Information
#MNEM.UNIT  Information      Description
#---------- ---------------  ------------------------
# --------------------------
## COMMENTS    Top_Depth   Bot_Depth  LithCode  Lat    Long   Elev_Gl
##    Type of LithCode   Lithologie - 1970
##                    .00       10.80       13.00     
##                  10.85       11.80       23.00     
##                  11.85       15.70        6.00     
##                  15.75       16.00       23.00     
##                  16.05       28.00        7.00     
##                  28.05       46.00        9.00     
##                  46.05       46.05         .00     
##    last_layer   46.05
# --------------------------
~A DEPTH    SN40     SP       CAL      LN160    GAMMA    
# ...
    45.050    22.390      .052   262.100    33.170    14.450
    45.100    22.730      .052   263.600    33.230    14.430
    45.150    23.250      .052   259.500    33.200    14.370
    45.200    23.830      .052   251.400    33.180    14.380
    45.250    24.290      .052   259.100    33.170    14.300
    45.300    24.770      .052   265.700    33.160    13.780
    45.350    25.170      .052   263.600    33.160    13.650
    45.400    25.560      .052   255.700    33.160    13.500
    45.450    26.330      .052   251.100    33.170    13.370
    45.500    26.990      .051   251.700    33.190    12.910
    45.550    28.090      .051   253.000    33.220    12.410
    45.600    28.530      .050   253.400    33.240    12.000
    45.650    29.720      .050   253.700    33.330    11.180
    45.700    31.720      .049   254.400    33.420    10.630
    45.750    33.210      .048   256.700    33.500    10.330
    45.800    34.390      .048   257.000    33.580    10.100
    45.850    36.420      .047   257.600    33.680    10.070
    45.900    38.070      .047   259.200    33.800     9.900
    45.950    40.930      .046   262.000    33.840     9.660
    46.000    42.590      .046   266.800    33.930     9.560
    46.050    46.420      .045   269.700    34.120     9.450
    46.100    48.530      .045   267.300    34.360     9.340
    46.150    50.940      .044   260.700    34.740     9.230
    46.200    53.500      .045   253.000    35.120     9.140
    46.250    54.850      .045   253.000    35.490     9.040
    46.300    56.280      .045   254.300    35.860     9.020
    46.350    58.060      .045   256.700    36.330     9.020
    46.400    59.240      .046   256.800    36.710     9.030
    46.450    60.810      .045   255.000    37.150     9.110
    46.500    61.790      .045   250.100    37.960     9.210
    46.550    62.520      .045   247.900    38.500     9.280
    46.600    63.010      .045   246.000    39.940     9.270
    46.650    63.480      .045   237.100    41.130     9.240
    46.700    63.850      .045   238.200    42.270     9.100
    46.750    63.860      .045   240.700    43.600     8.810
    46.800    63.810      .045   243.100    47.190     8.790
    46.850    63.910      .045   243.800    48.950     8.820
    46.900    64.190      .045   243.700    50.110     8.820
    46.950    64.500      .045   242.300    50.810     8.790
    47.000    64.740      .045   237.200    51.480     8.740
    47.050    64.280      .045   235.500    52.290     8.670
    47.100    63.610      .045   214.200    53.200     8.640
    47.150    63.090      .045   213.600    53.890     8.650
    47.200    62.960      .045   213.300    54.600     8.690
    47.250    63.290      .045   212.900    55.060     8.810
    47.300    63.700      .045   212.800    55.400     8.830
    47.350    64.450      .045   212.600    55.640     8.800
    47.400    65.140      .045   212.600    55.820     8.750
    47.450    65.630      .045   212.700    55.870     8.710
    47.500    66.100      .046   212.700    55.890     8.730
    47.550    66.270      .047   212.700    55.880     8.760
    47.600    66.260      .048   212.800    55.850     8.780
    47.650    66.140      .048   212.700    55.840     8.820
    47.700    66.010      .048   212.700    55.840     8.970
    47.750    65.820      .048   212.300    55.860     9.200
    47.800    65.940      .048   211.900    55.880     9.300
    47.850    66.560      .048   211.500    56.000     9.330
    47.900    67.180      .048   211.300    56.170     9.320
    47.950    67.710      .048   211.300    56.360     9.230
    48.000    68.170      .048   211.500    56.760     9.110
    48.050    68.830      .048   211.700    57.220     8.920
    48.100    69.130      .047   211.900    57.610     8.600
    48.150    69.270      .047   212.100    57.870     8.550
    48.200    69.050      .047   212.200    58.080     8.630
    48.250    68.710      .047   212.400    58.270     8.800
    48.300    68.260      .046   212.600    58.440     9.170
    48.350    67.470      .046   212.800    58.600     9.390
    48.400    67.140      .046   213.000    58.720     9.440
    48.450    67.020      .046   213.400    58.870     9.420
    48.500    67.720      .045   213.900    59.180     9.390
    48.550    68.400      .045   214.500    59.630     9.360
    48.600    69.020      .045   215.100    60.170     9.320
    48.650    69.070      .045   214.600    60.480     9.310
    48.700    68.920      .045   212.700    60.710     9.310
    48.750    68.590      .046   211.900    60.800     9.340
    48.800    67.860      .046   212.100    60.800     9.390
    48.850    67.160      .046   212.600    60.780     9.470
    48.900    66.660      .047   213.900    60.720     9.540
    48.950    66.250      .047   214.500    60.710     9.600
    49.000    65.970      .047   215.000    60.690     9.700
    49.050    65.900      .047   215.700    60.740     9.820
    49.100    66.060      .047   215.100    60.850    10.170
    49.150    66.490      .047   214.000    60.960    10.280
    49.200    67.420      .047   213.200    61.220    10.340
    49.250    68.030      .047   212.800    61.370    10.180
    49.300    68.670      .047   212.400    61.520    10.020
    49.350    68.840      .047   212.400    61.700     9.840
    49.400    68.920      .047   211.900    61.740     9.700
    49.450    68.880      .047   211.600    61.780     9.490
    49.500    68.630      .047   211.700    61.840     9.050
    49.550    68.410      .047   212.100    61.930     8.970
    49.600    68.040      .047   212.500    62.090     8.880
    49.650    67.640      .047   212.400    62.200     8.820
    49.700    66.790      .047   212.300    62.320     8.730
    49.750    66.600      .047   212.400    62.330     8.460
    49.800    66.540      .047   212.600    62.340     8.450
    49.850    66.530      .047   213.800    62.270     8.570
    49.900    66.520      .047   214.900    62.160     8.900
    49.950    66.510      .047   216.500    61.900     9.190
    50.000    66.500      .047   214.000    61.380     9.360
    50.050    66.440      .047   213.100    61.130     9.560
    50.100    66.270      .047   213.000    61.000     9.560
    50.150    66.000      .047   213.000    60.930     9.420
    50.200    65.750      .047   213.000    60.890     9.020
    50.250    65.750      .047   213.100    60.930     8.950
    50.300    65.890      .047   213.500    61.010     8.930
    50.350    66.240      .047   214.200    61.190     8.910
    50.400    66.780      .047   215.600    61.430     8.640
    50.450    67.230      .047   215.800    61.700     8.540
    50.500    67.890      .047   214.800    61.990     8.480
    50.550    68.600      .046   213.200    62.340     8.390
    50.600    69.080      .046   212.300    62.540     8.240
    50.650    69.450      .046   212.000    62.710     8.200
    50.700    69.760      .046   212.000    62.790     8.220
    50.750    69.760      .046   212.100    62.760     8.210
    50.800    69.530      .045   212.200    62.730     8.160
    50.850    69.310      .045   212.300    62.710     8.180
    50.900    69.890      .045   212.400    62.680     8.610
    50.950    71.020      .045   212.300    62.710     9.410
    51.000    71.560      .045   212.200    62.750     9.630
    51.050    72.010      .045   212.100    62.770     9.770
    51.100    71.810      .044   212.200    62.830     9.740
    51.150    71.570      .044   212.300    62.900     9.680
    51.200    71.390      .044   212.400    62.970     9.600
    51.250    71.210      .044   212.400    63.080     9.610
    51.300    70.940      .044   212.400    63.180     9.590
    51.350    70.700      .044   212.300    63.390     9.500
    51.400    70.090      .044   212.200    63.620     9.360
    51.450    69.190      .044   212.100    63.800     9.010
    51.500    68.610      .044   212.000    64.150     8.740
    51.550    68.240      .043   211.800    64.570     8.570
    51.600    67.990      .043   211.900    65.040     8.550
