~Version Information Block
 VERS.                2.00:     CWLS LOG ASCII STANDARD - VERSION 2.000000
 WRAP.                  NO:     One Line Per Depth Step
#
~Well Information Block
#MNEM.UNIT                     Data                         Information
#----------   ------------------------------------------   ----------------
 STRT.M                                         0.0000:
 STOP.M                                       140.0000:
 STEP.M                                         0.2000:
 NULL.                                       -999.2500:
 COMP.                                                :     COMPANY
 WELL.   B62B0894                                     :     WELL
 FLD .                                                :     FIELD
 CNTY.                                                :     COUNTY
 STAT.                                                :     STATE
 CTRY.                                                :     COUNTRY
 SRVC.                                                :     SERVICE COMPANY
 DATE.                                                :     DATE
 API .                                                :     API NUMBER
 UWI .                                                :     UWI NUMBER
#
~Curve Information Block
#MNEM.UNIT       API CODE      Curve Description
#----------    -------------   -------------------
 DEPT.M                    :   Depth in Meters
 CALIPER.CM                :   Caliper
 GAM(NAT) .CPS             :   GAM(NAT)
#
~Parameter Information Block
#MNEM.UNIT            Value               Description
#----------    --------------------    -------------------
 PDAT.                            :    Permanent Datum
 EPD .M                     0.0000:    Elevation Of Perm. Datum
 WSTA.                         LOC:    
 E   .M                     0.0000:    E (Stretch Coefficient Of The Cable)
 TD  .M                   140.0000:    Total Depth
#
~Other Information Block
<DescLogPlotStart>   NEURALOG PLOT DEFINITION
PLOTDEFVERSION: 3
LASFILE: \\tsn.tno.nl\KG-Data\BENO\nitg\benonas01\j6b2\p62510\01.43 GO-20 Archi
DEPTHSCALE: 480.000000
RESOLUTION: 600
DEPTHLABELFREQ: 50.000000
HEAVYGRIDFREQ: 50.000000
MEDIUMGRIDFREQ: 25.000000
LIGHTGRIDFREQ: 5.000000
#
#   TRACK 1
#
STARTTRACK: 
 LEFTX: 0.380833 inch
 RIGHTX: 2.880833 inch
 SCALETYPE: LINEAR
 NUMCHARTDIVISIONS: 10
CURVE: CALIPER  0.000000   60.000000  (0,0,255)      Solid             2     N    
ENDTRACK: 
#
#   TRACK 2
#
STARTTRACK: 
 LEFTX: 3.619167 inch
 RIGHTX: 8.619167 inch
 SCALETYPE: LINEAR
 NUMCHARTDIVISIONS: 10
CURVE: GAM(NAT)   0.000000   50.000000  (0,131,131)    Solid             2     N    
ENDTRACK: 
<DescLogPlotEnd>
~A  DEPTH         CALIPER          GAM(NAT)  
# ...
      68.600      28.38000000      13.17510902
      68.800      28.38000000      12.33646427
      69.000      28.38000000      11.91714190
      69.200      28.40200000      13.25715244
      69.400      28.34000000      13.09826520
      69.600      28.34000000      12.43710164
      69.800      28.38000000      12.33646427
      70.000      28.50000000      12.23582690
      70.200      28.50000000      12.79726362
      70.400      28.50000000      12.55360138
      70.600      28.50000000      12.83965112
      70.800      28.38000000      12.83965112
      71.000      28.34000000      12.67503714
      71.200      28.38000000      13.25897350
      71.400      28.38000000      13.57765850
      71.600      28.38000000      13.05769876
      71.800      28.38000000      12.68325586
      72.000      28.38000000      12.31969138
      72.200      28.34800000      12.73901375
      72.400      28.38000000      13.05769876
      72.600      28.34000000      13.57765850
      72.800      28.32000000      13.77893324
      73.000      28.42000000      13.39004169
      73.200      28.38000000      12.33445153
      73.400      28.38000000      12.10164374
      73.600      28.38000000      12.37858820
      73.800      28.38000000      13.35961087
      74.000      28.38000000      13.25897350
      74.200      28.21200000      14.73498826
      74.400      28.38000000      15.15431063
      74.600      28.38000000      14.92157474
      74.800      28.38000000      14.34336512
      75.000      28.23920000      13.35961087
      75.200      28.33040000      13.57765850
      75.400      28.42160000      14.12725835
      75.600      28.36000000      14.09761825
      75.800      28.38000000      13.44829156
      76.000      28.38000000      13.08812958
      76.200      28.54000000      13.35961087
      76.400      28.38000000      13.27795083
      76.600      28.38000000      12.26865386
      76.800      28.42000000      11.58168400
      77.000      28.38000000      12.01107011
      77.200      28.42400000      12.59622370
      77.400      28.38000000      13.14959026
      77.600      28.38000000      13.34231083
      77.800      28.38000000      13.29251929
      78.000      28.38000000      12.80754301
      78.200      28.44400000      12.62311784
      78.400      28.42000000      12.53773901
      78.600      28.38000000      12.98500024
      78.800      28.38000000      13.06095749
      79.000      28.38000000      13.43053625
      79.200      28.34200000      13.57926870
      79.400      28.38000000      12.97007236
      79.600      28.38000000      12.62160349
      79.800      28.38000000      12.92921838
      80.000      28.48000000      13.20865481
      80.200      28.50000000      13.12874579
      80.400      28.50000000      12.74888580
      80.600      28.50000000      12.94028849
      80.800      28.50000000      13.25897350
      81.000      28.50000000      13.15833613
      81.200      28.43636364      13.77893324
      81.400      28.42000000      13.99698088
      81.600      28.38000000      14.41630325
      81.800      28.38000000      14.35091292
      82.000      28.42000000      14.73498826
      82.200      28.40000000      14.83562563
      82.400      28.36000000      15.15431063
      82.600      28.38000000      15.25494800
      82.800      28.38000000      16.09359275
      83.000      28.38000000      15.97618249
      83.200      28.40200000      15.35558537
      83.400      28.34000000      15.17642689
      83.600      28.38000000      14.93626300
      83.800      28.38000000      14.84755835
      84.000      28.38000000      12.63837638
      84.200      28.40400000      12.87858820
      84.400      28.38000000      13.77893324
      84.600      28.26000000      14.04916854
      84.800      28.40000000      14.19825562
      85.000      28.50000000      13.72502037
      85.200      28.42875000      14.19825562
      85.400      28.38000000      14.61757799
      85.600      28.38000000      14.73498826
      85.800      28.38000000      14.42823597
      86.000      28.40000000      14.78530694
      86.200      28.45200000      15.57868884
      86.400      28.38000000      15.77490775
      86.600      28.38000000      15.57777831
      86.800      28.40000000      15.87554512
      87.000      28.38000000      16.29486749
      87.200      28.44200000      16.37312503
      87.400      28.46000000      16.61355250
      87.600      28.38000000      16.71418987
      87.800      28.38000000      16.29486749
      88.000      28.38000000      16.19423012
      88.200      28.38000000      16.53019121
      88.400      28.38000000      16.99099056
      88.600      28.38000000      17.67024488
      88.800      28.38000000      18.19020463
      89.000      28.38000000      17.70379067
      89.200      28.35000000      17.40297120
      89.400      28.50000000      16.52405712
      89.600      28.52000000      15.81382087
      89.800      28.38000000      15.59354483
      90.000      28.44000000      15.72938132
      90.200      28.43750000      16.21596300
      90.400      28.38000000      16.57554991
      90.600      28.38000000      17.03855370
      90.800      28.38000000      17.41865146
      91.000      28.38000000      17.31214358
      91.200      28.34000000      17.38504177
      91.400      28.38000000      17.67345570
      91.600      28.38000000      18.09186754
      91.800      28.38000000      18.07909618
      92.000      28.38000000      17.33430776
      92.200      28.40909091      17.10417299
      92.400      28.38000000      17.08118081
      92.600      28.42000000      17.95313174
      92.800      28.38000000      18.06392869
      93.000      28.42000000      18.05194805
      93.200      28.40727273      18.19532276
      93.400      28.38000000      17.60995831
      93.600      28.38000000      16.29827000
      93.800      28.38000000      16.95353908
      94.000      28.38000000      17.26769540
      94.200      28.41200000      17.66061005
      94.400      28.54000000      18.13054105
      94.600      28.42000000      18.27406910
      94.800      28.38000000      18.64757751
      95.000      28.30000000      19.04562227
      95.200      28.32625000      18.54136615
      95.400      28.42000000      17.35964232
      95.600      28.54000000      16.07681986
      95.800      28.62000000      16.37870801
      96.000      28.68000000      17.04078210
      96.200      28.47600000      17.50158144
      96.400      28.38000000      18.49211674
      96.600      28.42000000      18.49211674
      96.800      28.38000000      18.27406910
      97.000      28.42000000      18.27406910
      97.200      28.48000000      18.03195370
      97.400      28.50000000      18.28350985
      97.600      28.60000000      18.26980400
      97.800      28.62000000      17.94318781
      98.000      28.60000000      17.49916136
      98.200      28.45000000      16.11336081
      98.400      28.38000000      15.75813485
      98.600      28.38000000      15.02012747
      98.800      28.38000000      15.02012747
      99.000      28.38000000      14.90056069
      99.200      28.53090909      14.65050079
      99.400      28.50000000      13.56088561
      99.600      28.40000000      13.46024824
      99.800      28.38000000      13.58827335
     100.000      28.40800000      13.38771091
     100.200      28.39280000      13.14156323
     100.400      28.40000000      12.82287823
     100.600      28.42000000      13.58348109
     100.800      28.38000000      13.87957061
     101.000      28.38000000      13.71184166
     101.200      28.41000000      12.02611779
     101.400      28.42000000      11.36363636
     101.600      28.42000000      11.36363636
     101.800      28.42000000      11.70218527
     102.000      28.40000000      11.88359611
     102.200      28.40400000      12.10353908
     102.400      28.42000000      12.01730004
     102.600      28.50000000      11.73264005
