~Version Information
 VERS.                2.0:  CWLS LOG ASCII STANDARD -VERSION 2.0
 WRAP.                 NO:  ONE LINE PER DEPTH STEP
~WELL INFORMATION BLOCK
#MNEM.UNIT       DATA		            DESCRIPTION OF MNEMONIC
#---------    -------------            ------------------------
 STRT.M      .150                        :START DEPTH
 STOP.M   #######                        :STOP DEPTH
 STEP.M      .050                        :STEP
 NULL.    -999999.0                      :NULL VALUE
 COMP.       SOFTDR                      :COMPANY
 WELL.                          B62B0927 :WELL
 FLD .    Heerlen                        :FIELD
 CNTY.                                   :COUNTY
 STAT.                                   :STATE
 SRVC.                                   :SERVICE COMPANY
 DATE.     29-MAY-97                     :LOG DATE
 UWI .                                   :UNIQUE WELL ID
 LIC .                                   :LICENSE NUMBER
~Curve Information Block
#MNEM.UNIT      API CODE     Curve Description
#---------    -------------  ------------------------
DEPTH    .M         00 000 00 00          :  1  DEPTH
GAM(NAT) .CPS       00 000 00 00          :  2  GAM(NAT)
SP       .V         00 000 00 00          :  3  SP
RES(16N) .OHM.M     00 000 00 00          :  4  RES(16N)
RES(64N) .OHM.M     00 000 00 00          :  5  RES(64N)
RES      .OHM       00 000 00 00          :  6  RES
~Parameter Information Block
#MNEM.UNIT   Information     Description
#---------- ---------------  ------------------------
 FILE.                         :File Type
 FIID.                         :File Type Identifier
 VERS.                         :System Version
 SER .                         :System Serial Number
 TRUK.                         :Truck Calibration Number
 TOOL.                         :Tool Serial Number
 TIME.                         :Time    HrHrMinMin
 LAT .                         :Latitude
 LON .                         :Longitude
 LMF .            MV           :LOG Measured FROM
 DMF .                         :Driller Measured From
 PD  .                         :Permanent Data
 PDEV.                         :Elevation Permanent Data
 EKB .M                        :Elevation Kelly Bushing
 ELEV.DF                       :Elevation DF
 EGL .M                        :Elevation Ground Level
 DRDP.                         :Drillers Depth
 CASD.                         :Casing Diameter
 CASB.                         :Casing Bottom
 CASX.                         :Casing Type
 CAST.                         :Casing Thickness
 TNOC.                         :Time Circulation Stopped
 LOGU.                         :Logging Unit
 RECB.            Bergsma      :Recorded By
 OSR1.                         :Other Services
 OSR2.                         :Other Services
 OSR3.                         :Other Services
 BS  .MM                       :Bit Size
 MST .                         :Mean Surface Temperature
 TGRD.                         :Temperature Gradiant
 MAGN.                         :Magnetic Declination
 MDEN.                         :Density Matrix
 MATR.                         :Neutron Matrix
 DTMT.                         :Delta T Matrix
 DTFL.                         :Delta T Fluid
 MUDS.                         :Mud Sample Source
 MRS .                         :Mud Resistivity
 MTP .                         :Mud Temperature
 MFRS.                         :Resistivity Mud Filtrate
 MFTP.                         :Temperature Mud Filtrate
 MCRS.                         :Resistivity Mud Cake
 MCTP.                         :Temperature Mud Cake
 FTYP.                         :Fluid Type
 FD  .K/M3                     :Fluid Density
 DFV .S                        :Fluid Viscosity
 FPH .                         :Fuild PH
 ELCO.                         :Electron Cutoff
~Other Information
#MNEM.UNIT  Information      Description
#---------- ---------------  ------------------------
# --------------------------
## COMMENTS    Top_Depth   Bot_Depth  LithCode  Lat    Long   Elev_Gl
##    Type of LithCode   Lithologie - 1970
##                    .15        3.55       62.00     
##                   3.55        5.50        2.00     
##                   5.50        8.70       26.00     
##                   8.70       15.10       63.00     
##                  15.10       19.15       26.00     
##                  19.15       20.70       43.00     
##                  20.70       22.60       26.00     
##                  22.60       30.05       63.00     
##                  30.05       30.85       26.00     
##                  30.85       52.70       63.00     
##                  52.70       54.00       26.00     
##                  54.00       58.15       63.00     
##                  58.15       59.85       26.00     
##                  59.85       66.75       63.00     
##                  66.75       70.35       26.00     
##                  70.35       72.25       63.00     
##                  72.25       73.10       26.00     
##                  73.10       74.40       63.00     
##                  74.40       75.15       26.00     
##                  75.15       75.95       63.00     
##                  75.95       76.75       26.00     
##                  76.75       77.40       63.00     
##                  77.40       78.20       26.00     
##                  78.20       79.70       63.00     
##                  79.70       80.75       26.00     
##                  80.75       81.70       58.00     
##                  81.70       83.15       26.00     
##                  83.15       84.95       58.00     
##                  84.95       87.35       22.00     
##                  87.35       88.60       23.00     
##                  88.60       89.30       58.00     
##                  89.30       91.10       23.00     
##                  91.10       92.35       58.00     
##                  92.35       94.30       23.00     
##                  94.30       99.05       26.00     
##                  99.05      100.50       23.00     
##                 100.50      103.10       26.00     
##                 103.10      105.80       40.00     
##                 105.80      107.05       43.00     
##                 107.05      110.35       57.00     
##                 110.35      112.35       15.00     
##                 112.35      116.10       63.00     
##                 116.10      120.45       32.00     
##                 120.45      121.95       63.00     
##                 121.95      122.70       12.00     
##                 122.70      124.70       15.00     
##                 124.70      127.95       19.00     
##                 127.95      129.55       58.00     
##                 129.55      130.60       38.00     
##                 130.60      132.70       57.00     
##                 132.70      133.60       59.00     
##                 133.60      135.20       57.00     
##                 135.20      135.85       59.00     
##                 135.85      136.50       57.00     
##                 136.50      137.30       58.00     
##    last_layer   137.3
##    Type of LithCode   Lithologie - 1970
##                   1.90        2.15       87.00     
##                   2.15        3.90       84.00     
##                   3.90        4.25       85.00     
##                   4.25       21.95         .00     
##                  21.95       22.35       87.00     
##                  22.35       24.95       84.00     
##                  24.95       25.30       85.00     
##                  25.30       37.95         .00     
##                  37.95       38.25       87.00     
##                  38.25       40.95       84.00     
##                  40.95       41.20       85.00     
##                  41.20       42.00         .00     
##                  42.00       44.95       74.00     
##                  44.95       46.95         .00     
##                  46.95       47.25       87.00     
##                  47.25       50.90       84.00     
##                  50.90       51.20       85.00     
##                  51.20       59.95         .00     
##                  59.95       60.35       87.00     
##                  60.35       62.95       84.00     
##                  62.95       63.25       85.00     
##                  63.25       76.90         .00     
##                  76.90       77.15       87.00     
##                  77.15       80.00       84.00     
##                  80.00       80.35       85.00     
##                  80.35      106.95         .00     
##                 106.95      107.25       87.00     
##                 107.25      115.45       84.00     
##                 115.45      115.80       85.00     
##                 115.80      116.40         .00     
##                 116.40      117.40       77.00     
##                 117.40      119.40       80.00     
##                 119.40      120.45       77.00     
##                 120.45      121.90         .00     
##                 121.90      122.35       87.00     
##                 122.35      127.90       84.00     
##                 127.90      128.30       85.00     
##                 128.30      130.95         .00     
##                 130.95      131.25       87.00     
##                 131.25      133.95       84.00     
##                 133.95      134.15       85.00     
##    last_layer   134.15
# --------------------------
~A DEPTH    GAM(NAT) SP       RES(16N) RES(64N) RES      
# ...
     6.650    46.600      .030    30.500   -16.300   221.900
     6.700    61.400      .029    30.600   -17.600   223.800
     6.750    32.800      .029    31.000   -18.300   224.700
     6.800    62.900      .029    31.400   -18.300   225.100
     6.850    45.300      .029    32.200   -18.100   225.500
     6.900    65.500      .029    32.800   -17.900   226.100
     6.950    44.400      .029    33.000   -18.000   227.300
     7.000    42.600      .030    33.400   -18.100   226.200
     7.050    48.900      .030    33.800   -18.100   224.200
     7.100    53.300      .030    34.000   -17.900   223.700
     7.150    58.200      .030    33.600   -17.500   224.900
     7.200    40.300      .030    33.400   -17.300   227.000
     7.250    74.200      .029    32.400   -17.500   228.300
     7.300    41.000      .030    31.300   -13.000   228.300
     7.350    48.900      .030    30.900     5.300   226.600
     7.400    50.600      .031    30.900    29.100   224.700
     7.450    49.600      .030    31.100    42.200   224.700
     7.500    54.600      .031    31.300    42.400   226.100
     7.550    50.800      .031    30.900    41.100   224.800
     7.600    47.700      .031    31.100    40.600   221.200
     7.650    81.400      .031    31.500    40.200   218.600
     7.700    62.400      .030    31.500    39.500   220.100
     7.750    60.800      .030    31.500    39.000   221.300
     7.800    71.200      .030    31.100    38.800   222.100
     7.850    64.800      .030    30.800    38.300   222.300
     7.900    53.400      .030    30.800    37.800   220.900
     7.950    52.500      .031    30.600    37.900   220.000
     8.000    47.600      .031    30.400    38.200   220.100
     8.050    61.900      .031    30.300    37.600   220.200
     8.100    70.900      .031    30.100    36.500   219.800
     8.150    76.500      .031    29.900    36.600   219.600
     8.200    83.700      .032    29.700    37.100   218.700
     8.250    57.900      .032    29.400    37.000   217.700
     8.300    60.900      .032    29.200    36.900   217.000
     8.350    61.200      .032    28.800    37.100   217.700
     8.400    50.700      .031    28.700    36.600   218.100
     8.450    62.500      .031    28.600    36.200   217.800
     8.500    33.500      .031    28.500    36.300   218.100
     8.550    52.400      .031    28.600    36.200   218.300
     8.600    44.000      .031    28.800    35.700   218.800
     8.650    55.000      .031    28.800    35.800   218.000
     8.700    63.900      .030    28.500    35.800   217.600
     8.750    70.400      .030    28.700    35.800   217.500
     8.800    55.000      .029    29.100    35.500   218.500
     8.850    73.800      .028    28.900    35.100   220.800
     8.900    78.700      .028    29.000    35.000   221.300
     8.950    47.700      .027    29.300    35.200   220.800
     9.000    39.200      .027    29.600    34.900   221.800
     9.050    48.000      .026    29.700    34.700   224.400
     9.100    56.100      .026    29.900    34.700   225.100
     9.150    65.300      .026    29.900    34.600   224.600
     9.200    34.500      .026    30.100    34.400   224.500
     9.250    37.500      .026    30.300    34.300   224.800
     9.300    78.700      .025    30.500    34.300   225.400
     9.350    47.600      .025    30.400    34.500   226.700
     9.400    63.800      .025    30.500    34.500   228.000
     9.450    39.900      .025    30.200    34.300   228.200
     9.500    35.300      .026    30.300    34.400   226.800
     9.550    56.100      .026    30.400    34.400   224.600
     9.600    42.900      .026    30.200    34.200   223.900
     9.650    41.200      .026    29.900    34.100   225.300
     9.700    44.300      .026    29.800    34.000   227.300
     9.750    50.300      .027    29.600    33.900   228.000
     9.800    34.000      .027    29.700    33.700   225.700
     9.850    67.100      .028    29.700    33.900   222.400
     9.900    65.800      .028    29.800    34.100   220.400
     9.950    39.200      .028    29.900    34.000   219.200
    10.000    60.400      .028    29.800    34.000   218.800
    10.050    78.600      .029    29.600    34.100   219.100
    10.100    76.700      .029    29.500    34.100   219.500
    10.150    79.100      .029    29.200    34.200   219.400
    10.200    53.200      .028    29.200    34.400   219.400
    10.250    31.400      .028    29.000    34.300   219.100
    10.300    39.700      .028    29.000    34.300   218.800
    10.350    51.300      .027    29.100    34.300   218.800
    10.400    51.100      .027    29.100    34.200   219.400
    10.450    40.900      .027    29.600    33.900   220.300
    10.500    74.400      .027    30.000    33.700   220.700
    10.550    44.200      .027    30.100    33.600   220.400
    10.600    68.600      .027    30.400    33.500   220.000
    10.650    45.700      .027    30.600    33.400   219.500
    10.700    34.300      .027    30.800    33.400   219.800
    10.750    48.400      .027    31.000    33.400   220.000
    10.800    38.700      .027    31.300    33.300   222.800
    10.850    48.600      .027    31.600    33.300   224.800
    10.900    71.700      .027    32.000    33.400   224.800
    10.950    65.300      .028    32.400    33.400   222.800
    11.000    54.700      .027    32.500    33.500   220.500
    11.050    33.800      .027    32.500    33.400   220.800
    11.100    53.900      .026    32.200    33.400   222.900
    11.150    31.000      .026    31.800    33.400   226.100
    11.200    42.500      .025    31.500    33.500   230.800
    11.250    49.700      .025    31.300    33.300   231.200
    11.300    50.600      .026    31.600    33.100   231.200
    11.350    43.500      .026    32.100    33.000   232.200
    11.400    37.600      .027    32.400    32.800   232.200
    11.450    42.700      .027    32.300    32.700   231.700
    11.500    47.200      .028    32.400    32.700   229.700
    11.550    47.800      .028    32.500    32.700   227.600
    11.600    24.300      .029    32.700    32.700   226.900
    11.650    45.600      .029    32.800    32.600   226.800
    11.700    48.000      .029    32.800    32.700   226.800
    11.750    58.700      .029    33.000    32.700   225.200
    11.800    53.400      .029    33.200    32.700   223.700
    11.850    51.700      .029    33.300    32.700   224.000
    11.900    62.800      .028    33.200    32.700   225.400
    11.950    37.900      .027    32.900    32.700   225.900
    12.000    41.800      .026    32.800    32.900   227.300
    12.050    47.700      .026    32.900    33.000   229.900
    12.100    39.200      .026    33.000    33.200   230.900
    12.150    40.400      .026    33.200    33.300   231.300
    12.200    60.700      .026    33.300    33.300   231.100
    12.250    46.600      .026    33.300    33.400   231.700
    12.300    51.500      .026    33.300    33.600   231.400
    12.350    45.200      .026    33.100    33.600   232.200
    12.400    46.900      .026    32.800    33.500   233.300
    12.450    45.500      .027    32.600    33.600   233.600
    12.500    57.000      .027    32.600    33.600   232.400
    12.550    39.800      .028    32.700    33.500   230.300
    12.600    50.900      .028    32.700    33.400   228.300
    12.650    30.700      .029    32.500    33.400   226.600
    12.700    69.600      .029    32.300    33.400   225.600
    12.750    52.600      .029    32.100    33.500   225.100
    12.800    45.000      .029    31.600    33.700   225.000
    12.850    30.500      .029    31.500    34.000   224.300
    12.900    50.700      .029    31.400    34.200   224.300
    12.950    45.800      .030    31.400    34.400   223.400
    13.000    58.200      .030    31.300    34.500   220.700
    13.050    51.200      .029    31.200    34.800   220.400
    13.100    56.500      .029    31.000    35.000   222.300
    13.150    60.000      .029    30.900    35.000   223.400
    13.200    59.900      .029    30.800    35.100   221.600
