~Version Information
 VERS.                2.0:  CWLS LOG ASCII STANDARD -VERSION 2.0
 WRAP.                 NO:  ONE LINE PER DEPTH STEP
~WELL INFORMATION BLOCK
#MNEM.UNIT       DATA		            DESCRIPTION OF MNEMONIC
#---------    -------------            ------------------------
 STRT.M      .000                        :START DEPTH
 STOP.M   #######                        :STOP DEPTH
 STEP.M      .050                        :STEP
 NULL.    -999999.0                      :NULL VALUE
 COMP.       SCHIFOOD                    :COMPANY
 WELL.                          B62B0896 :WELL
 FLD .    Hoensbroek                     :FIELD
 CNTY.                                   :COUNTY
 STAT.                                   :STATE
 SRVC.                                   :SERVICE COMPANY
 DATE.     17-JUL-90                     :LOG DATE
 UWI .                                   :UNIQUE WELL ID
 LIC .                                   :LICENSE NUMBER
~Curve Information Block
#MNEM.UNIT      API CODE     Curve Description
#---------    -------------  ------------------------
DEPTH    .M         00 000 00 00          :  1  DEPTH
SN40     .OHM.M     00 000 00 00          :  2  SN40
SP       .V         00 000 00 00          :  3  SP
CAL      .MM        00 000 00 00          :  4  CAL
LN160    .OHM.M     00 000 00 00          :  5  LN160
GAMMA    .CPS       00 000 00 00          :  6  GAMMA
~Parameter Information Block
#MNEM.UNIT   Information     Description
#---------- ---------------  ------------------------
 FILE.                         :File Type
 FIID.                         :File Type Identifier
 VERS.                         :System Version
 SER .                         :System Serial Number
 TRUK.                         :Truck Calibration Number
 TOOL.                         :Tool Serial Number
 TIME.                         :Time    HrHrMinMin
 LAT .                         :Latitude
 LON .                         :Longitude
 LMF .            MV           :LOG Measured FROM
 DMF .                         :Driller Measured From
 PD  .                         :Permanent Data
 PDEV.                         :Elevation Permanent Data
 EKB .M                        :Elevation Kelly Bushing
 ELEV.DF                       :Elevation DF
 EGL .M                        :Elevation Ground Level
 DRDP.                         :Drillers Depth
 CASD.                         :Casing Diameter
 CASB.                         :Casing Bottom
 CASX.                         :Casing Type
 CAST.                         :Casing Thickness
 TNOC.                         :Time Circulation Stopped
 LOGU.                         :Logging Unit
 RECB.            Bergsma      :Recorded By
 OSR1.                         :Other Services
 OSR2.                         :Other Services
 OSR3.                         :Other Services
 BS  .MM                       :Bit Size
 MST .                         :Mean Surface Temperature
 TGRD.                         :Temperature Gradiant
 MAGN.                         :Magnetic Declination
 MDEN.                         :Density Matrix
 MATR.                         :Neutron Matrix
 DTMT.                         :Delta T Matrix
 DTFL.                         :Delta T Fluid
 MUDS.                         :Mud Sample Source
 MRS .            6            :Mud Resistivity
 MTP .            19           :Mud Temperature
 MFRS.                         :Resistivity Mud Filtrate
 MFTP.                         :Temperature Mud Filtrate
 MCRS.                         :Resistivity Mud Cake
 MCTP.                         :Temperature Mud Cake
 FTYP.                         :Fluid Type
 FD  .K/M3                     :Fluid Density
 DFV .S                        :Fluid Viscosity
 FPH .                         :Fuild PH
 ELCO.                         :Electron Cutoff
~Other Information
#MNEM.UNIT  Information      Description
#---------- ---------------  ------------------------
# --------------------------
## COMMENTS    Top_Depth   Bot_Depth  LithCode  Lat    Long   Elev_Gl
##    Type of LithCode   Lithologie - 1970
##                    .00        6.00         .00     
##                   6.05        8.00        2.00     
##                   8.05       11.50       22.00     
##                  11.55       15.20       23.00     
##                  15.25       19.00       22.00     
##                  19.05       20.25       11.00     
##                  20.30       22.10       12.00     
##                  22.15       23.70       11.00     
##                  23.75       25.15       12.00     
##                  25.20       26.10       11.00     
##                  26.15       27.20       12.00     
##                  27.25       35.00       11.00     
##                  35.05       47.55       12.00     
##                  47.60       51.00        7.00     
##                  51.05       52.25       11.00     
##                  52.30       54.00        7.00     
##                  54.05       55.10       11.00     
##                  55.15       58.00       12.00     
##                  58.05       62.60       11.00     
##                  62.65       67.20        8.00     
##                  67.25       70.05        9.00     
##                  70.10       74.00        7.00     
##                  74.05       75.40        8.00     
##                  75.45       80.00        7.00     
##                  80.05       92.40        9.00     
##                  92.45       94.50       10.00     
##                  94.55       96.90        8.00     
##                  96.95       99.30       10.00     
##                  99.35       99.35         .00     
##    last_layer   99.35
# --------------------------
~A DEPTH    SN40     SP       CAL      LN160    GAMMA    
# ...
    79.000    29.410      .063   571.300    47.960    23.030
    79.050    29.290      .063   573.000    47.820    22.960
    79.100    29.180      .063   574.600    47.650    22.890
    79.150    29.060      .063   575.400    47.440    22.890
    79.200    28.950      .063   575.400    47.190    22.930
    79.250    28.850      .063   575.200    47.010    22.980
    79.300    28.780      .063   575.300    46.830    23.000
    79.350    28.720      .063   575.600    46.680    22.970
    79.400    28.650      .063   576.300    46.450    22.950
    79.450    28.580      .063   576.900    46.310    23.080
    79.500    28.510      .063   577.300    46.180    23.180
    79.550    28.440      .063   576.900    46.040    23.240
    79.600    28.370      .063   576.000    45.940    23.180
    79.650    28.300      .063   575.100    45.780    23.080
    79.700    28.230      .063   574.500    45.620    22.980
    79.750    28.160      .063   574.900    45.460    22.890
    79.800    28.070      .063   575.400    45.300    22.820
    79.850    27.980      .063   575.300    45.140    22.790
    79.900    27.880      .063   572.700    45.030    22.860
    79.950    27.780      .063   569.400    44.820    22.960
    80.000    27.680      .063   567.800    44.690    23.080
    80.050    27.580      .063   566.900    44.560    23.100
    80.100    27.480      .063   566.900    44.420    23.080
    80.150    27.380      .063   566.600    44.290    23.090
    80.200    27.280      .063   566.300    44.160    23.110
    80.250    27.180      .063   565.800    44.040    23.180
    80.300    27.080      .063   559.700    43.920    23.300
    80.350    26.980      .063   559.400    43.810    23.430
    80.400    26.890      .063   565.800    43.710    23.530
    80.450    26.810      .063   568.900    43.590    23.590
    80.500    26.720      .063   568.400    43.460    23.640
    80.550    26.640      .063   564.200    43.340    23.700
    80.600    26.550      .063   564.900    43.230    23.750
    80.650    26.470      .063   567.100    43.120    23.800
    80.700    26.390      .063   567.600    43.010    23.820
    80.750    26.300      .063   565.100    42.920    23.840
    80.800    26.220      .063   565.100    42.740    23.840
    80.850    26.130      .063   569.700    42.610    23.810
    80.900    26.060      .064   571.300    42.450    23.770
    80.950    26.000      .064   572.900    42.340    23.690
    81.000    25.940      .064   574.800    42.250    23.610
    81.050    25.880      .064   576.400    42.130    23.430
    81.100    25.820      .064   577.900    41.990    23.330
    81.150    25.760      .064   579.900    41.850    23.230
    81.200    25.690      .064   581.600    41.680    23.110
    81.250    25.630      .065   583.100    41.530    23.020
    81.300    25.570      .065   584.500    41.390    22.950
    81.350    25.510      .065   585.900    41.250    22.920
    81.400    25.450      .065   586.600    41.120    22.920
    81.450    25.390      .066   586.700    40.980    22.940
    81.500    25.320      .066   586.600    40.850    23.040
    81.550    25.260      .066   586.600    40.720    23.200
    81.600    25.200      .066   586.500    40.570    23.390
    81.650    25.140      .066   586.400    40.420    23.530
    81.700    25.080      .066   586.200    40.270    23.550
    81.750    25.000      .066   585.700    40.110    23.530
    81.800    24.910      .066   585.400    39.970    23.490
    81.850    24.840      .065   585.300    39.820    23.450
    81.900    24.770      .065   585.400    39.660    23.370
    81.950    24.720      .065   585.800    39.510    23.300
    82.000    24.660      .064   586.100    39.370    23.270
    82.050    24.600      .062   586.300    39.250    23.260
    82.100    24.540      .060   586.500    39.140    23.280
    82.150    24.500      .058   586.500    39.050    23.310
    82.200    24.450      .056   586.200    39.000    23.360
    82.250    24.420      .055   585.700    38.960    23.390
    82.300    24.380      .054   585.100    38.910    23.370
    82.350    24.350      .053   584.600    38.860    23.320
    82.400    24.320      .053   584.400    38.820    23.280
    82.450    24.300      .053   584.500    38.780    23.150
    82.500    24.270      .053   584.700    38.730    23.060
    82.550    24.240      .053   585.000    38.680    22.930
    82.600    24.220      .053   585.300    38.630    22.830
    82.650    24.200      .053   585.600    38.580    22.750
    82.700    24.180      .053   585.900    38.530    22.820
    82.750    24.160      .053   586.000    38.460    22.930
    82.800    24.140      .053   586.100    38.390    22.920
    82.850    24.120      .053   585.600    38.310    22.850
    82.900    24.100      .053   585.200    38.260    22.800
    82.950    24.080      .053   584.800    38.150    22.780
    83.000    24.060      .053   584.700    38.070    22.780
    83.050    24.040      .053   584.700    37.980    22.920
    83.100    24.010      .053   584.800    37.890    23.060
    83.150    23.970      .053   584.800    37.800    23.240
    83.200    23.940      .053   584.700    37.700    23.370
    83.250    23.910      .053   584.600    37.600    23.520
    83.300    23.880      .053   584.400    37.500    23.680
    83.350    23.840      .053   584.200    37.350    23.860
    83.400    23.810      .053   583.900    37.220    23.980
    83.450    23.780      .053   583.700    37.110    24.010
    83.500    23.740      .053   583.400    36.970    23.990
    83.550    23.720      .053   583.200    36.850    23.920
    83.600    23.680      .053   582.900    36.720    23.750
    83.650    23.630      .053   582.700    36.630    23.550
    83.700    23.580      .054   582.400    36.530    23.360
    83.750    23.530      .054   582.200    36.440    23.220
    83.800    23.470      .054   582.000    36.350    23.230
    83.850    23.410      .054   581.800    36.270    23.250
    83.900    23.350      .054   581.800    36.200    23.160
    83.950    23.290      .054   581.700    36.130    23.050
    84.000    23.230      .054   581.600    36.050    23.040
    84.050    23.160      .054   581.600    35.980    23.040
    84.100    23.100      .054   581.700    35.910    22.990
    84.150    23.040      .054   581.800    35.830    22.900
    84.200    22.980      .054   581.900    35.770    22.670
    84.250    22.920      .054   582.200    35.700    22.640
    84.300    22.870      .054   582.500    35.640    22.630
    84.350    22.830      .055   582.900    35.580    22.610
    84.400    22.780      .055   583.200    35.530    22.530
    84.450    22.760      .055   583.600    35.500    22.460
    84.500    22.740      .055   583.800    35.450    22.390
    84.550    22.720      .055   584.000    35.400    22.360
    84.600    22.710      .055   584.100    35.350    22.380
    84.650    22.690      .055   584.300    35.310    22.420
    84.700    22.670      .055   584.500    35.270    22.490
    84.750    22.660      .055   584.300    35.230    22.570
    84.800    22.650      .055   584.100    35.190    22.710
    84.850    22.650      .055   583.900    35.150    22.880
    84.900    22.650      .055   583.600    35.110    23.060
    84.950    22.650      .055   583.500    35.080    23.240
    85.000    22.670      .055   583.300    35.040    23.470
    85.050    22.680      .055   583.200    35.000    23.700
    85.100    22.700      .055   583.200    34.960    23.820
    85.150    22.740      .055   583.200    34.930    23.870
    85.200    22.770      .055   583.300    34.900    23.820
    85.250    22.800      .054   583.400    34.850    23.770
    85.300    22.840      .054   583.400    34.790    23.860
    85.350    22.870      .054   583.400    34.740    23.990
    85.400    22.900      .054   583.400    34.680    24.060
    85.450    22.920      .054   583.300    34.640    24.050
    85.500    22.940      .054   583.300    34.590    24.080
    85.550    22.960      .054   583.300    34.530    24.200
