~Version Information
 VERS.                2.0:  CWLS LOG ASCII STANDARD -VERSION 2.0
 WRAP.                 NO:  ONE LINE PER DEPTH STEP
~WELL INFORMATION BLOCK
#MNEM.UNIT       DATA		            DESCRIPTION OF MNEMONIC
#---------    -------------            ------------------------
 STRT.M      .450                        :START DEPTH
 STOP.M   #######                        :STOP DEPTH
 STEP.M      .050                        :STEP
 NULL.    -999999.0                      :NULL VALUE
 COMP.       SCHIFOOD                    :COMPANY
 WELL.                          B62B0899 :WELL
 FLD .    Heerlen                        :FIELD
 CNTY.                                   :COUNTY
 STAT.                                   :STATE
 SRVC.                                   :SERVICE COMPANY
 DATE.     23-JAN-91                     :LOG DATE
 UWI .                                   :UNIQUE WELL ID
 LIC .                                   :LICENSE NUMBER
~Curve Information Block
#MNEM.UNIT      API CODE     Curve Description
#---------    -------------  ------------------------
DEPTH    .M         00 000 00 00          :  1  DEPTH
SN40     .OHM.M     00 000 00 00          :  2  SN40
SP       .V         00 000 00 00          :  3  SP
CAL      .MM        00 000 00 00          :  4  CAL
LN160    .OHM.M     00 000 00 00          :  5  LN160
GAMMA    .CPS       00 000 00 00          :  6  GAMMA
~Parameter Information Block
#MNEM.UNIT   Information     Description
#---------- ---------------  ------------------------
 FILE.                         :File Type
 FIID.                         :File Type Identifier
 VERS.                         :System Version
 SER .                         :System Serial Number
 TRUK.                         :Truck Calibration Number
 TOOL.                         :Tool Serial Number
 TIME.                         :Time    HrHrMinMin
 LAT .                         :Latitude
 LON .                         :Longitude
 LMF .            MV           :LOG Measured FROM
 DMF .                         :Driller Measured From
 PD  .                         :Permanent Data
 PDEV.                         :Elevation Permanent Data
 EKB .M                        :Elevation Kelly Bushing
 ELEV.DF                       :Elevation DF
 EGL .M                        :Elevation Ground Level
 DRDP.                         :Drillers Depth
 CASD.                         :Casing Diameter
 CASB.                         :Casing Bottom
 CASX.                         :Casing Type
 CAST.                         :Casing Thickness
 TNOC.                         :Time Circulation Stopped
 LOGU.                         :Logging Unit
 RECB.            Veenendaal   :Recorded By
 OSR1.                         :Other Services
 OSR2.                         :Other Services
 OSR3.                         :Other Services
 BS  .MM                       :Bit Size
 MST .                         :Mean Surface Temperature
 TGRD.                         :Temperature Gradiant
 MAGN.                         :Magnetic Declination
 MDEN.                         :Density Matrix
 MATR.                         :Neutron Matrix
 DTMT.                         :Delta T Matrix
 DTFL.                         :Delta T Fluid
 MUDS.                         :Mud Sample Source
 MRS .                         :Mud Resistivity
 MTP .                         :Mud Temperature
 MFRS.                         :Resistivity Mud Filtrate
 MFTP.                         :Temperature Mud Filtrate
 MCRS.                         :Resistivity Mud Cake
 MCTP.                         :Temperature Mud Cake
 FTYP.                         :Fluid Type
 FD  .K/M3                     :Fluid Density
 DFV .S                        :Fluid Viscosity
 FPH .                         :Fuild PH
 ELCO.                         :Electron Cutoff
~Other Information
#MNEM.UNIT  Information      Description
#---------- ---------------  ------------------------
# --------------------------
## COMMENTS    Top_Depth   Bot_Depth  LithCode  Lat    Long   Elev_Gl
##    Type of LithCode   Lithologie - 1970
##                    .00         .00         .00     
##                    .45        5.75         .00     
##                   5.80        7.15       13.00     
##                   7.20        8.50        2.00     
##                   8.55       10.20       23.00     
##                  10.25       11.30       11.00     
##                  11.35       15.15       23.00     
##                  15.20       18.40       21.00     
##                  18.45       27.30       12.00     
##                  27.35       39.00       11.00     
##                  39.05       47.15       12.00     
##                  47.20       49.00       10.00     
##                  49.05       51.00        7.00     
##                  51.05       54.00       10.00     
##                  54.05       55.80        9.00     
##                  55.85       57.00       20.00     
##                  57.05       58.00        9.00     
##                  58.05       60.00       20.00     
##                  60.05       63.20       11.00     
##                  63.25       67.00        8.00     
##                  67.05       70.20        9.00     
##                  70.25       74.00        7.00     
##                  74.05       75.70        9.00     
##                  75.75       78.00        7.00     
##                  78.05       84.00        8.00     
##                  84.05       92.00        9.00     
##                  92.05       94.10       10.00     
##                  94.15       97.50        9.00     
##                  97.55      100.55       10.00     
##                 100.60      100.60         .00     
##                 100.65      126.40     #######     
##    last_layer   126.4
# --------------------------
~A DEPTH    SN40     SP       CAL      LN160    GAMMA    
# ...
    26.500    23.070      .086   567.000    24.240    11.010
    26.550    22.980      .087   566.700    24.050    10.790
    26.600    22.890      .087   566.600    23.890    10.670
    26.650    22.780      .087   566.400    23.720    10.720
    26.700    22.650      .087   566.100    23.550    10.890
    26.750    22.480      .087   565.600    23.370    11.110
    26.800    22.330      .087   564.300    23.210    11.000
    26.850    22.080      .087   562.600    23.080    10.860
    26.900    21.820      .087   560.500    22.920    10.730
    26.950    21.570      .087   554.100    22.770    10.710
    27.000    21.370      .087   557.000    22.580    10.770
    27.050    21.050      .088   559.900    22.440    10.920
    27.100    20.690      .088   562.300    22.340    11.060
    27.150    20.190      .088   561.300    22.190    10.930
    27.200    19.840      .088   560.200    22.080    10.860
    27.250    19.230      .088   559.700    21.980    10.820
    27.300    18.920      .088   558.500    21.920    10.990
    27.350    18.410      .088   556.300    21.860    11.640
    27.400    18.040      .088   555.500    21.770    11.790
    27.450    17.610      .088   554.700    21.690    11.820
    27.500    17.340      .088   552.200    21.630    11.850
    27.550    16.910      .088   548.000    21.570    11.890
    27.600    16.580      .088   544.100    21.510    11.980
    27.650    16.290      .088   543.700    21.460    12.270
    27.700    15.990      .088   545.000    21.420    12.390
    27.750    15.720      .088   546.000    21.360    12.470
    27.800    15.450      .088   536.900    21.300    12.730
    27.850    15.180      .088   534.900    21.220    13.060
    27.900    15.030      .088   536.200    21.110    13.390
    27.950    14.940      .088   537.600    21.010    13.730
    28.000    14.900      .088   533.700    20.850    14.060
    28.050    14.900      .088   530.500    20.680    14.370
    28.100    14.900      .088   529.700    20.520    14.200
    28.150    14.940      .088   528.600    20.360    14.130
    28.200    14.990      .088   528.200    20.160    14.090
    28.250    15.160      .088   528.300    19.910    13.900
    28.300    15.360      .088   529.300    19.740    13.660
    28.350    15.610      .088   530.600    19.520    13.620
    28.400    15.850      .088   532.000    19.320    13.710
    28.450    16.220      .088   532.000    19.150    13.740
    28.500    16.560      .088   531.500    18.960    13.380
    28.550    16.730      .088   531.000    18.820    13.210
    28.600    16.910      .088   530.700    18.700    13.020
    28.650    17.150      .088   530.500    18.600    12.740
    28.700    17.310      .088   530.400    18.540    12.370
    28.750    17.410      .088   530.400    18.510    12.470
    28.800    17.450      .088   530.300    18.450    12.580
    28.850    17.460      .088   530.400    18.440    12.580
    28.900    17.450      .088   530.600    18.440    12.350
    28.950    17.420      .088   531.000    18.450    12.310
    29.000    17.350      .088   531.800    18.460    12.330
    29.050    17.250      .088   534.300    18.470    12.600
    29.100    17.100      .088   536.700    18.490    12.670
    29.150    16.920      .088   538.900    18.540    12.200
    29.200    16.710      .088   541.500    18.580    11.730
    29.250    16.460      .088   542.000    18.620    11.260
    29.300    16.180      .088   544.000    18.660    11.130
    29.350    15.790      .088   546.300    18.690    11.220
    29.400    15.600      .088   545.600    18.700    12.310
    29.450    15.310      .088   541.200    18.710    12.470
    29.500    15.070      .088   539.200    18.700    12.570
    29.550    14.920      .088   538.000    18.700    12.640
    29.600    14.810      .088   535.600    18.680    12.910
    29.650    14.780      .088   532.900    18.640    13.160
    29.700    14.750      .088   530.400    18.600    14.000
    29.750    14.740      .088   528.100    18.560    14.270
    29.800    14.760      .088   525.900    18.500    14.330
    29.850    14.820      .088   525.300    18.430    14.410
    29.900    14.900      .088   524.800    18.370    14.220
    29.950    15.010      .088   524.700    18.290    14.160
    30.000    15.120      .088   524.600    18.240    14.170
    30.050    15.240      .088   524.700    18.190    14.210
    30.100    15.350      .088   524.700    18.130    14.230
    30.150    15.480      .088   524.800    18.080    14.260
    30.200    15.530      .088   524.800    18.060    13.350
    30.250    15.550      .088   524.900    18.020    12.970
    30.300    15.550      .088   524.800    18.000    13.020
    30.350    15.520      .088   524.400    18.000    13.040
    30.400    15.460      .089   523.800    18.000    12.900
    30.450    15.400      .089   523.300    18.010    12.840
    30.500    15.320      .089   523.200    18.030    12.850
    30.550    15.230      .089   523.100    18.060    12.890
    30.600    15.150      .089   523.200    18.110    12.980
    30.650    15.090      .089   523.500    18.160    13.130
    30.700    14.980      .089   523.700    18.210    12.900
    30.750    14.900      .089   523.800    18.320    12.770
    30.800    14.860      .089   523.900    18.400    12.610
    30.850    14.820      .089   524.100    18.470    12.350
    30.900    14.780      .089   524.400    18.530    12.710
    30.950    14.750      .089   524.900    18.610    13.070
    31.000    14.740      .089   525.600    18.670    13.430
    31.050    14.740      .089   527.000    18.710    13.790
    31.100    14.720      .089   530.800    18.730    14.160
    31.150    14.720      .089   534.600    18.730    14.440
    31.200    14.720      .089   538.300    18.740    14.010
    31.250    14.730      .089   542.100    18.720    13.570
    31.300    14.750      .089   546.200    18.710    13.130
    31.350    14.760      .089   541.300    18.670    12.750
    31.400    14.790      .089   536.400    18.620    12.190
    31.450    14.850      .088   531.500    18.560    12.160
    31.500    14.930      .088   527.600    18.490    12.080
    31.550    15.050      .088   526.800    18.450    12.090
    31.600    15.230      .088   527.100    18.410    12.330
    31.650    15.430      .088   528.200    18.370    12.860
    31.700    15.630      .088   529.200    18.350    13.380
    31.750    15.910      .088   529.900    18.340    13.900
    31.800    16.070      .088   529.700    18.330    14.030
    31.850    16.340      .088   529.500    18.330    14.350
    31.900    16.770      .088   529.300    18.330    14.800
    31.950    16.970      .088   529.200    18.330    15.160
    32.000    17.360      .088   529.000    18.330    15.180
    32.050    17.600      .088   528.900    18.330    15.210
    32.100    17.780      .088   528.800    18.330    15.000
    32.150    17.840      .088   528.300    18.340    14.500
    32.200    17.850      .088   526.600    18.360    14.000
    32.250    17.860      .088   524.500    18.370    13.400
    32.300    17.790      .088   523.100    18.380    12.530
    32.350    17.710      .088   522.700    18.390    12.180
    32.400    17.570      .088   522.700    18.420    11.860
    32.450    17.400      .088   522.700    18.440    11.960
    32.500    17.230      .088   522.800    18.470    11.990
    32.550    17.070      .088   523.100    18.490    11.720
    32.600    16.930      .088   523.600    18.510    11.200
    32.650    16.880      .088   524.400    18.530    10.790
    32.700    16.800      .088   525.800    18.560    10.060
    32.750    16.660      .088   526.800    18.610    10.060
    32.800    16.540      .088   527.400    18.660    10.250
    32.850    16.400      .088   527.700    18.680    10.430
    32.900    16.310      .088   527.800    18.690    10.790
    32.950    16.240      .088   527.800    18.720    11.400
    33.000    16.190      .088   527.800    18.750    12.000
    33.050    16.190      .088   527.800    18.770    12.500
