~Version Information Block
 VERS.                2.00:     CWLS LOG ASCII STANDARD - VERSION 2.000000
 WRAP.                  NO:     One Line Per Depth Step
#
~Well Information Block
#MNEM.UNIT                     Data                         Information
#----------   ------------------------------------------   ----------------
 STRT.M                                         0.0000:
 STOP.M                                       171.0000:
 STEP.M                                         0.0200:
 NULL.                                       -999.2500:
 COMP.                                                :     COMPANY
 WELL.                                        B62B0838:     WELL
 FLD .                                                :     FIELD
 CNTY.                                                :     COUNTY
 STAT.                                                :     STATE
 CTRY.                                                :     COUNTRY
 SRVC.                                                :     SERVICE COMPANY
 DATE.                                                :     DATE
 API .                                                :     API NUMBER
 UWI .                                                :     UWI NUMBER
#
~Curve Information Block
#MNEM.UNIT       API CODE      Curve Description
#----------    -------------   -------------------
 DEPT.M                    :   Depth in Meters
 SN20.OHM-M                :   SN20
 LN100.OHM-M               :   LN100
 CALI.CM                   :   Calr
 GAM(NAT) .CPS             :   GAM(NAT)
#
~Parameter Information Block
#MNEM.UNIT            Value               Description
#----------    --------------------    -------------------
 PDAT.                            :    Permanent Datum
 EPD .M                     0.0000:    Elevation Of Perm. Datum
 WSTA.                         LOC:    
 E   .M                     0.0000:    E (Stretch Coefficient Of The Cable)
 TD  .M                   171.0000:    Total Depth
#
~Other Information Block
<DescLogPlotStart>   NEURALOG PLOT DEFINITION
PLOTDEFVERSION: 3
LASFILE: V:\a4\j4\p44009\boorgatmetingen\SCANS TE VERWERKEN IN DINO\wlg\B62B083
DEPTHSCALE: 200.000000
RESOLUTION: 600
DEPTHLABELFREQ: 50.000000
HEAVYGRIDFREQ: 50.000000
MEDIUMGRIDFREQ: 25.000000
LIGHTGRIDFREQ: 5.000000
#
#   TRACK 1
#
STARTTRACK: 
 LEFTX: 13.760000 inch
 RIGHTX: 15.010000 inch
 SCALETYPE: LINEAR
 NUMCHARTDIVISIONS: 10
CURVE: CALI  30.000000  50.000000  (0,0,255)      Solid             2     N    
ENDTRACK: 
#
#   TRACK 2
#
STARTTRACK: 
 LEFTX: 16.551667 inch
 RIGHTX: 21.551667 inch
 SCALETYPE: LINEAR
 NUMCHARTDIVISIONS: 10
CURVE: GAM(NAT)   0.000000   50.000000  (0,131,131)    Solid             2     N    
ENDTRACK: 
#
#   TRACK 3
#
STARTTRACK: 
 LEFTX: 15.343333 inch
 RIGHTX: 21.240000 inch
 SCALETYPE: LINEAR
 NUMCHARTDIVISIONS: 10
CURVE: SN20  0.000000   100.000000 (255,0,255)    Solid             2     Y    
CURVE: LN100  0.000000   100.000000 (255,0,0)      Dot               2     Y    
ENDTRACK: 
<DescLogPlotEnd>
~Other Information
#MNEM.UNIT  Information      Description
#---------- ---------------  ------------------------
# --------------------------
## COMMENTS    Top_Depth   Bot_Depth  LithCode  Lat    Long   Elev_Gl 
##	0.0	31.2	0.0
##	31.25	97.0	25.0
##	97.05	97.5	11.0
##	97.55	104.0	12.0
##	104.05	110.1	11.0
##	110.15	111.7	12.0
##	111.75	113.1	11.0
##	113.15	116.6	12.0
##	116.65	124.1	11.0
##	124.15	125.9	12.0
##	125.95	139.0	11.0
##	139.05	140.0	10.0
##	140.05	145.5	11.0
##	145.55	146.3	10.0
##	146.35	148.0	12.0
##	148.05	149.4	10.0
##	149.45	150.0	11.0
##	150.05	151.9	10.0
##	151.95	152.6	11.0
##	152.65	155.0	10.0
##	155.05	160.9	14.0
##	160.95	163.2	11.0
##	163.25	164.0	10.0
##	164.05	167.8	11.0
##	167.85	170.0	10.0
##	170.05	171.95	11.0
# --------------------------
~A  DEPTH         SN20             LN100            CALI             GAM(NAT)  
# ...
     124.460      17.19050311      16.27473149      38.26719577      32.45688197
     124.480      17.19050311      16.27473149      38.26719577      32.45688197
     124.500      17.20107284      16.27473149      38.28274390      32.37930809
     124.520      17.22731163      16.27473149      38.26823850      32.35609427
     124.540      17.25355043      16.27473149      38.26719577      32.32160974
     124.560      17.27978922      16.27473149      38.26719577      32.32160974
     124.580      17.30602802      16.27473149      38.26719577      32.59884860
     124.600      17.33226681      16.27473149      38.26719577      32.85945531
     124.620      17.35850560      16.27473149      38.26719577      33.06560703
     124.640      17.38474440      16.27473149      38.24074074      33.22113253
     124.660      17.41098319      16.27473149      38.24074074      33.20087927
     124.680      17.43722199      16.30094116      38.24074074      33.21683309
     124.700      17.46346078      16.32777629      38.21428571      33.31666162
     124.720      17.48969957      16.35891289      38.18783069      33.56991340
     124.740      17.51593837      16.39069133      38.18783069      33.88249115
     124.760      17.54217716      16.42246977      38.18783069      34.01986762
     124.780      17.56841595      16.45424822      38.18783069      34.21283425
     124.800      17.59465475      16.48602666      38.16137566      34.46905648
     124.820      17.62089354      16.51780510      38.16137566      34.58168248
     124.840      17.64713234      16.54958355      38.16137566      34.49218526
     124.860      17.67337113      16.58136199      38.13492063      34.41499505
     124.880      17.68795930      16.61314043      38.13492063      34.24258030
     124.900      17.68795930      16.64491888      38.16137566      33.97564902
     124.920      17.68795930      16.67669732      38.16137566      33.87724045
     124.940      17.68795930      16.70847577      38.14045608      33.87724045
     124.960      17.68795930      16.74025421      38.13492063      33.86894019
     124.980      17.68795930      16.77203265      38.13492063      33.74073415
     125.000      17.68795930      16.80381110      38.16137566      33.72505918
     125.020      17.68795930      16.83558954      38.18783069      33.42152332
     125.040      17.67617347      16.81729750      38.23161608      33.09476769
     125.060      17.66064417      16.79088832      38.24074074      32.96368020
     125.080      17.64511486      16.76447915      38.27779944      32.83901220
     125.100      17.63143019      16.73806997      38.31411863      32.84196287
     125.120      17.62012436      16.71166080      38.32785977      32.96415286
     125.140      17.60881854      16.68525162      38.37301587      33.10886448
     125.160      17.60881854      16.65884245      38.37586559      33.13324315
     125.180      17.60881854      16.63243327      38.38003032      33.08943393
     125.200      17.60881854      16.60602409      38.39947090      32.93790925
     125.220      17.60881854      16.57961492      38.39975866      32.76087666
     125.240      17.60881854      16.55320574      38.42592593      32.68711967
     125.260      17.60881854      16.52679657      38.39947090      32.65111234
     125.280      17.60881854      16.50038739      38.39947090      32.39362441
     125.300      17.60881854      16.47397822      38.39947090      32.49101646
     125.320      17.60881854      16.44756904      38.39947090      32.78240156
     125.340      17.61612171      16.42115987      38.39947090      33.09090532
     125.360      17.62012436      16.39475069      38.37301587      33.27028540
     125.380      17.62012436      16.36834151      38.34656085      33.48812314
     125.400      17.62012436      16.34193234      38.33686067      33.77747717
     125.420      17.62012436      16.31552316      38.32010582      34.08982156
     125.440      17.62012436      16.28911399      38.29365079      34.35849120
     125.460      17.62012436      16.26270481      38.29365079      34.69508570
     125.480      17.62012436      16.23629564      38.29365079      34.82174719
     125.500      17.62012436      16.20988646      38.29365079      34.98023325
     125.520      17.62012436      16.18347729      38.27767567      35.02035610
     125.540      17.62012436      16.15706811      38.26719577      35.19260274
     125.560      17.54375122      16.13052341      38.24998917      35.38214406
     125.580      17.51691609      16.10368828      38.26719577      35.47234929
     125.600      17.49178477      16.04277700      38.26719577      35.69134198
     125.620      17.47300018      16.00339175      38.29365079      35.72140050
     125.640      17.45421558      16.00339175      38.29365079      35.57004788
     125.660      17.43543099      15.92425099      38.29931000      35.44136918
     125.680      17.41664640      15.92425099      38.34656085      35.21710600
     125.700      17.39786181      15.92425099      38.37301587      35.21168918
     125.720      17.37907722      15.92425099      38.37301587      35.34820141
     125.740      17.36029263      15.92425099      38.35435502      35.62476194
     125.760      17.34150804      15.92575736      38.32010582      36.11584762
     125.780      17.21803069      15.93304118      38.32010582      36.28264382
     125.800      17.06596496      15.94032500      38.27185247      36.41359486
     125.820      16.91389922      15.94760882      38.26719577      36.70410978
     125.840      16.76183348      15.95489264      38.26719577      36.95212273
     125.860      16.60976775      15.96217646      38.26567654      37.05613798
     125.880      16.52105606      15.96946028      38.25885083      37.25280482
     125.900      16.45579790      15.97674410      38.24074074      37.60579021
     125.920      16.39053974      15.98402792      38.32010582      37.97570044
     125.940      16.32528159      15.99131174      38.33507844      39.37267501
     125.960      16.26002343      15.99859557      38.34145240      39.37267501
     125.980      16.19476527      16.00587939      38.34656085      38.81904570
     126.000      16.12950711      16.01316321      38.34656085      38.91613121
     126.020      16.06424896      16.02044703      38.34656085      38.78967738
     126.040      15.99899080      16.02773085      38.37301587      38.63100542
     126.060      15.93373264      16.03501467      38.39077323      38.16008994
     126.080      15.86847449      16.04229849      38.40063740      37.86702581
     126.100      15.80321633      16.04958231      38.45238095      37.74235781
     126.120      15.73795817      16.05686613      38.45238095      37.74940818
     126.140      15.67270001      16.06414995      38.45668492      37.76906814
     126.160      15.60744186      16.07143378      38.49300412      37.82610003
     126.180      15.54218370      16.07871760      38.50529101      37.83550184
     126.200      15.47692554      16.08600142      38.50529101      37.84346590
     126.220      15.41166739      16.09328524      38.50529101      37.88989354
     126.240      15.35895986      16.10056906      38.50529101      37.93677803
     126.260      15.35895986      16.10785288      38.50529101      38.06053235
     126.280      15.35895986      16.11513670      38.50529101      38.18673897
     126.300      15.35895986      16.12242052      38.50529101      39.93067298
     126.320      15.35895986      16.12970434      38.50529101      39.93067298
     126.340      15.35895986      16.13698816      38.50529101      39.93067298
     126.360      15.35895986      16.13906162      38.50529101      39.33535055
     126.380      15.35895986      16.13906162      38.48843714      39.35576598
     126.400      15.35895986      16.13906162      38.47883598      38.79575079
     126.420      15.35895986      16.13906162      38.47883598      38.28045850
