~Version Information
 VERS.                2.0:  CWLS LOG ASCII STANDARD -VERSION 2.0
 WRAP.                 NO:  ONE LINE PER DEPTH STEP
~WELL INFORMATION BLOCK
#MNEM.UNIT       DATA		            DESCRIPTION OF MNEMONIC
#---------    -------------            ------------------------
 STRT.M      .000                        :START DEPTH
 STOP.M   #######                        :STOP DEPTH
 STEP.M      .050                        :STEP
 NULL.    -999999.0                      :NULL VALUE
 COMP.       SCHIFOOD                    :COMPANY
 WELL.                          B62B0896 :WELL
 FLD .    Hoensbroek                     :FIELD
 CNTY.                                   :COUNTY
 STAT.                                   :STATE
 SRVC.                                   :SERVICE COMPANY
 DATE.     17-JUL-90                     :LOG DATE
 UWI .                                   :UNIQUE WELL ID
 LIC .                                   :LICENSE NUMBER
~Curve Information Block
#MNEM.UNIT      API CODE     Curve Description
#---------    -------------  ------------------------
DEPTH    .M         00 000 00 00          :  1  DEPTH
SN40     .OHM.M     00 000 00 00          :  2  SN40
SP       .V         00 000 00 00          :  3  SP
CAL      .MM        00 000 00 00          :  4  CAL
LN160    .OHM.M     00 000 00 00          :  5  LN160
GAMMA    .CPS       00 000 00 00          :  6  GAMMA
~Parameter Information Block
#MNEM.UNIT   Information     Description
#---------- ---------------  ------------------------
 FILE.                         :File Type
 FIID.                         :File Type Identifier
 VERS.                         :System Version
 SER .                         :System Serial Number
 TRUK.                         :Truck Calibration Number
 TOOL.                         :Tool Serial Number
 TIME.                         :Time    HrHrMinMin
 LAT .                         :Latitude
 LON .                         :Longitude
 LMF .            MV           :LOG Measured FROM
 DMF .                         :Driller Measured From
 PD  .                         :Permanent Data
 PDEV.                         :Elevation Permanent Data
 EKB .M                        :Elevation Kelly Bushing
 ELEV.DF                       :Elevation DF
 EGL .M                        :Elevation Ground Level
 DRDP.                         :Drillers Depth
 CASD.                         :Casing Diameter
 CASB.                         :Casing Bottom
 CASX.                         :Casing Type
 CAST.                         :Casing Thickness
 TNOC.                         :Time Circulation Stopped
 LOGU.                         :Logging Unit
 RECB.            Bergsma      :Recorded By
 OSR1.                         :Other Services
 OSR2.                         :Other Services
 OSR3.                         :Other Services
 BS  .MM                       :Bit Size
 MST .                         :Mean Surface Temperature
 TGRD.                         :Temperature Gradiant
 MAGN.                         :Magnetic Declination
 MDEN.                         :Density Matrix
 MATR.                         :Neutron Matrix
 DTMT.                         :Delta T Matrix
 DTFL.                         :Delta T Fluid
 MUDS.                         :Mud Sample Source
 MRS .            6            :Mud Resistivity
 MTP .            19           :Mud Temperature
 MFRS.                         :Resistivity Mud Filtrate
 MFTP.                         :Temperature Mud Filtrate
 MCRS.                         :Resistivity Mud Cake
 MCTP.                         :Temperature Mud Cake
 FTYP.                         :Fluid Type
 FD  .K/M3                     :Fluid Density
 DFV .S                        :Fluid Viscosity
 FPH .                         :Fuild PH
 ELCO.                         :Electron Cutoff
~Other Information
#MNEM.UNIT  Information      Description
#---------- ---------------  ------------------------
# --------------------------
## COMMENTS    Top_Depth   Bot_Depth  LithCode  Lat    Long   Elev_Gl
##    Type of LithCode   Lithologie - 1970
##                    .00        6.00         .00     
##                   6.05        8.00        2.00     
##                   8.05       11.50       22.00     
##                  11.55       15.20       23.00     
##                  15.25       19.00       22.00     
##                  19.05       20.25       11.00     
##                  20.30       22.10       12.00     
##                  22.15       23.70       11.00     
##                  23.75       25.15       12.00     
##                  25.20       26.10       11.00     
##                  26.15       27.20       12.00     
##                  27.25       35.00       11.00     
##                  35.05       47.55       12.00     
##                  47.60       51.00        7.00     
##                  51.05       52.25       11.00     
##                  52.30       54.00        7.00     
##                  54.05       55.10       11.00     
##                  55.15       58.00       12.00     
##                  58.05       62.60       11.00     
##                  62.65       67.20        8.00     
##                  67.25       70.05        9.00     
##                  70.10       74.00        7.00     
##                  74.05       75.40        8.00     
##                  75.45       80.00        7.00     
##                  80.05       92.40        9.00     
##                  92.45       94.50       10.00     
##                  94.55       96.90        8.00     
##                  96.95       99.30       10.00     
##                  99.35       99.35         .00     
##    last_layer   99.35
# --------------------------
~A DEPTH    SN40     SP       CAL      LN160    GAMMA    
# ...
    85.600    22.970      .054   583.300    34.460    24.420
    85.650    22.990      .054   583.400    34.410    24.680
    85.700    23.010      .054   583.400    34.360    24.910
    85.750    23.010      .054   583.400    34.310    24.750
    85.800    23.010      .054   583.400    34.250    24.460
    85.850    23.010      .054   583.400    34.190    24.270
    85.900    23.000      .054   583.500    34.120    24.120
    85.950    22.980      .054   583.500    34.050    24.050
    86.000    22.960      .054   583.500    33.980    24.050
    86.050    22.920      .054   583.500    33.920    24.120
    86.100    22.880      .054   583.600    33.840    24.220
    86.150    22.840      .054   583.600    33.760    24.290
    86.200    22.800      .054   583.700    33.690    24.320
    86.250    22.760      .054   583.700    33.630    24.350
    86.300    22.720      .054   583.800    33.560    24.370
    86.350    22.690      .054   583.900    33.470    24.380
    86.400    22.650      .054   584.000    33.390    24.340
    86.450    22.600      .054   584.200    33.310    24.230
    86.500    22.550      .054   584.400    33.240    24.120
    86.550    22.480      .054   584.500    33.150    24.030
    86.600    22.430      .054   584.800    33.060    23.920
    86.650    22.360      .054   585.000    32.980    23.800
    86.700    22.280      .054   585.300    32.900    23.710
    86.750    22.210      .054   585.500    32.830    23.680
    86.800    22.120      .054   586.100    32.770    23.670
    86.850    22.040      .054   586.800    32.710    23.720
    86.900    21.950      .054   587.500    32.640    23.810
    86.950    21.860      .054   588.200    32.580    23.870
    87.000    21.770      .054   588.900    32.540    23.910
    87.050    21.680      .054   589.600    32.530    23.950
    87.100    21.590      .054   590.300    32.540    23.950
    87.150    21.490      .054   591.100    32.510    23.880
    87.200    21.390      .054   591.600    32.470    23.670
    87.250    21.300      .054   592.200    32.430    23.480
    87.300    21.280      .054   592.700    32.370    23.330
    87.350    21.240      .054   593.200    32.330    23.270
    87.400    21.200      .054   593.600    32.290    23.230
    87.450    21.190      .054   594.000    32.250    23.190
    87.500    21.170      .054   594.300    32.200    23.100
    87.550    21.150      .054   594.500    32.150    22.990
    87.600    21.140      .054   594.700    32.090    22.800
    87.650    21.120      .054   594.900    32.050    22.700
    87.700    21.100      .055   595.100    32.010    22.750
    87.750    21.080      .055   595.300    31.970    22.930
    87.800    21.060      .055   595.300    31.930    23.030
    87.850    21.040      .055   595.100    31.890    23.120
    87.900    21.030      .055   594.700    31.840    23.150
    87.950    21.010      .055   594.300    31.770    23.090
    88.000    20.990      .055   593.600    31.710    23.010
    88.050    20.970      .055   592.900    31.630    22.920
    88.100    20.950      .055   591.900    31.580    22.800
    88.150    20.940      .055   590.600    31.520    22.680
    88.200    20.930      .055   588.800    31.450    22.640
    88.250    20.920      .055   587.500    31.400    22.700
    88.300    20.910      .055   586.100    31.350    22.840
    88.350    20.900      .055   585.500    31.290    23.030
    88.400    20.890      .055   585.100    31.230    23.140
    88.450    20.890      .055   585.100    31.160    23.200
    88.500    20.880      .055   585.100    31.110    23.260
    88.550    20.880      .055   585.300    31.060    23.310
    88.600    20.870      .055   585.500    31.020    23.430
    88.650    20.850      .055   585.800    30.980    23.560
    88.700    20.840      .055   586.200    30.940    23.740
    88.750    20.830      .055   586.700    30.900    23.850
    88.800    20.830      .055   587.200    30.870    23.900
    88.850    20.820      .055   587.700    30.840    23.920
    88.900    20.810      .055   588.200    30.810    23.910
    88.950    20.810      .055   588.700    30.770    23.890
    89.000    20.810      .055   588.700    30.740    23.870
    89.050    20.800      .055   588.800    30.710    23.820
    89.100    20.800      .055   588.800    30.680    23.720
    89.150    20.790      .055   588.900    30.650    23.510
    89.200    20.790      .055   589.000    30.620    23.240
    89.250    20.790      .055   589.000    30.590    22.870
    89.300    20.780      .055   589.100    30.560    22.740
    89.350    20.780      .055   589.300    30.520    22.680
    89.400    20.780      .055   589.400    30.490    22.650
    89.450    20.780      .054   589.500    30.460    22.630
    89.500    20.780      .054   589.700    30.430    22.550
    89.550    20.780      .054   589.800    30.400    22.430
    89.600    20.780      .054   590.000    30.370    22.270
    89.650    20.780      .054   590.100    30.340    22.130
    89.700    20.780      .054   590.200    30.310    22.130
    89.750    20.780      .054   590.000    30.270    22.220
    89.800    20.790      .054   589.900    30.240    22.290
    89.850    20.790      .054   589.800    30.210    22.460
    89.900    20.790      .054   589.700    30.180    22.660
    89.950    20.800      .054   589.600    30.150    22.850
    90.000    20.800      .053   589.500    30.120    23.060
    90.050    20.810      .053   589.300    30.090    23.140
    90.100    20.810      .053   589.100    30.060    23.170
    90.150    20.810      .053   588.900    30.030    23.190
    90.200    20.810      .053   588.600    30.000    23.200
    90.250    20.810      .053   588.200    29.960    23.220
    90.300    20.820      .053   587.800    29.930    23.230
    90.350    20.820      .053   587.500    29.900    23.250
    90.400    20.820      .054   587.200    29.870    23.300
    90.450    20.810      .054   587.000    29.840    23.370
    90.500    20.800      .054   586.800    29.810    23.450
    90.550    20.770      .054   586.700    29.780    23.530
    90.600    20.750      .055   586.600    29.750    23.580
    90.650    20.730      .055   586.400    29.720    23.560
    90.700    20.710      .056   586.400    29.690    23.410
    90.750    20.690      .056   586.300    29.660    23.080
    90.800    20.670      .057   586.300    29.620    22.730
    90.850    20.640      .057   586.200    29.590    22.640
    90.900    20.600      .058   586.400    29.590    22.600
    90.950    20.570      .059   586.500    29.530    22.580
    91.000    20.540      .059   586.800    29.480    22.490
    91.050    20.490      .060   587.400    29.430    22.410
    91.100    20.440      .060   588.100    29.380    22.380
    91.150    20.380      .060   589.000    29.320    22.440
    91.200    20.330      .060   589.800    29.220    22.510
    91.250    20.270      .060   590.600    29.100    22.590
    91.300    20.220      .060   591.400    28.970    22.720
    91.350    20.160      .060   592.200    28.880    22.860
    91.400    20.100      .060   593.100    28.790    22.950
    91.450    20.030      .060   594.000    28.700    23.030
    91.500    19.960      .060   594.800    28.610    23.050
    91.550    19.890      .060   595.800    28.510    23.040
    91.600    19.820      .060   596.300    28.420    23.040
    91.650    19.740      .061   596.900    28.330    22.990
    91.700    19.680      .061   597.600    28.240    22.890
    91.750    19.570      .061   598.200    28.150    22.800
    91.800    19.470      .061   598.800    28.060    22.600
    91.850    19.380      .062   599.700    27.970    22.520
    91.900    19.290      .062   600.300    27.870    22.430
    91.950    19.200      .062   600.600    27.780    22.340
    92.000    19.120      .062   600.800    27.690    22.260
    92.050    19.040      .063   600.700    27.580    22.240
    92.100    18.960      .063   600.400    27.430    22.330
    92.150    18.890      .063   600.300    27.340    22.400
