~Version Information
 VERS.                2.0:  CWLS LOG ASCII STANDARD -VERSION 2.0
 WRAP.                 NO:  ONE LINE PER DEPTH STEP
~WELL INFORMATION BLOCK
#MNEM.UNIT       DATA		            DESCRIPTION OF MNEMONIC
#---------    -------------            ------------------------
 STRT.M      .000                        :START DEPTH
 STOP.M    79.950                        :STOP DEPTH
 STEP.M      .050                        :STEP
 NULL.    -999999.0                      :NULL VALUE
 COMP.       WML                         :COMPANY
 WELL.                          B62B0898 :WELL
 FLD .    Voerendaal                     :FIELD
 CNTY.                                   :COUNTY
 STAT.                                   :STATE
 SRVC.                                   :SERVICE COMPANY
 DATE.     17-NOV-90                     :LOG DATE
 UWI .                                   :UNIQUE WELL ID
 LIC .                                   :LICENSE NUMBER
~Curve Information Block
#MNEM.UNIT      API CODE     Curve Description
#---------    -------------  ------------------------
DEPTH    .M         00 000 00 00          :  1  DEPTH
UFLOW    .M/S       00 000 00 00          :  2  UFLOW
TEMP     .DEGC      00 000 00 00          :  3  TEMP
SN40     .OHM.M     00 000 00 00          :  4  SN40
SP       .V         00 000 00 00          :  5  SP
CAL      .MM        00 000 00 00          :  6  CAL
TEMP     .DEGC      00 000 00 00          :  7  TEMP
GAMMA    .CPS       00 000 00 00          :  8  GAMMA
LN160    .OHM.M     00 000 00 00          :  9  LN160
~Parameter Information Block
#MNEM.UNIT   Information     Description
#---------- ---------------  ------------------------
 FILE.                         :File Type
 FIID.                         :File Type Identifier
 VERS.                         :System Version
 SER .                         :System Serial Number
 TRUK.                         :Truck Calibration Number
 TOOL.                         :Tool Serial Number
 TIME.                         :Time    HrHrMinMin
 LAT .                         :Latitude
 LON .                         :Longitude
 LMF .            MV           :LOG Measured FROM
 DMF .                         :Driller Measured From
 PD  .                         :Permanent Data
 PDEV.                         :Elevation Permanent Data
 EKB .M                        :Elevation Kelly Bushing
 ELEV.DF                       :Elevation DF
 EGL .M                        :Elevation Ground Level
 DRDP.                         :Drillers Depth
 CASD.                         :Casing Diameter
 CASB.                         :Casing Bottom
 CASX.                         :Casing Type
 CAST.                         :Casing Thickness
 TNOC.                         :Time Circulation Stopped
 LOGU.                         :Logging Unit
 RECB.            Veenendaal   :Recorded By
 OSR1.                         :Other Services
 OSR2.                         :Other Services
 OSR3.                         :Other Services
 BS  .MM                       :Bit Size
 MST .                         :Mean Surface Temperature
 TGRD.                         :Temperature Gradiant
 MAGN.                         :Magnetic Declination
 MDEN.                         :Density Matrix
 MATR.                         :Neutron Matrix
 DTMT.                         :Delta T Matrix
 DTFL.                         :Delta T Fluid
 MUDS.                         :Mud Sample Source
 MRS .                         :Mud Resistivity
 MTP .                         :Mud Temperature
 MFRS.                         :Resistivity Mud Filtrate
 MFTP.                         :Temperature Mud Filtrate
 MCRS.                         :Resistivity Mud Cake
 MCTP.                         :Temperature Mud Cake
 FTYP.                         :Fluid Type
 FD  .K/M3                     :Fluid Density
 DFV .S                        :Fluid Viscosity
 FPH .                         :Fuild PH
 ELCO.                         :Electron Cutoff
~Other Information
#MNEM.UNIT  Information      Description
#---------- ---------------  ------------------------
# --------------------------
## COMMENTS    Top_Depth   Bot_Depth  LithCode  Lat    Long   Elev_Gl
##    Type of LithCode   Lithologie - 1970
##                    .00         .80         .00     
##                    .85        2.25       19.00     
##                   2.30        6.15       12.00     
##                   6.20       28.50        7.00     
##                  28.55       40.50        9.00     
##                  40.55       74.60         .00     
##                  74.65       78.00       10.00     
##                  78.05       78.05         .00     
##    last_layer   78.05
# --------------------------
~A DEPTH    UFLOW    TEMP     SN40     SP       CAL      TEMP     GAMMA    LN160    
# ...
    12.650    28.690    10.510 -999999.0  -999999.0    361.200    10.130     9.500 -999999.0 
    12.700    28.540    10.510 -999999.0  -999999.0    361.300    10.140     9.370 -999999.0 
    12.750    28.240    10.510 -999999.0  -999999.0    361.300    10.140     9.340 -999999.0 
    12.800    28.040    10.510 -999999.0  -999999.0    361.400    10.150     9.360 -999999.0 
    12.850    27.790    10.510 -999999.0  -999999.0    361.400    10.160     9.410 -999999.0 
    12.900    27.480    10.510 -999999.0  -999999.0    361.500    10.160     9.490 -999999.0 
    12.950    26.690    10.510 -999999.0  -999999.0    361.400    10.170     9.590 -999999.0 
    13.000    26.250    10.500 -999999.0  -999999.0    361.400    10.180     9.640 -999999.0 
    13.050    26.230    10.500 -999999.0  -999999.0    361.400    10.190     9.600 -999999.0 
    13.100    26.420    10.500 -999999.0  -999999.0    361.300    10.190     9.380 -999999.0 
    13.150    26.590    10.500 -999999.0  -999999.0    361.300    10.200     9.150 -999999.0 
    13.200    26.580    10.500 -999999.0  -999999.0    361.200    10.200     8.990 -999999.0 
    13.250    26.400    10.500 -999999.0  -999999.0    361.100    10.210     8.970 -999999.0 
    13.300    26.330    10.500 -999999.0  -999999.0    361.100    10.210     9.060 -999999.0 
    13.350    26.540    10.500 -999999.0  -999999.0    361.000    10.210     9.200 -999999.0 
    13.400    26.960    10.510 -999999.0  -999999.0    361.000    10.220     9.500 -999999.0 
    13.450    27.020    10.510 -999999.0  -999999.0    361.000    10.220     9.570 -999999.0 
    13.500    26.810    10.510 -999999.0  -999999.0    361.000    10.230     9.540 -999999.0 
    13.550    26.400    10.510 -999999.0  -999999.0    361.000    10.230     9.530 -999999.0 
    13.600    26.330    10.510 -999999.0  -999999.0    360.900    10.230     9.500 -999999.0 
    13.650    26.660    10.510 -999999.0  -999999.0    360.800    10.240     9.420 -999999.0 
    13.700    26.780    10.510 -999999.0  -999999.0    360.700    10.240     9.410 -999999.0 
    13.750    26.650    10.510 -999999.0  -999999.0    360.500    10.250     9.380 -999999.0 
    13.800    26.390    10.510 -999999.0  -999999.0    360.400    10.250     9.290 -999999.0 
    13.850    26.410    10.510 -999999.0  -999999.0    360.400    10.250     9.190 -999999.0 
    13.900    26.830    10.510 -999999.0  -999999.0    360.300    10.260     9.130 -999999.0 
    13.950    27.480    10.510 -999999.0  -999999.0    360.300    10.260     9.170 -999999.0 
    14.000    28.130    10.500 -999999.0  -999999.0    360.300    10.270     9.200 -999999.0 
    14.050    28.490    10.500 -999999.0  -999999.0    360.300    10.270     9.180 -999999.0 
    14.100    28.740    10.500 -999999.0  -999999.0    360.400    10.270     9.140 -999999.0 
    14.150    28.840    10.500 -999999.0  -999999.0    360.500    10.280     9.140 -999999.0 
    14.200    28.940    10.500 -999999.0  -999999.0    360.500    10.280     9.100 -999999.0 
    14.250    28.970    10.500 -999999.0  -999999.0    360.600    10.280     9.010 -999999.0 
    14.300    28.860    10.500 -999999.0  -999999.0    360.700    10.290     8.880 -999999.0 
    14.350    28.490    10.500 -999999.0  -999999.0    360.700    10.290     8.660 -999999.0 
    14.400    28.040    10.500 -999999.0  -999999.0    360.700    10.290     8.550 -999999.0 
    14.450    27.930    10.500 -999999.0  -999999.0    360.800    10.290     8.440 -999999.0 
    14.500    27.990    10.500 -999999.0  -999999.0    360.800    10.300     8.360 -999999.0 
    14.550    28.010    10.500 -999999.0  -999999.0    361.100    10.300     8.240 -999999.0 
    14.600    27.970    10.500 -999999.0  -999999.0    361.200    10.300     8.120 -999999.0 
    14.650    27.890    10.500 -999999.0  -999999.0    361.300    10.300     7.990 -999999.0 
    14.700    27.800    10.500 -999999.0  -999999.0    361.400    10.310     7.810 -999999.0 
    14.750    27.720    10.500 -999999.0  -999999.0    361.400    10.310     7.620 -999999.0 
    14.800    27.680    10.500 -999999.0  -999999.0    361.200    10.310     7.400 -999999.0 
    14.850    27.680    10.510 -999999.0  -999999.0    361.100    10.310     7.430 -999999.0 
    14.900    27.700    10.510 -999999.0  -999999.0    361.000    10.320     7.370 -999999.0 
    14.950    27.830    10.510 -999999.0  -999999.0    360.800    10.320     7.320 -999999.0 
    15.000    28.030    10.510 -999999.0  -999999.0    360.700    10.320     7.340 -999999.0 
    15.050    28.200    10.520 -999999.0  -999999.0    360.700    10.320     7.490 -999999.0 
    15.100    28.350    10.520 -999999.0  -999999.0    360.800    10.330     7.670 -999999.0 
    15.150    28.440    10.520 -999999.0  -999999.0    361.100    10.330     8.040 -999999.0 
    15.200    28.370    10.520 -999999.0  -999999.0    361.300    10.330     8.220 -999999.0 
    15.250    28.110    10.520 -999999.0  -999999.0    361.500    10.330     8.290 -999999.0 
    15.300    27.620    10.530 -999999.0  -999999.0    361.600    10.330     8.300 -999999.0 
    15.350    26.840    10.530 -999999.0  -999999.0    361.600    10.340     8.330 -999999.0 
    15.400    26.630    10.530 -999999.0  -999999.0    361.700    10.340     8.380 -999999.0 
    15.450    26.630    10.530 -999999.0  -999999.0    361.400    10.340     8.460 -999999.0 
    15.500    26.760    10.520 -999999.0  -999999.0    361.400    10.340     8.540 -999999.0 
    15.550    27.050    10.520 -999999.0  -999999.0    361.400    10.340     8.620 -999999.0 
    15.600    27.590    10.520 -999999.0  -999999.0    361.500    10.350     8.660 -999999.0 
    15.650    28.110    10.520 -999999.0  -999999.0    361.600    10.350     8.590 -999999.0 
    15.700    28.450    10.520 -999999.0  -999999.0    361.700    10.350     8.540 -999999.0 
    15.750    29.130    10.520 -999999.0  -999999.0    361.700    10.350     8.480 -999999.0 
    15.800    29.570    10.510 -999999.0  -999999.0    361.500    10.350     8.480 -999999.0 
    15.850    29.740    10.510 -999999.0  -999999.0    361.500    10.360     8.470 -999999.0 
    15.900    29.650    10.510 -999999.0  -999999.0    361.300    10.360     8.520 -999999.0 
    15.950    29.420    10.510 -999999.0  -999999.0    361.200    10.360     8.570 -999999.0 
    16.000    28.970    10.510 -999999.0  -999999.0    361.200    10.360     8.610 -999999.0 
    16.050    28.510    10.500 -999999.0  -999999.0    361.100    10.360     8.600 -999999.0 
    16.100    28.220    10.500 -999999.0  -999999.0    361.100    10.370     8.550 -999999.0 
    16.150    28.030    10.500 -999999.0  -999999.0    361.000    10.370     8.360 -999999.0 
    16.200    27.900    10.500 -999999.0  -999999.0    360.800    10.370     7.730 -999999.0 
    16.250    27.920    10.500 -999999.0  -999999.0    360.900    10.370     7.230 -999999.0 
    16.300    27.990    10.500 -999999.0  -999999.0    361.100    10.370     7.250 -999999.0 
    16.350    28.030    10.500 -999999.0  -999999.0    361.100    10.380     7.350 -999999.0 
    16.400    27.900    10.500 -999999.0  -999999.0    361.300    10.380     7.290 -999999.0 
    16.450    27.590    10.500 -999999.0  -999999.0    361.300    10.380     7.100 -999999.0 
    16.500    27.010    10.500 -999999.0  -999999.0    361.500    10.380     7.030 -999999.0 
    16.550    26.550    10.500 -999999.0  -999999.0    361.600    10.390     7.010 -999999.0 
    16.600    26.460    10.500 -999999.0  -999999.0    362.100    10.390     7.010 -999999.0 
    16.650    26.670    10.500 -999999.0  -999999.0    363.100    10.390     7.010 -999999.0 
    16.700    26.940    10.500 -999999.0  -999999.0    366.200    10.390     7.060 -999999.0 
    16.750    27.380    10.500 -999999.0  -999999.0    369.300    10.400     7.090 -999999.0 
    16.800    27.630    10.500 -999999.0  -999999.0    372.400    10.400     7.100 -999999.0 
    16.850    27.960    10.510 -999999.0  -999999.0    375.400    10.400     7.180 -999999.0 
    16.900    28.420    10.510 -999999.0  -999999.0    361.200    10.400     7.350 -999999.0 
