~Version Information
 VERS.                2.0:  CWLS LOG ASCII STANDARD -VERSION 2.0
 WRAP.                 NO:  ONE LINE PER DEPTH STEP
~WELL INFORMATION BLOCK
#MNEM.UNIT       DATA		            DESCRIPTION OF MNEMONIC
#---------    -------------            ------------------------
 STRT.M      .150                        :START DEPTH
 STOP.M   #######                        :STOP DEPTH
 STEP.M      .050                        :STEP
 NULL.    -999999.0                      :NULL VALUE
 COMP.       SOFTDR                      :COMPANY
 WELL.                          B62B0927 :WELL
 FLD .    Heerlen                        :FIELD
 CNTY.                                   :COUNTY
 STAT.                                   :STATE
 SRVC.                                   :SERVICE COMPANY
 DATE.     29-MAY-97                     :LOG DATE
 UWI .                                   :UNIQUE WELL ID
 LIC .                                   :LICENSE NUMBER
~Curve Information Block
#MNEM.UNIT      API CODE     Curve Description
#---------    -------------  ------------------------
DEPTH    .M         00 000 00 00          :  1  DEPTH
GAM(NAT) .CPS       00 000 00 00          :  2  GAM(NAT)
SP       .V         00 000 00 00          :  3  SP
RES(16N) .OHM.M     00 000 00 00          :  4  RES(16N)
RES(64N) .OHM.M     00 000 00 00          :  5  RES(64N)
RES      .OHM       00 000 00 00          :  6  RES
~Parameter Information Block
#MNEM.UNIT   Information     Description
#---------- ---------------  ------------------------
 FILE.                         :File Type
 FIID.                         :File Type Identifier
 VERS.                         :System Version
 SER .                         :System Serial Number
 TRUK.                         :Truck Calibration Number
 TOOL.                         :Tool Serial Number
 TIME.                         :Time    HrHrMinMin
 LAT .                         :Latitude
 LON .                         :Longitude
 LMF .            MV           :LOG Measured FROM
 DMF .                         :Driller Measured From
 PD  .                         :Permanent Data
 PDEV.                         :Elevation Permanent Data
 EKB .M                        :Elevation Kelly Bushing
 ELEV.DF                       :Elevation DF
 EGL .M                        :Elevation Ground Level
 DRDP.                         :Drillers Depth
 CASD.                         :Casing Diameter
 CASB.                         :Casing Bottom
 CASX.                         :Casing Type
 CAST.                         :Casing Thickness
 TNOC.                         :Time Circulation Stopped
 LOGU.                         :Logging Unit
 RECB.            Bergsma      :Recorded By
 OSR1.                         :Other Services
 OSR2.                         :Other Services
 OSR3.                         :Other Services
 BS  .MM                       :Bit Size
 MST .                         :Mean Surface Temperature
 TGRD.                         :Temperature Gradiant
 MAGN.                         :Magnetic Declination
 MDEN.                         :Density Matrix
 MATR.                         :Neutron Matrix
 DTMT.                         :Delta T Matrix
 DTFL.                         :Delta T Fluid
 MUDS.                         :Mud Sample Source
 MRS .                         :Mud Resistivity
 MTP .                         :Mud Temperature
 MFRS.                         :Resistivity Mud Filtrate
 MFTP.                         :Temperature Mud Filtrate
 MCRS.                         :Resistivity Mud Cake
 MCTP.                         :Temperature Mud Cake
 FTYP.                         :Fluid Type
 FD  .K/M3                     :Fluid Density
 DFV .S                        :Fluid Viscosity
 FPH .                         :Fuild PH
 ELCO.                         :Electron Cutoff
~Other Information
#MNEM.UNIT  Information      Description
#---------- ---------------  ------------------------
# --------------------------
## COMMENTS    Top_Depth   Bot_Depth  LithCode  Lat    Long   Elev_Gl
##    Type of LithCode   Lithologie - 1970
##                    .15        3.55       62.00     
##                   3.55        5.50        2.00     
##                   5.50        8.70       26.00     
##                   8.70       15.10       63.00     
##                  15.10       19.15       26.00     
##                  19.15       20.70       43.00     
##                  20.70       22.60       26.00     
##                  22.60       30.05       63.00     
##                  30.05       30.85       26.00     
##                  30.85       52.70       63.00     
##                  52.70       54.00       26.00     
##                  54.00       58.15       63.00     
##                  58.15       59.85       26.00     
##                  59.85       66.75       63.00     
##                  66.75       70.35       26.00     
##                  70.35       72.25       63.00     
##                  72.25       73.10       26.00     
##                  73.10       74.40       63.00     
##                  74.40       75.15       26.00     
##                  75.15       75.95       63.00     
##                  75.95       76.75       26.00     
##                  76.75       77.40       63.00     
##                  77.40       78.20       26.00     
##                  78.20       79.70       63.00     
##                  79.70       80.75       26.00     
##                  80.75       81.70       58.00     
##                  81.70       83.15       26.00     
##                  83.15       84.95       58.00     
##                  84.95       87.35       22.00     
##                  87.35       88.60       23.00     
##                  88.60       89.30       58.00     
##                  89.30       91.10       23.00     
##                  91.10       92.35       58.00     
##                  92.35       94.30       23.00     
##                  94.30       99.05       26.00     
##                  99.05      100.50       23.00     
##                 100.50      103.10       26.00     
##                 103.10      105.80       40.00     
##                 105.80      107.05       43.00     
##                 107.05      110.35       57.00     
##                 110.35      112.35       15.00     
##                 112.35      116.10       63.00     
##                 116.10      120.45       32.00     
##                 120.45      121.95       63.00     
##                 121.95      122.70       12.00     
##                 122.70      124.70       15.00     
##                 124.70      127.95       19.00     
##                 127.95      129.55       58.00     
##                 129.55      130.60       38.00     
##                 130.60      132.70       57.00     
##                 132.70      133.60       59.00     
##                 133.60      135.20       57.00     
##                 135.20      135.85       59.00     
##                 135.85      136.50       57.00     
##                 136.50      137.30       58.00     
##    last_layer   137.3
##    Type of LithCode   Lithologie - 1970
##                   1.90        2.15       87.00     
##                   2.15        3.90       84.00     
##                   3.90        4.25       85.00     
##                   4.25       21.95         .00     
##                  21.95       22.35       87.00     
##                  22.35       24.95       84.00     
##                  24.95       25.30       85.00     
##                  25.30       37.95         .00     
##                  37.95       38.25       87.00     
##                  38.25       40.95       84.00     
##                  40.95       41.20       85.00     
##                  41.20       42.00         .00     
##                  42.00       44.95       74.00     
##                  44.95       46.95         .00     
##                  46.95       47.25       87.00     
##                  47.25       50.90       84.00     
##                  50.90       51.20       85.00     
##                  51.20       59.95         .00     
##                  59.95       60.35       87.00     
##                  60.35       62.95       84.00     
##                  62.95       63.25       85.00     
##                  63.25       76.90         .00     
##                  76.90       77.15       87.00     
##                  77.15       80.00       84.00     
##                  80.00       80.35       85.00     
##                  80.35      106.95         .00     
##                 106.95      107.25       87.00     
##                 107.25      115.45       84.00     
##                 115.45      115.80       85.00     
##                 115.80      116.40         .00     
##                 116.40      117.40       77.00     
##                 117.40      119.40       80.00     
##                 119.40      120.45       77.00     
##                 120.45      121.90         .00     
##                 121.90      122.35       87.00     
##                 122.35      127.90       84.00     
##                 127.90      128.30       85.00     
##                 128.30      130.95         .00     
##                 130.95      131.25       87.00     
##                 131.25      133.95       84.00     
##                 133.95      134.15       85.00     
##    last_layer   134.15
# --------------------------
~A DEPTH    GAM(NAT) SP       RES(16N) RES(64N) RES      
# ...
   112.250    38.900      .050    22.600    27.100   211.700
   112.300    47.000      .050    22.500    27.100   203.000
   112.350    49.300      .050    22.200    27.000   189.800
   112.400    57.700      .050    22.100    26.900   182.400
   112.450    48.800      .050    22.100    26.900   180.800
   112.500    62.300      .050    21.500    26.800   179.500
   112.550    86.300      .051    20.900    26.800   178.600
   112.600    76.500      .052    20.500    27.100   177.000
   112.650    73.000      .053    20.300    27.400   174.900
   112.700    96.400      .053    20.200    27.800   172.900
   112.750    98.500      .053    20.200    28.200   172.000
   112.800    84.100      .053    20.000    28.600   171.800
   112.850    76.500      .053    19.800    29.000   172.400
   112.900   102.600      .053    19.600    29.500   173.100
   112.950   102.500      .053    19.500    29.900   174.000
   113.000   107.900      .052    19.400    30.400   174.900
   113.050    94.700      .051    19.300    30.800   175.900
   113.100    99.400      .051    19.200    31.000   176.600
   113.150   112.600      .050    19.200    31.000   177.400
   113.200    80.500      .050    19.200    30.900   179.300
   113.250    88.700      .051    19.200    30.800   181.200
   113.300   115.100      .051    19.400    30.700   182.400
   113.350    74.700      .051    19.600    30.600   182.500
   113.400    59.800      .051    19.900    30.600   182.000
   113.450    85.200      .052    20.200    30.500   181.500
   113.500    96.100      .052    20.500    30.300   181.000
   113.550    87.800      .053    20.600    30.100   179.900
   113.600    99.700      .053    20.800    29.900   178.600
   113.650    76.100      .054    20.900    29.800   177.900
   113.700    71.800      .055    20.900    29.700   176.900
   113.750    85.500      .055    20.900    29.600   176.800
   113.800    74.800      .055    20.900    29.500   176.800
   113.850    79.800      .056    20.800    29.500   176.600
   113.900   130.700      .056    20.900    29.600   176.600
   113.950    95.100      .056    21.000    29.700   177.400
   114.000    81.500      .056    21.100    29.900   177.500
   114.050    84.200      .057    21.300    30.100   176.900
   114.100    74.100      .056    21.500    30.300   177.200
   114.150    84.500      .056    21.700    30.500   177.800
   114.200    86.900      .055    21.800    30.600   178.300
   114.250    86.800      .054    21.800    30.800   179.200
   114.300    83.800      .053    21.800    31.000   179.600
   114.350   105.300      .053    21.800    31.100   180.300
   114.400   103.700      .053    21.800    31.300   180.900
   114.450    71.700      .053    22.000    31.500   182.700
   114.500    87.000      .052    22.200    31.600   184.200
   114.550    57.900      .052    22.400    31.800   184.900
   114.600    65.900      .052    22.900    32.000   185.000
   114.650    84.800      .053    23.300    32.300   184.700
   114.700    59.000      .053    23.700    32.500   183.800
   114.750    86.700      .054    23.900    32.700   182.900
   114.800    79.400      .054    24.200    33.200   182.200
   114.850    98.000      .054    24.300    33.600   182.000
   114.900   104.900      .053    24.400    34.000   181.700
   114.950   103.100      .053    24.400    34.300   181.500
   115.000   130.200      .054    24.500    34.700   181.400
   115.050   140.800      .054    24.600    35.100   181.500
   115.100   105.000      .053    24.800    35.500   181.700
   115.150   111.500      .053    25.000    36.000   181.700
   115.200   108.300      .053    25.300    36.500   181.900
   115.250   146.200      .053    25.600    37.000   182.400
   115.300   119.700      .053    25.800    37.400   182.700
   115.350   110.900      .053    26.200    37.800   182.700
   115.400   119.200      .053    27.000    38.100   182.800
   115.450    92.000      .052    27.900    38.200   182.900
   115.500   101.000      .052    28.700    38.300   182.800
   115.550    95.900      .052    29.600    38.300   182.400
   115.600   125.400      .052    30.500    38.400   182.400
   115.650   102.200      .051    31.400    38.400   183.400
   115.700    92.100      .050    32.300    38.400   185.700
   115.750   112.100      .050    33.500    38.400   188.700
   115.800    89.800      .049    35.000    38.500   192.400
   115.850    81.900      .049    36.800    38.500   196.300
   115.900    91.400      .048    38.900    38.500   200.500
   115.950    74.900      .048    41.000    38.600   204.000
   116.000    47.600      .047    43.700    38.600   207.000
   116.050    77.800      .047    46.700    38.700   210.800
   116.100    59.100      .046    49.700    38.700   216.300
   116.150    41.600      .046    53.200    38.800   222.100
   116.200    40.500      .046    57.200    38.800   228.900
   116.250    31.300      .045    61.500    38.900   234.300
   116.300    12.100      .045    66.300    38.900   238.400
   116.350    17.100      .044    72.400    39.000   243.100
   116.400    17.100      .044    79.000    39.100   246.800
   116.450    17.300      .043    85.000    39.300   249.400
   116.500     7.200      .043    90.500    39.600   251.000
   116.550    12.000      .043    95.400    40.000   252.400
   116.600    13.700      .042    99.600    40.500   253.600
   116.650    10.200      .042   103.400    41.300   255.100
   116.700    14.600      .042   106.700    42.200   255.700
   116.750     9.200      .042   109.300    43.100   255.900
   116.800    11.100      .041   111.800    44.200   256.900
   116.850    11.500      .041   114.100    45.600   258.900
   116.900    14.900      .041   116.100    47.300   260.500
   116.950     9.300      .041   117.800    49.300   261.200
   117.000     9.500      .041   119.500    51.400   261.500
   117.050    11.800      .041   121.000    53.700   261.900
   117.100     6.500      .041   122.100    56.100   262.800
   117.150    10.200      .041   123.000    58.300   263.500
   117.200    15.900      .041   123.600    60.200   263.900
   117.250    19.300      .041   123.700    61.900   264.200
   117.300     2.200      .041   123.500    63.300   264.300
   117.350     8.400      .041   122.900    64.600   264.600
   117.400     7.500      .041   121.900    65.900   265.000
   117.450     3.500      .041   120.600    67.100   265.300
   117.500    15.600      .041   119.100    68.100   265.200
   117.550    11.300      .041   117.600    69.100   264.800
   117.600     8.600      .041   116.100    70.000   263.800
   117.650    27.900      .041   114.600    70.900   262.500
   117.700    17.600      .041   113.200    71.700   260.800
   117.750    15.400      .041   111.800    72.500   258.700
   117.800     5.800      .042   110.600    73.200   256.300
   117.850    15.400      .042   109.300    74.000   253.300
   117.900     8.200      .042   108.000    74.600   250.300
   117.950     8.800      .042   106.500    75.200   249.400
   118.000    16.800      .043   104.900    75.700   250.300
   118.050    18.400      .043   103.600    76.200   248.800
   118.100    22.500      .043   103.100    76.500   247.100
   118.150     8.600      .043   102.900    76.900   246.700
   118.200    11.800      .043   102.500    77.200   246.000
   118.250    17.600      .043   102.400    77.500   245.300
   118.300    20.500      .043   102.800    77.600   245.400
   118.350    10.800      .043   103.400    77.700   244.400
   118.400    20.000      .043   104.600    77.500   246.100
   118.450    19.000      .043   105.900    77.200   248.200
   118.500    14.100      .043   107.700    76.800   250.400
   118.550    11.700      .043   109.800    76.200   252.700
   118.600    13.300      .043   111.600    75.600   252.900
   118.650    10.900      .042   113.700    74.800   253.200
   118.700     5.600      .042   115.500    74.000   254.100
   118.750     5.400      .042   117.200    73.100   255.300
   118.800    11.000      .042   118.600    72.100   257.600
