~Version Information
 VERS.                2.0:  CWLS LOG ASCII STANDARD -VERSION 2.0
 WRAP.                 NO:  ONE LINE PER DEPTH STEP
~WELL INFORMATION BLOCK
#MNEM.UNIT       DATA		            DESCRIPTION OF MNEMONIC
#---------    -------------            ------------------------
 STRT.M      .000                        :START DEPTH
 STOP.M    99.850                        :STOP DEPTH
 STEP.M      .050                        :STEP
 NULL.    -999999.0                      :NULL VALUE
 COMP.       WML                         :COMPANY
 WELL.                          B62B0901 :WELL
 FLD .    Klimmen                        :FIELD
 CNTY.                                   :COUNTY
 STAT.                                   :STATE
 SRVC.                                   :SERVICE COMPANY
 DATE.     17-JAN-92                     :LOG DATE
 UWI .                                   :UNIQUE WELL ID
 LIC .                                   :LICENSE NUMBER
~Curve Information Block
#MNEM.UNIT      API CODE     Curve Description
#---------    -------------  ------------------------
DEPTH    .M         00 000 00 00          :  1  DEPTH
SN40     .OHM.M     00 000 00 00          :  2  SN40
SP       .V         00 000 00 00          :  3  SP
CAL      .MM        00 000 00 00          :  4  CAL
LN160    .OHM.M     00 000 00 00          :  5  LN160
GAMMA    .CPS       00 000 00 00          :  6  GAMMA
~Parameter Information Block
#MNEM.UNIT   Information     Description
#---------- ---------------  ------------------------
 FILE.                         :File Type
 FIID.                         :File Type Identifier
 VERS.                         :System Version
 SER .                         :System Serial Number
 TRUK.                         :Truck Calibration Number
 TOOL.                         :Tool Serial Number
 TIME.                         :Time    HrHrMinMin
 LAT .                         :Latitude
 LON .                         :Longitude
 LMF .            MV           :LOG Measured FROM
 DMF .                         :Driller Measured From
 PD  .                         :Permanent Data
 PDEV.                         :Elevation Permanent Data
 EKB .M                        :Elevation Kelly Bushing
 ELEV.DF                       :Elevation DF
 EGL .M                        :Elevation Ground Level
 DRDP.                         :Drillers Depth
 CASD.                         :Casing Diameter
 CASB.                         :Casing Bottom
 CASX.                         :Casing Type
 CAST.                         :Casing Thickness
 TNOC.                         :Time Circulation Stopped
 LOGU.                         :Logging Unit
 RECB.            Bergsma      :Recorded By
 OSR1.                         :Other Services
 OSR2.                         :Other Services
 OSR3.                         :Other Services
 BS  .MM                       :Bit Size
 MST .                         :Mean Surface Temperature
 TGRD.                         :Temperature Gradiant
 MAGN.                         :Magnetic Declination
 MDEN.                         :Density Matrix
 MATR.                         :Neutron Matrix
 DTMT.                         :Delta T Matrix
 DTFL.                         :Delta T Fluid
 MUDS.                         :Mud Sample Source
 MRS .                         :Mud Resistivity
 MTP .                         :Mud Temperature
 MFRS.                         :Resistivity Mud Filtrate
 MFTP.                         :Temperature Mud Filtrate
 MCRS.                         :Resistivity Mud Cake
 MCTP.                         :Temperature Mud Cake
 FTYP.                         :Fluid Type
 FD  .K/M3                     :Fluid Density
 DFV .S                        :Fluid Viscosity
 FPH .                         :Fuild PH
 ELCO.                         :Electron Cutoff
~Other Information
#MNEM.UNIT  Information      Description
#---------- ---------------  ------------------------
# --------------------------
## COMMENTS    Top_Depth   Bot_Depth  LithCode  Lat    Long   Elev_Gl
##    Type of LithCode   Lithologie - 1970
##                    .00         .30        7.00     
##                    .35        4.60       11.00     
##                   4.65       77.95         .00     
##                  78.00       88.95        7.00     
##                  89.00       99.05       10.00     
##                  99.10       99.10         .00     
##    last_layer   99.1
# --------------------------
~A DEPTH    SN40     SP       CAL      LN160    GAMMA    
# ...
    57.400    26.030      .022   247.000    19.560    11.890
    57.450    24.440      .022   246.000    19.060    11.690
    57.500    23.720      .022   243.800    18.740    11.540
    57.550    23.910      .023   243.100    18.470    11.370
    57.600    24.590      .023   246.900    18.480    11.320
    57.650    27.250      .023   250.400    18.560    11.580
    57.700    31.100      .024   250.800    18.650    11.790
    57.750    35.880      .024   245.900    18.700    12.010
    57.800    36.580      .024   245.600    18.740    12.320
    57.850    37.490      .024   246.300    18.750    12.360
    57.900    37.310      .024   246.100    18.750    12.310
    57.950    35.810      .024   244.400    18.750    12.200
    58.000    32.710      .024   243.600    18.790    11.980
    58.050    29.860      .024   243.300    18.820    11.790
    58.100    28.880      .024   243.500    18.900    11.270
    58.150    26.600      .024   242.300    19.010    11.200
    58.200    26.520      .024   240.200    19.090    11.430
    58.250    27.130      .024   240.200    19.290    11.730
    58.300    28.280      .024   241.000    19.540    12.050
    58.350    32.990      .024   241.700    19.850    12.150
    58.400    33.520      .024   241.100    20.090    12.400
    58.450    33.690      .024   240.600    20.230    12.670
    58.500    33.720      .024   241.600    20.310    12.900
    58.550    33.580      .024   242.900    20.370    13.040
    58.600    33.260      .024   244.000    20.450    13.230
    58.650    32.550      .023   245.500    20.530    13.250
    58.700    31.530      .023   251.500    20.620    13.150
    58.750    30.770      .023   250.900    20.690    12.960
    58.800    30.050      .023   249.500    20.910    12.400
    58.850    29.300      .023   247.800    21.220    12.370
    58.900    28.390      .024   245.900    21.520    12.500
    58.950    27.850      .024   243.500    21.930    12.910
    59.000    26.750      .024   241.200    22.180    12.900
    59.050    25.900      .024   242.000    22.280    12.830
    59.100    26.070      .024   243.000    22.350    12.770
    59.150    27.130      .025   242.600    22.340    12.790
    59.200    28.440      .025   242.000    22.190    12.840
    59.250    33.090      .026   241.600    22.020    13.410
    59.300    33.520      .026   242.300    21.830    13.640
    59.350    33.420      .026   243.700    21.640    14.170
    59.400    32.920      .026   243.700    21.430    14.190
    59.450    32.320      .026   242.400    21.420    14.120
    59.500    32.170      .026   241.400    21.600    13.940
    59.550    32.140      .026   240.200    22.350    13.640
    59.600    32.100      .026   240.000    22.960    13.490
    59.650    31.990      .026   241.100    23.620    13.420
    59.700    31.710      .026   242.400    24.210    13.230
    59.750    30.980      .026   242.800    24.700    12.940
    59.800    29.970      .025   242.800    25.160    12.880
    59.850    29.480      .025   242.000    25.360    13.120
    59.900    29.310      .025   240.800    25.470    13.420
    59.950    29.380      .025   240.800    25.500    13.660
    60.000    29.570      .025   241.800    25.360    13.810
    60.050    29.770      .025   243.100    24.460    14.560
    60.100    30.130      .025   243.300    23.900    14.710
    60.150    29.960      .025   241.800    23.220    14.830
    60.200    29.010      .025   241.000    22.560    14.950
    60.250    28.090      .025   241.400    21.950    14.980
    60.300    27.310      .025   241.200    21.460    14.910
    60.350    27.360      .025   239.800    21.150    14.790
    60.400    29.090      .025   239.600    20.930    14.450
    60.450    30.920      .025   240.200    20.750    14.620
    60.500    31.680      .025   241.400    20.880    15.510
    60.550    31.970      .025   243.100    21.230    16.430
    60.600    31.830      .025   244.400    21.640    16.850
    60.650    30.820      .025   244.600    22.410    17.020
    60.700    29.660      .025   244.100    22.930    17.100
    60.750    28.410      .025   241.700    23.370    17.120
    60.800    26.580      .025   239.400    23.900    17.020
    60.850    25.150      .025   239.600    24.310    16.900
    60.900    23.510      .025   241.000    24.770    16.610
    60.950    22.760      .025   241.400    25.310    17.210
    61.000    22.520      .025   241.200    25.710    17.480
    61.050    22.510      .025   241.300    26.490    17.730
    61.100    22.720      .025   241.600    27.860    18.180
    61.150    23.100      .025   243.400    28.570    18.600
    61.200    23.620      .025   246.900    29.230    19.010
    61.250    24.250      .025   248.300    29.930    19.480
    61.300    25.650      .025   248.300    30.200    20.370
    61.350    27.080      .024   247.200    30.640    20.850
    61.400    28.060      .024   246.900    30.960    21.070
    61.450    28.670      .024   247.500    31.720    21.000
    61.500    28.980      .024   247.900    32.400    19.900
    61.550    29.500      .024   247.200    33.090    18.980
    61.600    29.790      .024   244.900    33.830    18.500
    61.650    30.520      .024   244.000    34.580    17.590
    61.700    31.570      .024   243.500    35.160    16.580
    61.750    32.310      .024   243.000    36.010    15.240
    61.800    33.090      .024   242.700    36.500    14.100
    61.850    34.810      .024   241.600    36.880    13.710
    61.900    35.590      .024   240.100    37.280    12.540
    61.950    36.620      .024   239.600    37.320    12.260
    62.000    37.530      .024   239.700    37.030    12.180
    62.050    38.770      .024   240.000    36.560    12.050
    62.100    39.820      .024   240.200    36.010    11.810
    62.150    42.670      .024   240.100    35.600    11.610
    62.200    43.300      .024   240.100    35.240    11.500
    62.250    43.370      .024   240.100    34.710    11.730
    62.300    43.350      .024   240.100    34.230    11.920
    62.350    43.420      .024   240.200    33.840    12.110
    62.400    43.550      .024   240.200    33.560    12.350
    62.450    43.810      .024   240.200    33.460    12.480
    62.500    44.110      .024   240.200    33.590    12.660
    62.550    44.330      .024   240.700    33.850    13.850
    62.600    44.500      .024   240.900    34.210    14.190
    62.650    43.850      .024   240.400    34.490    14.450
    62.700    42.560      .023   240.000    35.070    14.470
    62.750    39.360      .023   239.800    35.600    14.490
    62.800    37.240      .023   239.700    36.020    14.840
    62.850    36.100      .023   239.800    36.590    15.230
    62.900    35.080      .023   240.200    37.140    15.960
    62.950    34.460      .023   240.600    37.630    16.480
    63.000    34.980      .023   241.100    38.130    16.780
    63.050    36.170      .023   241.900    38.700    17.150
    63.100    38.250      .023   242.800    39.110    18.180
    63.150    41.340      .023   243.300    39.590    18.500
    63.200    42.370      .023   245.600    40.510    18.690
    63.250    43.200      .023   248.100    41.830    18.700
    63.300    44.100      .022   250.000    42.800    18.340
    63.350    44.660      .022   246.300    43.460    18.430
    63.400    45.100      .022   244.400    43.930    18.640
    63.450    45.560      .022   243.400    44.360    18.470
    63.500    46.000      .022   241.700    44.870    18.280
    63.550    46.480      .022   239.600    45.440    17.950
    63.600    47.020      .022   239.000    45.900    17.580
    63.650    47.660      .022   238.500    46.790    17.410
    63.700    48.380      .022   238.800    47.470    17.350
    63.750    49.000      .022   239.300    47.820    17.220
    63.800    50.150      .022   240.100    48.150    17.000
    63.850    51.410      .022   241.200    48.260    16.360
    63.900    51.830      .022   242.200    48.340    15.760
    63.950    52.010      .022   242.200    48.340    15.530
