~Version Information
 VERS.                2.0:  CWLS LOG ASCII STANDARD -VERSION 2.0
 WRAP.                 NO:  ONE LINE PER DEPTH STEP
~WELL INFORMATION BLOCK
#MNEM.UNIT       DATA		            DESCRIPTION OF MNEMONIC
#---------    -------------            ------------------------
 STRT.M      .000                        :START DEPTH
 STOP.M    68.050                        :STOP DEPTH
 STEP.M      .050                        :STEP
 NULL.    -999999.0                      :NULL VALUE
 COMP.       WML                         :COMPANY
 WELL.                          B62B0903 :WELL
 FLD .    Nuth                           :FIELD
 CNTY.                                   :COUNTY
 STAT.                                   :STATE
 SRVC.                                   :SERVICE COMPANY
 DATE.     13-APR-92                     :LOG DATE
 UWI .                                   :UNIQUE WELL ID
 LIC .                                   :LICENSE NUMBER
~Curve Information Block
#MNEM.UNIT      API CODE     Curve Description
#---------    -------------  ------------------------
DEPTH    .M         00 000 00 00          :  1  DEPTH
GAMMA    .CPS       00 000 00 00          :  2  GAMMA
SN40     .OHM.M     00 000 00 00          :  3  SN40
CAL      .MM        00 000 00 00          :  4  CAL
SP       .V         00 000 00 00          :  5  SP
LN160    .OHM.M     00 000 00 00          :  6  LN160
~Parameter Information Block
#MNEM.UNIT   Information     Description
#---------- ---------------  ------------------------
 FILE.                         :File Type
 FIID.                         :File Type Identifier
 VERS.                         :System Version
 SER .                         :System Serial Number
 TRUK.                         :Truck Calibration Number
 TOOL.                         :Tool Serial Number
 TIME.                         :Time    HrHrMinMin
 LAT .                         :Latitude
 LON .                         :Longitude
 LMF .            MV           :LOG Measured FROM
 DMF .                         :Driller Measured From
 PD  .                         :Permanent Data
 PDEV.                         :Elevation Permanent Data
 EKB .M                        :Elevation Kelly Bushing
 ELEV.DF                       :Elevation DF
 EGL .M                        :Elevation Ground Level
 DRDP.                         :Drillers Depth
 CASD.                         :Casing Diameter
 CASB.                         :Casing Bottom
 CASX.                         :Casing Type
 CAST.                         :Casing Thickness
 TNOC.                         :Time Circulation Stopped
 LOGU.                         :Logging Unit
 RECB.            Bergsma      :Recorded By
 OSR1.                         :Other Services
 OSR2.                         :Other Services
 OSR3.                         :Other Services
 BS  .MM                       :Bit Size
 MST .                         :Mean Surface Temperature
 TGRD.                         :Temperature Gradiant
 MAGN.                         :Magnetic Declination
 MDEN.                         :Density Matrix
 MATR.                         :Neutron Matrix
 DTMT.                         :Delta T Matrix
 DTFL.                         :Delta T Fluid
 MUDS.                         :Mud Sample Source
 MRS .                         :Mud Resistivity
 MTP .                         :Mud Temperature
 MFRS.                         :Resistivity Mud Filtrate
 MFTP.                         :Temperature Mud Filtrate
 MCRS.                         :Resistivity Mud Cake
 MCTP.                         :Temperature Mud Cake
 FTYP.                         :Fluid Type
 FD  .K/M3                     :Fluid Density
 DFV .S                        :Fluid Viscosity
 FPH .                         :Fuild PH
 ELCO.                         :Electron Cutoff
~Other Information
#MNEM.UNIT  Information      Description
#---------- ---------------  ------------------------
# --------------------------
## COMMENTS    Top_Depth   Bot_Depth  LithCode  Lat    Long   Elev_Gl
##    Type of LithCode   Lithologie - 1970
##                    .00        5.00         .00     
##                   5.05        6.80       10.00     
##                   6.85        8.00       11.00     
##                   8.05       11.00       10.00     
##                  11.05       15.00       12.00     
##                  15.05       17.00       10.00     
##                  17.05       18.40       12.00     
##                  18.45       23.00       10.00     
##                  23.05       25.40       12.00     
##                  25.45       28.00        6.00     
##                  28.05       28.35       19.00     
##                  28.40       30.00       11.00     
##                  30.05       31.00       12.00     
##                  31.05       34.00       11.00     
##                  34.05       38.90        6.00     
##                  38.95       40.80       23.00     
##                  40.85       47.45        6.00     
##                  47.50       52.00       21.00     
##                  52.05       60.00       22.00     
##                  60.05       68.00       23.00     
##                  68.05       68.05         .00     
##    last_layer   68.05
# --------------------------
~A DEPTH    GAMMA    SN40     CAL      SP       LN160    
# ...
    19.750    12.590    31.780   518.500      .019    39.860
    19.800    12.780    31.720   519.500      .019    40.070
    19.850    12.920    31.600   521.600      .019    40.310
    19.900    13.090    31.480   522.300      .019    40.510
    19.950    13.310    31.340   521.800      .019    40.760
    20.000    13.580    31.200   519.900      .019    40.980
    20.050    13.710    31.070   519.100      .019    41.230
    20.100    13.530    30.970   518.800      .019    41.490
    20.150    13.250    30.950   518.500      .019    41.700
    20.200    13.410    30.940   517.600      .019    41.970
    20.250    13.650    30.920   513.700      .019    42.200
    20.300    13.850    30.960   508.600      .019    42.430
    20.350    14.050    31.020   512.700      .019    42.580
    20.400    14.040    31.130   514.200      .019    42.720
    20.450    13.930    31.240   514.700      .019    42.840
    20.500    13.820    31.340   515.100      .019    42.950
    20.550    13.480    31.450   515.100      .019    43.050
    20.600    13.340    31.530   515.700      .019    43.160
    20.650    13.270    31.570   516.800      .019    43.220
    20.700    13.370    31.580   515.900      .019    43.270
    20.750    13.900    31.580   516.400      .019    43.310
    20.800    14.190    31.580   518.000      .019    43.320
    20.850    14.950    31.590   510.200      .019    43.340
    20.900    15.050    31.630   504.600      .019    43.330
    20.950    14.800    31.670   501.400      .019    43.310
    21.000    14.300    31.760   500.700      .019    43.300
    21.050    13.840    31.880   504.600      .019    43.270
    21.100    14.160    31.990   495.200      .019    43.240
    21.150    14.550    32.090   489.600      .019    43.200
    21.200    14.970    32.210   487.200      .019    43.130
    21.250    15.020    32.330   490.400      .019    43.070
    21.300    15.040    32.490   493.800      .019    43.000
    21.350    15.050    32.620   498.000      .019    42.910
    21.400    15.070    32.750   495.600      .019    42.820
    21.450    15.130    32.880   485.600      .019    42.730
    21.500    15.180    33.020   488.300      .019    42.630
    21.550    15.460    33.170   486.900      .019    42.510
    21.600    15.560    33.330   487.000      .018    42.400
    21.650    15.490    33.470   486.100      .018    42.270
    21.700    15.210    33.620   488.500      .018    42.140
    21.750    14.980    33.740   481.500      .018    41.990
    21.800    14.920    33.810   484.700      .018    41.830
    21.850    14.780    33.830   484.800      .018    41.670
    21.900    14.640    33.820   484.500      .018    41.500
    21.950    14.410    33.810   483.600      .018    41.340
    22.000    13.830    33.750   487.700      .018    41.210
    22.050    13.230    33.640   486.400      .018    40.950
    22.100    12.580    33.530   490.300      .018    40.720
    22.150    12.290    33.350   489.400      .018    40.380
    22.200    12.340    33.180   488.400      .018    40.110
    22.250    12.450    32.990   492.300      .018    39.760
    22.300    12.700    32.760   490.200      .018    39.570
    22.350    12.880    32.520   492.200      .018    39.420
    22.400    13.240    32.300   492.100      .018    39.330
    22.450    13.530    32.040   493.200      .018    39.300
    22.500    13.760    31.760   496.500      .018    39.270
    22.550    13.780    31.450   494.000      .018    39.280
    22.600    13.690    31.140   486.600      .018    39.280
    22.650    13.600    30.730   490.600      .018    39.310
    22.700    13.320    30.280   492.600      .018    39.340
    22.750    13.390    29.770   491.800      .018    39.390
    22.800    13.790    29.220   490.000      .018    39.460
    22.850    14.810    28.760   492.200      .018    39.570
    22.900    15.190    27.960   492.200      .018    39.700
    22.950    15.740    27.040   493.200      .018    39.850
    23.000    15.860    26.440   496.400      .019    40.010
    23.050    15.970    25.950   499.000      .019    40.170
    23.100    16.180    25.560   502.900      .019    40.340
    23.150    16.340    25.290   503.500      .019    40.510
    23.200    16.440    24.860   497.600      .019    40.660
    23.250    16.540    24.480   493.300      .019    40.770
    23.300    16.690    24.310   489.500      .019    40.850
    23.350    17.000    24.140   485.100      .020    40.920
    23.400    17.340    24.050   479.200      .020    40.960
    23.450    17.780    24.020   482.100      .020    40.990
    23.500    17.990    23.990   489.300      .020    41.000
    23.550    17.550    24.030   499.200      .020    40.980
    23.600    17.370    24.070   500.900      .020    40.960
    23.650    17.600    24.220   501.200      .020    40.930
    23.700    17.710    24.360   500.500      .020    40.870
    23.750    17.700    24.560   499.700      .020    40.810
    23.800    17.670    24.730   499.300      .020    40.760
    23.850    17.410    25.180   498.900      .020    40.700
    23.900    17.280    25.490   497.700      .020    40.610
    23.950    17.200    25.830   497.000      .020    40.490
    24.000    17.190    26.180   496.700      .019    40.360
    24.050    17.310    26.620   496.600      .019    40.270
    24.100    17.430    27.000   496.300      .019    40.210
    24.150    17.540    27.330   495.400      .019    40.160
    24.200    17.270    27.570   494.600      .019    40.160
    24.250    16.990    27.770   493.900      .019    40.170
    24.300    16.770    27.930   493.300      .019    40.230
    24.350    16.670    28.010   493.400      .019    40.310
    24.400    16.550    28.020   493.800      .019    40.400
    24.450    16.140    28.040   493.600      .019    40.500
    24.500    15.880    28.080   492.100      .018    40.620
    24.550    16.030    28.110   490.400      .018    40.790
    24.600    16.040    28.130   490.100      .018    40.950
    24.650    15.430    28.200   490.800      .018    41.090
    24.700    15.090    28.290   493.500      .018    41.200
    24.750    14.430    28.490   490.600      .018    41.440
    24.800    14.040    28.730   492.600      .018    41.660
    24.850    13.950    29.160   496.000      .018    41.880
    24.900    14.210    29.820   496.800      .018    42.100
    24.950    14.260    30.680   497.200      .018    42.370
    25.000    14.030    31.600   497.900      .018    42.590
    25.050    13.360    32.760   497.200      .018    42.770
    25.100    13.120    33.530   492.800      .018    43.040
    25.150    12.580    34.880   484.600      .018    43.200
    25.200    12.260    35.880   482.600      .017    43.460
    25.250    11.540    36.890   481.900      .017    43.720
    25.300    11.120    38.430   482.000      .017    43.960
    25.350    10.590    39.520   484.300      .017    44.180
    25.400     9.480    41.650   487.600      .016    44.390
    25.450     8.930    43.030   489.700      .016    44.590
    25.500     8.760    44.530   491.100      .016    44.790
    25.550     8.630    45.850   492.500      .016    45.010
    25.600     8.440    46.610   494.200      .016    45.250
    25.650     8.180    47.200   494.300      .016    45.670
    25.700     8.050    47.570   494.000      .016    46.140
    25.750     8.070    47.890   494.000      .016    47.010
    25.800     8.420    48.060   494.500      .016    47.380
    25.850     8.570    48.140   495.200      .016    48.630
    25.900     8.690    48.120   495.800      .016    50.000
    25.950     8.660    48.060   497.000      .016    51.100
    26.000     8.480    47.870   497.800      .016    52.800
    26.050     8.160    47.700   498.400      .016    53.290
    26.100     8.000    47.650   498.600      .016    54.280
    26.150     8.010    47.630   498.200      .016    54.850
    26.200     8.130    47.650   497.800      .016    55.270
    26.250     8.510    47.670   497.000      .017    55.580
    26.300     8.810    47.700   496.300      .017    55.800
