~Version Information
 VERS.                2.0:  CWLS LOG ASCII STANDARD -VERSION 2.0
 WRAP.                 NO:  ONE LINE PER DEPTH STEP
~WELL INFORMATION BLOCK
#MNEM.UNIT       DATA		            DESCRIPTION OF MNEMONIC
#---------    -------------            ------------------------
 STRT.M      .000                        :START DEPTH
 STOP.M    79.950                        :STOP DEPTH
 STEP.M      .050                        :STEP
 NULL.    -999999.0                      :NULL VALUE
 COMP.       WML                         :COMPANY
 WELL.                          B62B0898 :WELL
 FLD .    Voerendaal                     :FIELD
 CNTY.                                   :COUNTY
 STAT.                                   :STATE
 SRVC.                                   :SERVICE COMPANY
 DATE.     17-NOV-90                     :LOG DATE
 UWI .                                   :UNIQUE WELL ID
 LIC .                                   :LICENSE NUMBER
~Curve Information Block
#MNEM.UNIT      API CODE     Curve Description
#---------    -------------  ------------------------
DEPTH    .M         00 000 00 00          :  1  DEPTH
UFLOW    .M/S       00 000 00 00          :  2  UFLOW
TEMP     .DEGC      00 000 00 00          :  3  TEMP
SN40     .OHM.M     00 000 00 00          :  4  SN40
SP       .V         00 000 00 00          :  5  SP
CAL      .MM        00 000 00 00          :  6  CAL
TEMP     .DEGC      00 000 00 00          :  7  TEMP
GAMMA    .CPS       00 000 00 00          :  8  GAMMA
LN160    .OHM.M     00 000 00 00          :  9  LN160
~Parameter Information Block
#MNEM.UNIT   Information     Description
#---------- ---------------  ------------------------
 FILE.                         :File Type
 FIID.                         :File Type Identifier
 VERS.                         :System Version
 SER .                         :System Serial Number
 TRUK.                         :Truck Calibration Number
 TOOL.                         :Tool Serial Number
 TIME.                         :Time    HrHrMinMin
 LAT .                         :Latitude
 LON .                         :Longitude
 LMF .            MV           :LOG Measured FROM
 DMF .                         :Driller Measured From
 PD  .                         :Permanent Data
 PDEV.                         :Elevation Permanent Data
 EKB .M                        :Elevation Kelly Bushing
 ELEV.DF                       :Elevation DF
 EGL .M                        :Elevation Ground Level
 DRDP.                         :Drillers Depth
 CASD.                         :Casing Diameter
 CASB.                         :Casing Bottom
 CASX.                         :Casing Type
 CAST.                         :Casing Thickness
 TNOC.                         :Time Circulation Stopped
 LOGU.                         :Logging Unit
 RECB.            Veenendaal   :Recorded By
 OSR1.                         :Other Services
 OSR2.                         :Other Services
 OSR3.                         :Other Services
 BS  .MM                       :Bit Size
 MST .                         :Mean Surface Temperature
 TGRD.                         :Temperature Gradiant
 MAGN.                         :Magnetic Declination
 MDEN.                         :Density Matrix
 MATR.                         :Neutron Matrix
 DTMT.                         :Delta T Matrix
 DTFL.                         :Delta T Fluid
 MUDS.                         :Mud Sample Source
 MRS .                         :Mud Resistivity
 MTP .                         :Mud Temperature
 MFRS.                         :Resistivity Mud Filtrate
 MFTP.                         :Temperature Mud Filtrate
 MCRS.                         :Resistivity Mud Cake
 MCTP.                         :Temperature Mud Cake
 FTYP.                         :Fluid Type
 FD  .K/M3                     :Fluid Density
 DFV .S                        :Fluid Viscosity
 FPH .                         :Fuild PH
 ELCO.                         :Electron Cutoff
~Other Information
#MNEM.UNIT  Information      Description
#---------- ---------------  ------------------------
# --------------------------
## COMMENTS    Top_Depth   Bot_Depth  LithCode  Lat    Long   Elev_Gl
##    Type of LithCode   Lithologie - 1970
##                    .00         .80         .00     
##                    .85        2.25       19.00     
##                   2.30        6.15       12.00     
##                   6.20       28.50        7.00     
##                  28.55       40.50        9.00     
##                  40.55       74.60         .00     
##                  74.65       78.00       10.00     
##                  78.05       78.05         .00     
##    last_layer   78.05
# --------------------------
~A DEPTH    UFLOW    TEMP     SN40     SP       CAL      TEMP     GAMMA    LN160    
# ...
    29.850    25.180    10.360 -999999.0  -999999.0    361.000    10.830     8.530 -999999.0 
    29.900    25.310    10.360 -999999.0  -999999.0    361.000    10.840     8.360 -999999.0 
    29.950    25.440    10.360 -999999.0  -999999.0    361.000    10.840     8.140 -999999.0 
    30.000    25.460    10.360 -999999.0  -999999.0    361.000    10.840     7.960 -999999.0 
    30.050    25.480    10.360 -999999.0  -999999.0    360.900    10.840     7.900 -999999.0 
    30.100    25.550    10.360 -999999.0  -999999.0    360.800    10.840     7.900 -999999.0 
    30.150    25.620    10.360 -999999.0  -999999.0    360.700    10.840     7.890 -999999.0 
    30.200    25.880    10.360 -999999.0  -999999.0    360.700    10.840     7.780 -999999.0 
    30.250    26.210    10.360 -999999.0  -999999.0    360.900    10.840     7.700 -999999.0 
    30.300    26.580    10.360 -999999.0  -999999.0    360.800    10.840     7.540 -999999.0 
    30.350    26.850    10.350 -999999.0  -999999.0    360.800    10.840     7.430 -999999.0 
    30.400    27.040    10.350 -999999.0  -999999.0    360.800    10.840     7.430 -999999.0 
    30.450    27.270    10.350 -999999.0  -999999.0    360.800    10.840     7.510 -999999.0 
    30.500    27.610    10.350 -999999.0  -999999.0    360.800    10.840     7.660 -999999.0 
    30.550    27.670    10.340 -999999.0  -999999.0    360.800    10.850     7.760 -999999.0 
    30.600    27.310    10.340 -999999.0  -999999.0    360.700    10.850     7.800 -999999.0 
    30.650    26.960    10.340 -999999.0  -999999.0    360.700    10.850     7.790 -999999.0 
    30.700    26.790    10.340 -999999.0  -999999.0    360.800    10.850     7.800 -999999.0 
    30.750    26.790    10.350 -999999.0  -999999.0    360.800    10.850     7.840 -999999.0 
    30.800    26.840    10.350 -999999.0  -999999.0    360.800    10.850     7.910 -999999.0 
    30.850    26.820    10.350 -999999.0  -999999.0    361.000    10.850     7.990 -999999.0 
    30.900    26.730    10.350 -999999.0  -999999.0    361.400    10.850     8.090 -999999.0 
    30.950    26.790    10.350 -999999.0  -999999.0    362.200    10.850     8.270 -999999.0 
    31.000    27.000    10.350 -999999.0  -999999.0    363.600    10.850     8.330 -999999.0 
    31.050    27.310    10.350 -999999.0  -999999.0    365.000    10.850     8.280 -999999.0 
    31.100    27.520    10.350 -999999.0  -999999.0    365.900    10.850     8.250 -999999.0 
    31.150    27.440    10.350 -999999.0  -999999.0    366.400    10.850     8.270 -999999.0 
    31.200    26.930    10.360 -999999.0  -999999.0    362.600    10.850     8.370 -999999.0 
    31.250    26.580    10.360 -999999.0  -999999.0    360.500    10.860     8.490 -999999.0 
    31.300    26.160    10.360 -999999.0  -999999.0    360.100    10.860     8.690 -999999.0 
    31.350    26.120    10.360 -999999.0  -999999.0    360.100    10.860     8.750 -999999.0 
    31.400    26.310    10.360 -999999.0  -999999.0    360.100    10.860     8.780 -999999.0 
    31.450    26.370    10.370 -999999.0  -999999.0    360.100    10.860     8.970 -999999.0 
    31.500    26.290    10.370 -999999.0  -999999.0    360.100    10.860     9.070 -999999.0 
    31.550    26.270    10.370 -999999.0  -999999.0    360.200    10.860     9.170 -999999.0 
    31.600    26.380    10.380 -999999.0  -999999.0    360.300    10.860     9.150 -999999.0 
    31.650    26.450    10.380 -999999.0  -999999.0    360.300    10.860     8.930 -999999.0 
    31.700    26.330    10.380 -999999.0  -999999.0    360.300    10.860     8.720 -999999.0 
    31.750    26.140    10.380 -999999.0  -999999.0    360.300    10.860     8.440 -999999.0 
    31.800    25.990    10.380 -999999.0  -999999.0    360.200    10.860     8.420 -999999.0 
    31.850    25.970    10.380 -999999.0  -999999.0    360.200    10.870     8.490 -999999.0 
    31.900    26.100    10.380 -999999.0  -999999.0    360.200    10.870     8.490 -999999.0 
    31.950    26.430    10.380 -999999.0  -999999.0    360.200    10.870     8.480 -999999.0 
    32.000    26.540    10.380 -999999.0  -999999.0    360.100    10.870     8.470 -999999.0 
    32.050    26.740    10.370 -999999.0  -999999.0    360.000    10.870     8.490 -999999.0 
    32.100    27.100    10.370 -999999.0  -999999.0    359.900    10.870     8.560 -999999.0 
    32.150    27.320    10.370 -999999.0  -999999.0    359.800    10.870     8.690 -999999.0 
    32.200    27.510    10.380 -999999.0  -999999.0    359.800    10.870     8.790 -999999.0 
    32.250    27.450    10.380 -999999.0  -999999.0    359.800    10.870     8.910 -999999.0 
    32.300    27.240    10.380 -999999.0  -999999.0    359.700    10.870     8.880 -999999.0 
    32.350    27.050    10.380 -999999.0  -999999.0    359.700    10.870     8.770 -999999.0 
    32.400    26.910    10.390 -999999.0  -999999.0    359.600    10.870     8.630 -999999.0 
    32.450    26.570    10.390 -999999.0  -999999.0    359.600    10.870     8.540 -999999.0 
    32.500    26.220    10.390 -999999.0  -999999.0    359.600    10.870     8.430 -999999.0 
    32.550    25.740    10.390 -999999.0  -999999.0    359.500    10.870     8.320 -999999.0 
    32.600    25.630    10.400 -999999.0  -999999.0    359.500    10.870     8.210 -999999.0 
    32.650    25.730    10.400 -999999.0  -999999.0    359.600    10.870     8.190 -999999.0 
    32.700    26.050    10.400 -999999.0  -999999.0    359.700    10.870     8.180 -999999.0 
    32.750    26.470    10.400 -999999.0  -999999.0    359.700    10.870     8.190 -999999.0 
    32.800    26.680    10.400 -999999.0  -999999.0    359.700    10.870     8.160 -999999.0 
    32.850    26.860    10.410 -999999.0  -999999.0    359.700    10.870     8.100 -999999.0 
    32.900    26.860    10.410 -999999.0  -999999.0    359.800    10.870     7.920 -999999.0 
    32.950    26.720    10.410 -999999.0  -999999.0    359.900    10.870     7.360 -999999.0 
    33.000    26.450    10.410 -999999.0  -999999.0    360.000    10.870     7.240 -999999.0 
    33.050    25.840    10.410 -999999.0  -999999.0    360.100    10.870     7.130 -999999.0 
    33.100    25.550    10.420 -999999.0  -999999.0    360.300    10.870     7.100 -999999.0 
    33.150    25.300    10.420 -999999.0  -999999.0    360.500    10.870     7.170 -999999.0 
    33.200    25.010    10.420 -999999.0  -999999.0    360.600    10.870     7.180 -999999.0 
    33.250    24.900    10.420 -999999.0  -999999.0    360.600    10.870     7.090 -999999.0 
    33.300    24.880    10.420 -999999.0  -999999.0    360.600    10.870     6.950 -999999.0 
    33.350    25.110    10.420 -999999.0  -999999.0    360.600    10.870     6.890 -999999.0 
    33.400    25.400    10.420 -999999.0  -999999.0    360.600    10.880     7.000 -999999.0 
    33.450    25.760    10.430 -999999.0  -999999.0    360.500    10.880     7.180 -999999.0 
    33.500    25.920    10.430 -999999.0  -999999.0    360.500    10.880     7.420 -999999.0 
    33.550    25.970    10.430 -999999.0  -999999.0    360.400    10.880     7.700 -999999.0 
    33.600    25.920    10.420 -999999.0  -999999.0    360.400    10.880     7.750 -999999.0 
    33.650    25.890    10.420 -999999.0  -999999.0    360.300    10.880     7.710 -999999.0 
    33.700    26.000    10.420 -999999.0  -999999.0    360.300    10.880     7.680 -999999.0 
    33.750    26.170    10.420 -999999.0  -999999.0    360.300    10.880     7.700 -999999.0 
    33.800    26.280    10.420 -999999.0  -999999.0    360.300    10.880     7.710 -999999.0 
    33.850    26.320    10.420 -999999.0  -999999.0    360.400    10.880     7.710 -999999.0 
    33.900    26.230    10.420 -999999.0  -999999.0    360.400    10.880     7.720 -999999.0 
    33.950    26.100    10.420 -999999.0  -999999.0    360.500    10.880     7.750 -999999.0 
    34.000    25.970    10.420 -999999.0  -999999.0    360.500    10.880     7.770 -999999.0 
    34.050    25.650    10.410 -999999.0  -999999.0    360.500    10.880     7.780 -999999.0 
    34.100    24.940    10.410 -999999.0  -999999.0    360.400    10.880     7.790 -999999.0 
