~Version Information
 VERS.                2.0:  CWLS LOG ASCII STANDARD -VERSION 2.0
 WRAP.                 NO:  ONE LINE PER DEPTH STEP
~WELL INFORMATION BLOCK
#MNEM.UNIT       DATA		            DESCRIPTION OF MNEMONIC
#---------    -------------            ------------------------
 STRT.M      .000                        :START DEPTH
 STOP.M   #######                        :STOP DEPTH
 STEP.M      .050                        :STEP
 NULL.    -999999.0                      :NULL VALUE
 COMP.       SCHIFOOD                    :COMPANY
 WELL.                          B62B0896 :WELL
 FLD .    Hoensbroek                     :FIELD
 CNTY.                                   :COUNTY
 STAT.                                   :STATE
 SRVC.                                   :SERVICE COMPANY
 DATE.     17-JUL-90                     :LOG DATE
 UWI .                                   :UNIQUE WELL ID
 LIC .                                   :LICENSE NUMBER
~Curve Information Block
#MNEM.UNIT      API CODE     Curve Description
#---------    -------------  ------------------------
DEPTH    .M         00 000 00 00          :  1  DEPTH
SN40     .OHM.M     00 000 00 00          :  2  SN40
SP       .V         00 000 00 00          :  3  SP
CAL      .MM        00 000 00 00          :  4  CAL
LN160    .OHM.M     00 000 00 00          :  5  LN160
GAMMA    .CPS       00 000 00 00          :  6  GAMMA
~Parameter Information Block
#MNEM.UNIT   Information     Description
#---------- ---------------  ------------------------
 FILE.                         :File Type
 FIID.                         :File Type Identifier
 VERS.                         :System Version
 SER .                         :System Serial Number
 TRUK.                         :Truck Calibration Number
 TOOL.                         :Tool Serial Number
 TIME.                         :Time    HrHrMinMin
 LAT .                         :Latitude
 LON .                         :Longitude
 LMF .            MV           :LOG Measured FROM
 DMF .                         :Driller Measured From
 PD  .                         :Permanent Data
 PDEV.                         :Elevation Permanent Data
 EKB .M                        :Elevation Kelly Bushing
 ELEV.DF                       :Elevation DF
 EGL .M                        :Elevation Ground Level
 DRDP.                         :Drillers Depth
 CASD.                         :Casing Diameter
 CASB.                         :Casing Bottom
 CASX.                         :Casing Type
 CAST.                         :Casing Thickness
 TNOC.                         :Time Circulation Stopped
 LOGU.                         :Logging Unit
 RECB.            Bergsma      :Recorded By
 OSR1.                         :Other Services
 OSR2.                         :Other Services
 OSR3.                         :Other Services
 BS  .MM                       :Bit Size
 MST .                         :Mean Surface Temperature
 TGRD.                         :Temperature Gradiant
 MAGN.                         :Magnetic Declination
 MDEN.                         :Density Matrix
 MATR.                         :Neutron Matrix
 DTMT.                         :Delta T Matrix
 DTFL.                         :Delta T Fluid
 MUDS.                         :Mud Sample Source
 MRS .            6            :Mud Resistivity
 MTP .            19           :Mud Temperature
 MFRS.                         :Resistivity Mud Filtrate
 MFTP.                         :Temperature Mud Filtrate
 MCRS.                         :Resistivity Mud Cake
 MCTP.                         :Temperature Mud Cake
 FTYP.                         :Fluid Type
 FD  .K/M3                     :Fluid Density
 DFV .S                        :Fluid Viscosity
 FPH .                         :Fuild PH
 ELCO.                         :Electron Cutoff
~Other Information
#MNEM.UNIT  Information      Description
#---------- ---------------  ------------------------
# --------------------------
## COMMENTS    Top_Depth   Bot_Depth  LithCode  Lat    Long   Elev_Gl
##    Type of LithCode   Lithologie - 1970
##                    .00        6.00         .00     
##                   6.05        8.00        2.00     
##                   8.05       11.50       22.00     
##                  11.55       15.20       23.00     
##                  15.25       19.00       22.00     
##                  19.05       20.25       11.00     
##                  20.30       22.10       12.00     
##                  22.15       23.70       11.00     
##                  23.75       25.15       12.00     
##                  25.20       26.10       11.00     
##                  26.15       27.20       12.00     
##                  27.25       35.00       11.00     
##                  35.05       47.55       12.00     
##                  47.60       51.00        7.00     
##                  51.05       52.25       11.00     
##                  52.30       54.00        7.00     
##                  54.05       55.10       11.00     
##                  55.15       58.00       12.00     
##                  58.05       62.60       11.00     
##                  62.65       67.20        8.00     
##                  67.25       70.05        9.00     
##                  70.10       74.00        7.00     
##                  74.05       75.40        8.00     
##                  75.45       80.00        7.00     
##                  80.05       92.40        9.00     
##                  92.45       94.50       10.00     
##                  94.55       96.90        8.00     
##                  96.95       99.30       10.00     
##                  99.35       99.35         .00     
##    last_layer   99.35
# --------------------------
~A DEPTH    SN40     SP       CAL      LN160    GAMMA    
# ...
    52.600    26.260      .080   591.000    39.530    20.550
    52.650    26.640      .080   588.900    39.280    20.450
    52.700    27.020      .080   586.600    38.990    20.450
    52.750    27.370      .080   584.500    38.540    20.450
    52.800    27.950      .080   582.100    38.070    20.470
    52.850    28.530      .080   578.900    37.530    20.470
    52.900    29.090      .080   576.800    37.260    20.470
    52.950    29.380      .080   583.000    36.920    20.470
    53.000    29.670      .080   585.900    36.540    20.440
    53.050    29.960      .080   588.600    35.640    20.380
    53.100    30.170      .080   582.200    35.260    20.270
    53.150    30.260      .080   574.800    34.970    20.190
    53.200    30.340      .080   563.200    34.250    20.180
    53.250    30.320      .080   573.900    33.560    20.190
    53.300    30.260      .080   572.500    32.720    20.210
    53.350    30.180      .080   569.300    32.080    20.250
    53.400    30.000      .080   561.000    31.730    20.300
    53.450    29.880      .080   561.700    31.320    20.360
    53.500    29.520      .080   563.600    30.910    20.470
    53.550    29.140      .080   565.100    30.430    20.660
    53.600    28.790      .080   565.300    29.820    20.790
    53.650    27.700      .080   564.800    29.410    21.060
    53.700    26.360      .080   563.500    29.300    21.270
    53.750    25.590      .080   562.100    29.280    21.490
    53.800    24.820      .080   562.700    29.300    21.800
    53.850    24.050      .081   563.400    29.320    22.090
    53.900    23.270      .081   563.500    29.370    22.260
    53.950    22.400      .081   563.600    29.420    22.460
    54.000    21.420      .081   565.200    29.500    22.610
    54.050    20.450      .082   566.300    29.580    22.720
    54.100    19.860      .082   566.000    29.660    22.900
    54.150    19.470      .082   563.000    29.750    23.140
    54.200    19.070      .083   565.200    29.860    23.330
    54.250    18.670      .083   574.100    29.950    23.580
    54.300    18.200      .083   583.100    30.040    23.790
    54.350    17.760      .084   591.700    30.130    24.040
    54.400    17.360      .084   594.500    30.230    23.980
    54.450    17.140      .084   597.700    30.310    23.850
    54.500    17.090      .085   592.500    30.380    23.660
    54.550    17.120      .085   587.300    30.430    23.530
    54.600    17.180      .085   586.200    30.460    23.450
    54.650    17.290      .085   592.100    30.470    23.420
    54.700    17.430      .085   598.000    30.480    23.410
    54.750    17.580      .085   603.700    30.470    23.420
    54.800    17.720      .085   600.200    30.410    23.420
    54.850    17.860      .085   596.800    30.330    23.430
    54.900    18.000      .085   599.800    30.210    23.420
    54.950    18.380      .085   602.700    30.060    23.380
    55.000    18.860      .085   602.700    29.840    23.200
    55.050    19.340      .084   600.300    29.660    23.060
    55.100    19.830      .084   598.200    29.390    22.450
    55.150    20.310      .084   603.200    29.140    21.900
    55.200    20.840      .084   608.300    28.870    21.290
    55.250    21.510      .084   614.200    28.540    20.890
    55.300    22.170      .084   590.400    28.210    20.170
    55.350    22.950      .084   566.700    27.920    19.890
    55.400    23.480      .084   537.500    27.680    19.710
    55.450    24.010      .084   551.200    27.400    19.560
    55.500    24.550      .084   565.000    27.200    19.510
    55.550    25.020      .084   578.800    27.100    19.520
    55.600    25.370      .084   592.500    27.040    19.540
    55.650    25.470      .084   601.600    27.030    19.570
    55.700    25.520      .084   596.300    27.040    19.650
    55.750    25.500      .084   592.600    27.130    19.740
    55.800    25.450      .084   590.900    27.220    19.830
    55.850    25.320      .084   589.500    27.290    19.980
    55.900    25.150      .084   588.500    27.440    20.150
    55.950    24.840      .084   587.400    27.580    20.470
    56.000    24.440      .084   585.600    27.730    20.790
    56.050    23.990      .084   580.800    27.910    20.930
    56.100    23.650      .084   566.500    28.100    21.060
    56.150    23.240      .084   567.500    28.240    21.160
    56.200    22.700      .084   568.000    28.390    21.270
    56.250    21.960      .083   565.700    28.480    21.400
    56.300    21.120      .083   562.300    28.530    21.560
    56.350    20.300      .083   558.600    28.540    21.790
    56.400    19.940      .083   568.600    28.500    22.140
    56.450    19.560      .082   577.400    28.440    22.520
    56.500    19.340      .082   579.700    28.370    22.520
    56.550    19.210      .082   581.900    28.240    22.400
    56.600    19.190      .081   583.200    28.060    22.200
    56.650    19.180      .081   587.800    27.570    22.040
    56.700    19.210      .081   590.800    27.280    21.800
    56.750    19.310      .080   566.000    26.920    21.580
    56.800    19.470      .080   559.000    26.610    21.420
    56.850    19.720      .080   566.800    26.250    21.340
    56.900    20.120      .079   574.900    25.810    21.320
    56.950    20.600      .079   583.000    25.470    21.310
    57.000    20.880      .078   591.100    25.140    21.290
    57.050    21.410      .078   598.500    24.690    21.220
    57.100    21.660      .078   588.400    24.410    21.100
    57.150    21.990      .078   581.500    24.100    20.830
    57.200    22.390      .079   581.400    23.900    20.710
    57.250    22.660      .079   580.700    23.540    20.640
    57.300    22.890      .080   579.000    23.380    20.530
    57.350    23.100      .080   574.300    23.060    20.450
    57.400    23.350      .080   568.400    22.910    20.400
    57.450    23.540      .080   565.700    22.790    20.440
    57.500    23.590      .080   561.900    22.710    20.540
    57.550    23.560      .080   559.700    22.670    20.840
    57.600    23.490      .080   556.800    22.630    21.070
    57.650    23.270      .080   557.500    22.610    21.480
    57.700    23.080      .080   566.800    22.600    21.870
    57.750    22.830      .080   575.000    22.580    22.300
    57.800    22.390      .080   579.000    22.570    22.430
    57.850    21.880      .080   584.900    22.560    22.500
    57.900    21.700      .080   581.400    22.550    22.460
    57.950    21.360      .080   570.000    22.560    22.420
    58.000    20.940      .081   563.400    22.560    22.450
    58.050    20.530      .081   567.500    22.540    22.530
    58.100    19.990      .081   570.700    22.520    22.550
    58.150    19.530      .081   573.400    22.500    22.500
    58.200    19.000      .081   569.100    22.450    22.430
    58.250    18.580      .081   564.100    22.360    22.350
    58.300    18.030      .081   558.900    22.270    22.280
    58.350    17.850      .081   563.700    22.160    22.230
    58.400    17.530      .081   569.500    22.040    22.290
    58.450    17.070      .081   573.100    21.900    22.340
    58.500    16.670      .081   577.300    21.760    22.430
    58.550    16.270      .081   580.000    21.590    22.550
    58.600    16.090      .081   582.600    21.370    22.700
    58.650    15.830      .080   582.700    21.010    22.870
    58.700    15.720      .080   583.500    20.800    23.030
    58.750    15.670      .080   587.700    20.200    23.120
    58.800    15.640      .080   594.500    19.860    23.170
    58.850    15.610      .080   593.000    19.310    23.210
    58.900    15.580      .079   591.500    18.780    23.220
    58.950    15.540      .079   591.000    18.360    23.220
    59.000    15.500      .079   590.900    17.890    23.210
    59.050    15.460      .079   590.300    17.270    23.170
    59.100    15.430      .079   588.600    17.000    23.160
    59.150    15.390      .078   584.700    16.800    23.180
