~Version Information Block
 VERS.                2.00:     CWLS LOG ASCII STANDARD - VERSION 2.000000
 WRAP.                  NO:     One Line Per Depth Step
#
~Well Information Block
#MNEM.UNIT                     Data                         Information
#----------   ------------------------------------------   ----------------
 STRT.M                                         0.0000:
 STOP.M                                       171.0000:
 STEP.M                                         0.0200:
 NULL.                                       -999.2500:
 COMP.                                                :     COMPANY
 WELL.                                        B62B0838:     WELL
 FLD .                                                :     FIELD
 CNTY.                                                :     COUNTY
 STAT.                                                :     STATE
 CTRY.                                                :     COUNTRY
 SRVC.                                                :     SERVICE COMPANY
 DATE.                                                :     DATE
 API .                                                :     API NUMBER
 UWI .                                                :     UWI NUMBER
#
~Curve Information Block
#MNEM.UNIT       API CODE      Curve Description
#----------    -------------   -------------------
 DEPT.M                    :   Depth in Meters
 SN20.OHM-M                :   SN20
 LN100.OHM-M               :   LN100
 CALI.CM                   :   Calr
 GAM(NAT) .CPS             :   GAM(NAT)
#
~Parameter Information Block
#MNEM.UNIT            Value               Description
#----------    --------------------    -------------------
 PDAT.                            :    Permanent Datum
 EPD .M                     0.0000:    Elevation Of Perm. Datum
 WSTA.                         LOC:    
 E   .M                     0.0000:    E (Stretch Coefficient Of The Cable)
 TD  .M                   171.0000:    Total Depth
#
~Other Information Block
<DescLogPlotStart>   NEURALOG PLOT DEFINITION
PLOTDEFVERSION: 3
LASFILE: V:\a4\j4\p44009\boorgatmetingen\SCANS TE VERWERKEN IN DINO\wlg\B62B083
DEPTHSCALE: 200.000000
RESOLUTION: 600
DEPTHLABELFREQ: 50.000000
HEAVYGRIDFREQ: 50.000000
MEDIUMGRIDFREQ: 25.000000
LIGHTGRIDFREQ: 5.000000
#
#   TRACK 1
#
STARTTRACK: 
 LEFTX: 13.760000 inch
 RIGHTX: 15.010000 inch
 SCALETYPE: LINEAR
 NUMCHARTDIVISIONS: 10
CURVE: CALI  30.000000  50.000000  (0,0,255)      Solid             2     N    
ENDTRACK: 
#
#   TRACK 2
#
STARTTRACK: 
 LEFTX: 16.551667 inch
 RIGHTX: 21.551667 inch
 SCALETYPE: LINEAR
 NUMCHARTDIVISIONS: 10
CURVE: GAM(NAT)   0.000000   50.000000  (0,131,131)    Solid             2     N    
ENDTRACK: 
#
#   TRACK 3
#
STARTTRACK: 
 LEFTX: 15.343333 inch
 RIGHTX: 21.240000 inch
 SCALETYPE: LINEAR
 NUMCHARTDIVISIONS: 10
CURVE: SN20  0.000000   100.000000 (255,0,255)    Solid             2     Y    
CURVE: LN100  0.000000   100.000000 (255,0,0)      Dot               2     Y    
ENDTRACK: 
<DescLogPlotEnd>
~Other Information
#MNEM.UNIT  Information      Description
#---------- ---------------  ------------------------
# --------------------------
## COMMENTS    Top_Depth   Bot_Depth  LithCode  Lat    Long   Elev_Gl 
##	0.0	31.2	0.0
##	31.25	97.0	25.0
##	97.05	97.5	11.0
##	97.55	104.0	12.0
##	104.05	110.1	11.0
##	110.15	111.7	12.0
##	111.75	113.1	11.0
##	113.15	116.6	12.0
##	116.65	124.1	11.0
##	124.15	125.9	12.0
##	125.95	139.0	11.0
##	139.05	140.0	10.0
##	140.05	145.5	11.0
##	145.55	146.3	10.0
##	146.35	148.0	12.0
##	148.05	149.4	10.0
##	149.45	150.0	11.0
##	150.05	151.9	10.0
##	151.95	152.6	11.0
##	152.65	155.0	10.0
##	155.05	160.9	14.0
##	160.95	163.2	11.0
##	163.25	164.0	10.0
##	164.05	167.8	11.0
##	167.85	170.0	10.0
##	170.05	171.95	11.0
# --------------------------
~A  DEPTH         SN20             LN100            CALI             GAM(NAT)  
       1.700    -999.25000000    -999.25000000      50.54232804    -999.25000000
       1.720    -999.25000000    -999.25000000      50.54232804    -999.25000000
       1.740    -999.25000000    -999.25000000      50.54232804    -999.25000000
       1.760    -999.25000000    -999.25000000      50.54232804    -999.25000000
       1.780    -999.25000000    -999.25000000      50.54232804    -999.25000000
       1.800      80.22894291    -999.25000000      50.54232804    -999.25000000
       1.820      80.22894291    -999.25000000      50.54232804    -999.25000000
       1.840      80.22894291    -999.25000000      50.54232804    -999.25000000
       1.860      80.22894291    -999.25000000      50.54232804    -999.25000000
       1.880      80.22894291    -999.25000000      50.54232804    -999.25000000
       1.900      80.22894291    -999.25000000      50.54232804    -999.25000000
       1.920      80.22894291    -999.25000000      50.54232804    -999.25000000
       1.940      80.22894291    -999.25000000      50.54232804    -999.25000000
       1.960      80.22894291    -999.25000000      50.54232804      12.40346329
       1.980      80.22894291    -999.25000000      50.54232804      12.44358614
       2.000      80.22894291    -999.25000000      50.54232804      12.52959327
       2.020      80.22894291    -999.25000000      50.54232804      12.70813997
       2.040      80.22894291    -999.25000000      50.54232804      12.88668666
       2.060      80.22894291    -999.25000000      50.54232804      13.06523335
       2.080      80.22894291    -999.25000000      50.54232804      13.24378005
       2.100      80.22894291    -999.25000000      50.54232804      13.42232674
       2.120      80.22894291    -999.25000000      50.54232804      13.60087344
       2.140      80.22894291    -999.25000000      50.54232804      13.77942013
       2.160      80.22894291    -999.25000000      50.54232804      13.95796682
       2.180      80.22894291    -999.25000000      50.54232804      13.97531282
       2.200      80.22894291    -999.25000000      50.54232804      13.97531282
       2.220      80.22894291    -999.25000000      50.54232804      13.85694961
       2.240      80.22894291    -999.25000000      50.54232804      13.85694961
       2.260      80.22894291    -999.25000000      50.54232804      13.85694961
       2.280      80.22894291    -999.25000000      50.54232804      13.85694961
       2.300      80.22894291    -999.25000000      50.54232804      13.85694961
       2.320      80.22894291    -999.25000000      50.54232804      13.85694961
       2.340      80.22894291    -999.25000000      50.54232804      13.85694961
       2.360      80.22894291    -999.25000000      50.54232804      13.85694961
       2.380      80.22894291    -999.25000000      50.54232804      14.70240108
       2.400      80.22894291    -999.25000000      50.54232804      14.70240108
       2.420      80.22894291    -999.25000000      50.54232804      14.57726240
       2.440      80.22894291    -999.25000000      50.54232804      14.46585068
       2.460      80.22894291    -999.25000000      50.54232804      14.42572783
       2.480      80.22894291    -999.25000000      50.54232804      13.85694961
       2.500      80.22894291    -999.25000000      50.54232804      13.85694961
       2.520      80.22894291    -999.25000000      50.54232804      13.65359628
       2.540      80.22894291    -999.25000000      50.54232804      13.43422388
       2.560      80.22894291    -999.25000000      50.54232804      13.43422388
       2.580      80.22894291    -999.25000000      50.56878307      13.75868738
       2.600      80.22894291    -999.25000000      50.56878307      13.97531282
       2.620      80.22894291    -999.25000000      50.56878307      13.97531282
       2.640      80.22894291    -999.25000000      50.56878307      13.97531282
       2.660      80.22894291    -999.25000000      50.56878307      13.97531282
       2.680      80.22894291    -999.25000000      50.56878307      13.97531282
       2.700      80.22894291    -999.25000000      50.56878307      13.97531282
       2.720      80.22894291    -999.25000000      50.56878307      13.97531282
       2.740      80.22894291    -999.25000000      50.75372691      13.97531282
       2.760      80.22894291    -999.25000000      50.88624339      13.97531282
       2.780      80.22894291    -999.25000000      50.88624339      13.97531282
       2.800      80.22894291    -999.25000000      50.88624339      13.65404126
       2.820      80.22894291    -999.25000000      50.88624339      13.65404126
       2.840      80.22894291    -999.25000000      50.88624339      13.79761771
       2.860      80.22894291    -999.25000000      50.88624339      14.03685377
       2.880      80.22894291    -999.25000000      50.88624339      14.11709948
       2.900      80.22894291    -999.25000000      50.88624339      14.40760056
       2.920      80.25720746    -999.25000000      50.88624339      14.44772341
       2.940      80.25720746    -999.25000000      50.88624339      14.51942165
       2.960      80.25720746    -999.25000000      50.88624339      14.62942329
       2.980      80.25720746    -999.25000000      50.88624339      14.65263712
       3.000      80.25720746    -999.25000000      50.88624339      14.69275997
       3.020      80.25720746    -999.25000000      50.88624339      14.73288282
       3.040      80.25720746    -999.25000000      50.88624339      14.78991470
       3.060      80.25720746    -999.25000000      50.88624339      15.44639838
       3.080      80.25720746    -999.25000000      50.88624339      15.44639838
       3.100      80.25720746    -999.25000000      50.88624339      15.10721412
       3.120      80.25720746    -999.25000000      50.88624339      14.92221846
       3.140      80.25720746    -999.25000000      50.88624339      14.93912749
       3.160      80.25720746    -999.25000000      50.88624339      14.51640176
       3.180      80.25720746    -999.25000000      50.88624339      14.51640176
       3.200      80.25720746    -999.25000000      50.88624339      14.51640176
       3.220      80.25720746    -999.25000000      50.88624339      14.29658438
       3.240      80.25720746    -999.25000000      50.88624339      14.29658438
       3.260      80.25720746    -999.25000000      50.88624339      14.21225282
       3.280      80.25720746    -999.25000000      50.88624339      13.96432294
       3.300      80.25720746    -999.25000000      50.88624339      13.90729105
       3.320      80.25720746    -999.25000000      50.88624339      13.64528614
       3.340      80.25720746    -999.25000000      50.88624339      13.45113290
       3.360      80.25720746    -999.25000000      50.88624339      13.45113290
       3.380      80.25720746    -999.25000000      50.88624339      13.47625517
       3.400      80.25720746    -999.25000000      50.88624339      13.46804193
       3.420      80.25720746    -999.25000000      50.88624339      13.51876902
       3.440      80.25720746    -999.25000000      50.56878307      13.53567805
       3.460      80.25720746    -999.25000000      50.56878307      13.55239327
       3.480      80.25720746    -999.25000000      50.56878307      13.51876902
       3.500      80.25720746    -999.25000000      50.56878307      13.51876902
       3.520      80.25720746    -999.25000000      50.56878307      13.60331417
       3.540      80.25720746    -999.25000000      50.56878307      13.72129766
       3.560      80.25720746    -999.25000000      50.56878307      14.00034214
       3.580      80.25720746    -999.25000000      50.56878307      14.35141907
       3.600      80.25720746    -999.25000000      50.56878307      14.53464571
       3.620      80.25720746    -999.25000000      50.56878307      14.66819936
       3.640      80.25720746    -999.25000000      50.56878307      14.81608118
       3.660      80.25720746    -999.25000000      50.56878307      14.83529419
