~Version Information Block
 VERS.                2.00:     CWLS LOG ASCII STANDARD - VERSION 2.000000
 WRAP.                  NO:     One Line Per Depth Step
#
~Well Information Block
#MNEM.UNIT                     Data                         Information
#----------   ------------------------------------------   ----------------
 STRT.M                                         0.0000:
 STOP.M                                       171.0000:
 STEP.M                                         0.0200:
 NULL.                                       -999.2500:
 COMP.                                                :     COMPANY
 WELL.                                        B62B0838:     WELL
 FLD .                                                :     FIELD
 CNTY.                                                :     COUNTY
 STAT.                                                :     STATE
 CTRY.                                                :     COUNTRY
 SRVC.                                                :     SERVICE COMPANY
 DATE.                                                :     DATE
 API .                                                :     API NUMBER
 UWI .                                                :     UWI NUMBER
#
~Curve Information Block
#MNEM.UNIT       API CODE      Curve Description
#----------    -------------   -------------------
 DEPT.M                    :   Depth in Meters
 SN20.OHM-M                :   SN20
 LN100.OHM-M               :   LN100
 CALI.CM                   :   Calr
 GAM(NAT) .CPS             :   GAM(NAT)
#
~Parameter Information Block
#MNEM.UNIT            Value               Description
#----------    --------------------    -------------------
 PDAT.                            :    Permanent Datum
 EPD .M                     0.0000:    Elevation Of Perm. Datum
 WSTA.                         LOC:    
 E   .M                     0.0000:    E (Stretch Coefficient Of The Cable)
 TD  .M                   171.0000:    Total Depth
#
~Other Information Block
<DescLogPlotStart>   NEURALOG PLOT DEFINITION
PLOTDEFVERSION: 3
LASFILE: V:\a4\j4\p44009\boorgatmetingen\SCANS TE VERWERKEN IN DINO\wlg\B62B083
DEPTHSCALE: 200.000000
RESOLUTION: 600
DEPTHLABELFREQ: 50.000000
HEAVYGRIDFREQ: 50.000000
MEDIUMGRIDFREQ: 25.000000
LIGHTGRIDFREQ: 5.000000
#
#   TRACK 1
#
STARTTRACK: 
 LEFTX: 13.760000 inch
 RIGHTX: 15.010000 inch
 SCALETYPE: LINEAR
 NUMCHARTDIVISIONS: 10
CURVE: CALI  30.000000  50.000000  (0,0,255)      Solid             2     N    
ENDTRACK: 
#
#   TRACK 2
#
STARTTRACK: 
 LEFTX: 16.551667 inch
 RIGHTX: 21.551667 inch
 SCALETYPE: LINEAR
 NUMCHARTDIVISIONS: 10
CURVE: GAM(NAT)   0.000000   50.000000  (0,131,131)    Solid             2     N    
ENDTRACK: 
#
#   TRACK 3
#
STARTTRACK: 
 LEFTX: 15.343333 inch
 RIGHTX: 21.240000 inch
 SCALETYPE: LINEAR
 NUMCHARTDIVISIONS: 10
CURVE: SN20  0.000000   100.000000 (255,0,255)    Solid             2     Y    
CURVE: LN100  0.000000   100.000000 (255,0,0)      Dot               2     Y    
ENDTRACK: 
<DescLogPlotEnd>
~Other Information
#MNEM.UNIT  Information      Description
#---------- ---------------  ------------------------
# --------------------------
## COMMENTS    Top_Depth   Bot_Depth  LithCode  Lat    Long   Elev_Gl 
##	0.0	31.2	0.0
##	31.25	97.0	25.0
##	97.05	97.5	11.0
##	97.55	104.0	12.0
##	104.05	110.1	11.0
##	110.15	111.7	12.0
##	111.75	113.1	11.0
##	113.15	116.6	12.0
##	116.65	124.1	11.0
##	124.15	125.9	12.0
##	125.95	139.0	11.0
##	139.05	140.0	10.0
##	140.05	145.5	11.0
##	145.55	146.3	10.0
##	146.35	148.0	12.0
##	148.05	149.4	10.0
##	149.45	150.0	11.0
##	150.05	151.9	10.0
##	151.95	152.6	11.0
##	152.65	155.0	10.0
##	155.05	160.9	14.0
##	160.95	163.2	11.0
##	163.25	164.0	10.0
##	164.05	167.8	11.0
##	167.85	170.0	10.0
##	170.05	171.95	11.0
# --------------------------
~A  DEPTH         SN20             LN100            CALI             GAM(NAT)  
# ...
      69.020      25.96875667      31.86828717      38.34656085      17.09271318
      69.040      26.04731916      31.86828717      38.34656085      17.28186377
      69.060      26.16276417      31.88037646      38.34656085      17.40815431
      69.080      26.33984906      31.91919973      38.34656085      17.49462768
      69.100      26.48458342      31.89655172      38.34656085      17.56002705
      69.120      26.61655410      31.89655172      38.34656085      17.51996155
      69.140      26.75240249      31.92481628      38.34656085      17.44193281
      69.160      26.93034357      31.92481628      38.34656085      17.35933566
      69.180      27.08222507      31.92481628      38.34656085      17.20958297
      69.200      27.26357773      31.92360966      38.34656085      17.12954888
      69.220      27.38125415      31.86828717      38.34656085      17.18697036
      69.240      27.43075184      31.86828717      38.34656085      17.28277830
      69.260      27.64245832      31.86828717      38.36595811      17.52507382
      69.280      27.72857431      31.86828717      38.37301587      17.61254788
      69.300      27.84966231      31.86828717      38.37301587      17.70339782
      69.320      27.91124929      31.86025739      38.37301587      17.77483304
      69.340      27.98636690      31.86828717      38.37301587      17.90580583
      69.360      28.02607281      31.86828717      38.37301587      17.99264902
      69.380      28.09227799      31.86828717      38.37301587      18.10011530
      69.400      28.15310133      31.86828717      38.37301587      18.24799712
      69.420      28.19389486      31.86828717      38.37301587      18.35726109
      69.440      28.23701235      31.86828717      38.37301587      18.43442757
      69.460      28.30410018      31.86828717      38.37301587      18.59018841
      69.480      28.31465889      31.86828717      38.37301587      18.60838688
      69.500      28.36348219      31.92481628      38.37301587      18.59147785
      69.520      28.44883454      31.92537496      38.37301587      18.54784464
      69.540      28.47654042      31.95308084      38.37301587      18.49081276
      69.560      28.47654042      31.97475694      38.37301587      18.47311464
      69.580      28.48051068      32.06613906      38.37301587      18.45620561
      69.600      28.50480497      32.08066804      38.37301587      18.38492071
      69.620      28.55815722      32.11949130      38.37301587      18.33032135
      69.640      28.56133409      32.15093273      38.37301587      18.20873653
      69.660      28.56133409      32.16887329      38.20924534      18.11560436
      69.680      28.56156880      32.23572640      38.18783069      17.82723521
      69.700      28.62865662      32.23572640      38.18783069      17.32579250
      69.720      28.64612776      32.32052007      38.16137566      17.21262066
      69.740      28.67439231      32.40531374      38.16137566      16.99969742
      69.760      28.71686187      32.46198830      38.16137566      16.86490180
      69.780      28.78394970      32.51837196      38.16137566      16.74370658
      69.800      28.85103752      32.57490107      38.16137566      16.64693947
      69.820      28.92877332      32.64904677      38.16137566      16.67264712
      69.840      28.95703787      32.74439916      38.17582846      16.82840005
      69.860      29.01671080      32.83975154      38.21214765      16.94993543
      69.880      29.11215244      32.91407575      38.26719577      17.05769440
      69.900      29.16153442      33.00219174      38.26719577      17.16536437
      69.920      29.28132655      33.09754412      38.26719577      17.62830196
      69.940      29.34484356      33.05629504      38.25160432      17.66540294
      69.960      29.40075009      33.13634301      38.14855658      17.71220832
      69.980      29.45665661      33.21639099      38.37715276      17.79306512
      70.000      29.51256313      33.29643896      38.41347195      18.05933784
      70.020      29.56846965      33.37648693      38.45238095      18.22480110
      70.040      29.60712267      33.45653491      38.45965531      18.26555680
      70.060      29.60712267      33.53658288      38.47883598      18.24234298
      70.080      29.62067974      33.61663085      38.50529101      18.20116999
      70.100      29.63538722      33.69667882      38.53174603      18.11802503
      70.120      29.66365178      33.77672680      38.55820106      17.83847032
      70.140      29.66365178      33.85677477      38.64125128      17.71220832
      70.160      29.69117914      33.93682274      38.67305403      17.76375812
      70.180      29.70173786      34.01687072      38.71490351      17.87546648
      70.200      29.74844545      34.09691869      38.75675299      17.91947742
      70.220      29.77671001      34.17696666      38.79629630      17.93202570
      70.240      29.80497456      34.25701464      38.82275132      17.93178047
      70.260      29.80497456      34.33706261      38.82275132      17.81783932
      70.280      29.86758964      34.41711058      38.80292707      17.71644645
      70.300      29.94629734      34.49715856      38.79306290      17.57937850
      70.320      30.02896869      34.57720653      38.73028868      17.26470047
      70.340      30.06908122      34.65725450      38.66751447      16.98830607
      70.360      30.16420550      34.73730247      38.62482441      16.67385548
      70.380      30.20302877      34.81735045      38.56842105      16.36486126
      70.400      30.24185204      34.89739842      38.53174603      16.27562311
      70.420      30.30893986      34.97744639      38.61440948      16.01522801
      70.440      30.35352514      35.05749437      38.55299360      15.90866751
      70.460      30.42679480      35.13754234      38.53174603      15.86734619
      70.480      30.48332391      35.21759031      38.53174603      15.47232753
      70.500      30.52076205      35.29763829      38.53174603      15.05749070
      70.520      30.58784988      35.37768626      38.53174603      15.05749070
      70.540      30.68117581      35.45773423      38.43704632      14.83767332
      70.560      30.72202553      35.53778221      38.37301587      14.83767332
      70.580      30.81737791      35.61783018      38.37301587      14.83767332
      70.600      30.88446573      35.69787815      38.37301587      14.83767332
      70.620      30.96382137      35.77792613      38.37301587      14.83767332
      70.640      30.99208592      35.85797410      38.37301587      15.13384436
      70.660      31.08572921      35.93802207      38.37301587      15.48021644
      70.680      31.15281703      35.99491238      38.37301587      15.48021644
      70.700      31.27983894      35.99491238      38.26569510      16.03110470
      70.720      31.38778971      35.99491238      38.18783069      16.07122756
      70.740      31.46169409      36.16449972      38.18783069      16.22421373
      70.760      31.56249112      36.16449972      38.18783069      16.22421373
      70.780      31.62957894      36.16449972      38.18783069      16.23861904
      70.800      31.67043527      36.16449972      38.18783069      16.42712208
      70.820      31.77228024      36.16449972      38.18783069      16.42712208
      70.840      31.86828717      36.18358408      38.18783069      16.42712208
      70.860      31.89793024      36.27893646      38.18783069      16.42712208
      70.880      31.97695530      36.34602428      38.18783069      16.42712208
      70.900      32.03787451      36.36235161      38.18783069      16.42191094
      70.920      32.20746184      36.36235161      38.18783069      16.38178809
      70.940      32.27933977      36.48270903      38.18783069      16.29653592
      70.960      32.40059967      36.56020350      38.18783069      14.63476496
      70.980      32.52657364      36.56020350      38.21428571      14.63476496
