~Version Information Block
 VERS.                2.00:     CWLS LOG ASCII STANDARD - VERSION 2.000000
 WRAP.                  NO:     One Line Per Depth Step
#
~Well Information Block
#MNEM.UNIT                     Data                         Information
#----------   ------------------------------------------   ----------------
 STRT.M                                         0.0000:
 STOP.M                                       171.0000:
 STEP.M                                         0.0200:
 NULL.                                       -999.2500:
 COMP.                                                :     COMPANY
 WELL.                                        B62B0838:     WELL
 FLD .                                                :     FIELD
 CNTY.                                                :     COUNTY
 STAT.                                                :     STATE
 CTRY.                                                :     COUNTRY
 SRVC.                                                :     SERVICE COMPANY
 DATE.                                                :     DATE
 API .                                                :     API NUMBER
 UWI .                                                :     UWI NUMBER
#
~Curve Information Block
#MNEM.UNIT       API CODE      Curve Description
#----------    -------------   -------------------
 DEPT.M                    :   Depth in Meters
 SN20.OHM-M                :   SN20
 LN100.OHM-M               :   LN100
 CALI.CM                   :   Calr
 GAM(NAT) .CPS             :   GAM(NAT)
#
~Parameter Information Block
#MNEM.UNIT            Value               Description
#----------    --------------------    -------------------
 PDAT.                            :    Permanent Datum
 EPD .M                     0.0000:    Elevation Of Perm. Datum
 WSTA.                         LOC:    
 E   .M                     0.0000:    E (Stretch Coefficient Of The Cable)
 TD  .M                   171.0000:    Total Depth
#
~Other Information Block
<DescLogPlotStart>   NEURALOG PLOT DEFINITION
PLOTDEFVERSION: 3
LASFILE: V:\a4\j4\p44009\boorgatmetingen\SCANS TE VERWERKEN IN DINO\wlg\B62B083
DEPTHSCALE: 200.000000
RESOLUTION: 600
DEPTHLABELFREQ: 50.000000
HEAVYGRIDFREQ: 50.000000
MEDIUMGRIDFREQ: 25.000000
LIGHTGRIDFREQ: 5.000000
#
#   TRACK 1
#
STARTTRACK: 
 LEFTX: 13.760000 inch
 RIGHTX: 15.010000 inch
 SCALETYPE: LINEAR
 NUMCHARTDIVISIONS: 10
CURVE: CALI  30.000000  50.000000  (0,0,255)      Solid             2     N    
ENDTRACK: 
#
#   TRACK 2
#
STARTTRACK: 
 LEFTX: 16.551667 inch
 RIGHTX: 21.551667 inch
 SCALETYPE: LINEAR
 NUMCHARTDIVISIONS: 10
CURVE: GAM(NAT)   0.000000   50.000000  (0,131,131)    Solid             2     N    
ENDTRACK: 
#
#   TRACK 3
#
STARTTRACK: 
 LEFTX: 15.343333 inch
 RIGHTX: 21.240000 inch
 SCALETYPE: LINEAR
 NUMCHARTDIVISIONS: 10
CURVE: SN20  0.000000   100.000000 (255,0,255)    Solid             2     Y    
CURVE: LN100  0.000000   100.000000 (255,0,0)      Dot               2     Y    
ENDTRACK: 
<DescLogPlotEnd>
~Other Information
#MNEM.UNIT  Information      Description
#---------- ---------------  ------------------------
# --------------------------
## COMMENTS    Top_Depth   Bot_Depth  LithCode  Lat    Long   Elev_Gl 
##	0.0	31.2	0.0
##	31.25	97.0	25.0
##	97.05	97.5	11.0
##	97.55	104.0	12.0
##	104.05	110.1	11.0
##	110.15	111.7	12.0
##	111.75	113.1	11.0
##	113.15	116.6	12.0
##	116.65	124.1	11.0
##	124.15	125.9	12.0
##	125.95	139.0	11.0
##	139.05	140.0	10.0
##	140.05	145.5	11.0
##	145.55	146.3	10.0
##	146.35	148.0	12.0
##	148.05	149.4	10.0
##	149.45	150.0	11.0
##	150.05	151.9	10.0
##	151.95	152.6	11.0
##	152.65	155.0	10.0
##	155.05	160.9	14.0
##	160.95	163.2	11.0
##	163.25	164.0	10.0
##	164.05	167.8	11.0
##	167.85	170.0	10.0
##	170.05	171.95	11.0
# --------------------------
~A  DEPTH         SN20             LN100            CALI             GAM(NAT)  
# ...
     158.120      26.07687959      21.92676868      37.39417989      28.74527289
     158.140      26.07687959      21.95360381      37.39417989      28.96935214
     158.160      26.01825614      22.06248885      37.39417989      29.09402014
     158.180      25.93492600      22.20595359      37.40722795      29.21034833
     158.200      25.85159586      22.34941832      37.42063492      29.19796815
     158.220      25.76826572      22.49288305      37.42063492      28.79794600
     158.240      25.68493557      22.63634779      37.42063492      28.61853230
     158.260      25.60160543      22.77981252      37.42063492      28.61853230
     158.280      25.51827529      22.92327725      37.42063492      28.49402844
     158.300      25.43494515      23.06674199      37.42063492      27.81352406
     158.320      25.35161501      23.21020672      37.42063492      27.53460814
     158.340      25.26828487      23.35367146      37.42063492      27.51139431
     158.360      25.18495473      23.49713619      37.42063492      27.48562732
     158.380      25.10162459      23.52301264      37.42063492      27.32219117
     158.400      25.01829445      23.50959507      37.42063492      27.31333321
     158.420      24.93496431      23.49617751      37.42063492      27.08748000
     158.440      24.85163417      23.48275994      37.42063492      26.43726750
     158.460      24.76830403      23.46934238      37.42063492      26.43726750
     158.480      24.60167583      23.46523460      37.42063492      26.43726750
     158.500      24.39829379      23.46523460      37.42063492      28.12817044
     158.520      24.19491175      23.46968949      37.42063492      28.12817044
     158.540      23.99152972      23.49652462      37.42063492      27.97234039
     158.560      23.78814768      23.52335975      37.42063492      27.42587022
     158.580      23.58476564      23.54437535      37.42063492      27.48562732
     158.600      23.38138360      23.54437535      37.42063492      27.45332218
     158.620      23.17800156      23.54437535      37.42063492      27.33344606
     158.640      23.11475410      23.54437535      37.42063492      27.32526446
     158.660      23.11475410      23.54437535      37.42063492      26.98228013
     158.680      23.04691916      23.54437535      37.42063492      26.69716423
     158.700      23.04691916      23.54437535      37.42063492      26.64017585
     158.720      23.04244461      23.54437535      37.42063492      26.62326682
     158.740      22.96056306      23.54437535      37.42063492      26.64017585
     158.760      22.87868151      23.54437535      37.42063492      26.66226439
     158.780      22.79679996      23.53893096      37.42063492      26.73078056
     158.800      22.71491840      23.48732494      37.42063492      26.77720821
     158.820      22.63303685      23.43571892      37.42063492      26.80926615
     158.840      22.55115530      23.38411290      37.42063492      26.80926615
     158.860      22.46927375      23.33250688      37.42063492      26.80926615
     158.880      22.38739220      23.28090087      37.42063492      26.75559630
     158.900      22.30551065      23.22929485      37.42063492      26.47956974
     158.920      22.22362910      23.17768883      37.42063492      26.31359624
     158.940      22.14174755      23.12608281      37.42063492      26.12194080
     158.960      22.05986600      23.07447679      37.42063492      25.88790006
     158.980      21.97798445      23.02287077      37.42063492      25.25986904
     159.000      21.89610290      22.97908423      37.42063492      25.06763612
     159.020      21.81422135      22.97908423      37.42063492      25.03381806
     159.040      21.73233980      22.97560170      37.42063492      25.07653758
     159.060      21.70152629      22.89819267      37.42063492      25.09975141
     159.080      21.70152629      22.82078364      37.42063492      25.16598734
     159.100      21.70152629      22.74337461      37.26190476      25.30216732
     159.120      21.70152629      22.66596558      37.26190476      25.35508962
     159.140      21.70152629      22.58855655      37.26190476      25.39551505
     159.160      21.70152629      22.51114753      37.26190476      25.50727088
     159.180      21.70152629      22.43373850      37.26190476      25.61564886
     159.200      21.70152629      22.35632947      37.26190476      25.72740469
     159.220      21.70152629      22.27892044      37.26190476      25.85638598
     159.240      21.70152629      22.20151141      37.26190476      26.00625931
     159.260      21.70152629      22.12870522      37.26190476      26.09279596
     159.280      21.70152629      22.10187009      37.26190476      26.16673687
     159.300      21.70152629      22.06372914      37.26190476      26.30404215
     159.320      21.70152629      22.05200678      37.26190476      26.49204682
     159.340      21.70152629      22.05200678      37.26190476      26.85721857
     159.360      21.78178949      22.05200678      37.26190476      27.18022059
     159.380      21.95755960      22.05200678      37.26190476      27.48334708
     159.400      22.13332970      22.05200678      37.26190476      27.63216236
     159.420      22.30909980      21.84618924      37.26190476      27.99664786
     159.440      22.48486990      21.81935411      37.26190476      28.04335040
     159.460      22.66064000      21.78121316      37.26190476      28.01832504
     159.480      22.83641010      21.70152629      37.26190476      27.68853568
     159.500      23.01218021      21.70152629      37.26190476      27.58708150
     159.520      23.18258903      21.70070777      37.26190476      27.49065850
     159.540      23.18258903      21.67387264      37.26190476      27.07938938
     159.560      23.18258903      21.64703751      37.26190476      27.00470289
     159.580      23.18258903      21.62020238      37.26190476      26.86368949
     159.600      23.18258903      21.59977388      37.26190476      26.80982978
     159.620      23.18258903      21.57783794      37.26190476      26.78661596
     159.640      23.26172979      21.56585642      37.26190476      26.69576602
     159.660      23.26172979      21.56585642      37.26190476      26.71069541
     159.680      23.18258903      21.56585642      37.26190476      26.83250568
     159.700      23.18258903      21.56585642      37.26190476      26.96978327
     159.720      23.18258903      21.56585642      37.26190476      27.23609158
     159.740      23.18258903      21.48671566      37.26190476      27.47390769
     159.760      23.18258903      21.48671566      37.26190476      27.65386525
     159.780      23.18258903      21.42371248      37.26190476      27.74471519
     159.800      23.18258903      21.41888072      37.26190476      27.77823264
     159.820      23.18258903      21.41888072      37.26190476      27.70198577
     159.840      23.15977141      21.35048645      37.26190476      27.58161722
     159.860      23.10816539      21.32365132      37.26190476      27.46124866
     159.880      23.05655937      21.29681619      37.26190476      27.29331134
     159.900      23.00495335      21.20407010      37.28835979      27.24890091
     159.920      22.95334733      21.20407010      37.28835979      27.26466883
     159.940      22.90174132      21.20407010      37.28835979      27.27097362
     159.960      22.85013530      21.17816985      37.28835979      27.34608927
     159.980      22.79852928      21.15133472      37.28835979      27.53549017
     160.000      22.74692326      21.12449959      37.28835979      27.55069248
     160.020      22.69531724      21.10231769      37.28835979      27.83384654
     160.040      22.64371122      21.08213515      37.28835979      27.95908015
     160.060      22.59790960      21.06840023      37.28835979      27.95908015
     160.080      22.55819361      21.06840023      37.28835979      27.95908015
