~Version Information
 VERS.                2.0:  CWLS LOG ASCII STANDARD -VERSION 2.0
 WRAP.                 NO:  ONE LINE PER DEPTH STEP
~WELL INFORMATION BLOCK
#MNEM.UNIT       DATA		            DESCRIPTION OF MNEMONIC
#---------    -------------            ------------------------
 STRT.M      .450                        :START DEPTH
 STOP.M   #######                        :STOP DEPTH
 STEP.M      .050                        :STEP
 NULL.    -999999.0                      :NULL VALUE
 COMP.       SCHIFOOD                    :COMPANY
 WELL.                          B62B0897 :WELL
 FLD .    Heerlen                        :FIELD
 CNTY.                                   :COUNTY
 STAT.                                   :STATE
 SRVC.                                   :SERVICE COMPANY
 DATE.     10-DEC-90                     :LOG DATE
 UWI .                                   :UNIQUE WELL ID
 LIC .                                   :LICENSE NUMBER
~Curve Information Block
#MNEM.UNIT      API CODE     Curve Description
#---------    -------------  ------------------------
DEPTH    .M         00 000 00 00          :  1  DEPTH
SN40     .OHM.M     00 000 00 00          :  2  SN40
SP       .V         00 000 00 00          :  3  SP
CAL      .MM        00 000 00 00          :  4  CAL
LN160    .OHM.M     00 000 00 00          :  5  LN160
GAMMA    .CPS       00 000 00 00          :  6  GAMMA
~Parameter Information Block
#MNEM.UNIT   Information     Description
#---------- ---------------  ------------------------
 FILE.                         :File Type
 FIID.                         :File Type Identifier
 VERS.                         :System Version
 SER .                         :System Serial Number
 TRUK.                         :Truck Calibration Number
 TOOL.                         :Tool Serial Number
 TIME.                         :Time    HrHrMinMin
 LAT .                         :Latitude
 LON .                         :Longitude
 LMF .            MV           :LOG Measured FROM
 DMF .                         :Driller Measured From
 PD  .                         :Permanent Data
 PDEV.                         :Elevation Permanent Data
 EKB .M                        :Elevation Kelly Bushing
 ELEV.DF                       :Elevation DF
 EGL .M                        :Elevation Ground Level
 DRDP.                         :Drillers Depth
 CASD.                         :Casing Diameter
 CASB.                         :Casing Bottom
 CASX.                         :Casing Type
 CAST.                         :Casing Thickness
 TNOC.                         :Time Circulation Stopped
 LOGU.                         :Logging Unit
 RECB.            Bergsma      :Recorded By
 OSR1.                         :Other Services
 OSR2.                         :Other Services
 OSR3.                         :Other Services
 BS  .MM                       :Bit Size
 MST .                         :Mean Surface Temperature
 TGRD.                         :Temperature Gradiant
 MAGN.                         :Magnetic Declination
 MDEN.                         :Density Matrix
 MATR.                         :Neutron Matrix
 DTMT.                         :Delta T Matrix
 DTFL.                         :Delta T Fluid
 MUDS.                         :Mud Sample Source
 MRS .                         :Mud Resistivity
 MTP .                         :Mud Temperature
 MFRS.                         :Resistivity Mud Filtrate
 MFTP.                         :Temperature Mud Filtrate
 MCRS.                         :Resistivity Mud Cake
 MCTP.                         :Temperature Mud Cake
 FTYP.                         :Fluid Type
 FD  .K/M3                     :Fluid Density
 DFV .S                        :Fluid Viscosity
 FPH .                         :Fuild PH
 ELCO.                         :Electron Cutoff
~Other Information
#MNEM.UNIT  Information      Description
#---------- ---------------  ------------------------
# --------------------------
## COMMENTS    Top_Depth   Bot_Depth  LithCode  Lat    Long   Elev_Gl
##    Type of LithCode   Lithologie - 1970
##                    .00         .00         .00     
##                    .45        6.00         .00     
##                   6.05        8.10        2.00     
##                   8.15       15.30       23.00     
##                  15.35       18.50       22.00     
##                  18.55       20.80       11.00     
##                  20.85       22.35       12.00     
##                  22.40       23.40       11.00     
##                  23.45       25.30       12.00     
##                  25.35       26.25       11.00     
##                  26.30       27.80       12.00     
##                  27.85       35.10       11.00     
##                  35.15       47.80       12.00     
##                  47.85       50.40        6.00     
##                  50.45       52.00       23.00     
##                  52.05       53.20       11.00     
##                  53.25       54.60       12.00     
##                  54.65       55.50       11.00     
##                  55.55       56.50       12.00     
##                  56.55       57.25       11.00     
##                  57.30       58.60       12.00     
##                  58.65       64.40       11.00     
##                  64.45       71.10        9.00     
##                  71.15       74.20        7.00     
##                  74.25       75.90        9.00     
##                  75.95       78.90        7.00     
##                  78.95       93.30        9.00     
##                  93.35       95.20       10.00     
##                  95.25       97.60        9.00     
##                  97.65       99.95       10.00     
##                 100.00      100.00         .00     
##                 100.05      126.75     #######     
##    last_layer   126.75
# --------------------------
~A DEPTH    SN40     SP       CAL      LN160    GAMMA    
# ...
    66.050    30.680      .063   562.300    37.880    11.460
    66.100    30.840      .063   566.700    38.100    11.470
    66.150    31.820      .062   570.200    38.320    11.510
    66.200    32.110      .062   571.600    38.590    11.580
    66.250    33.090      .062   571.800    39.030    11.680
    66.300    33.440      .062   572.300    39.430    11.830
    66.350    33.690      .062   571.500    39.710    11.630
    66.400    34.000      .062   549.900    40.030    11.460
    66.450    34.170      .062   547.700    40.340    11.290
    66.500    34.280      .062   549.900    40.650    11.260
    66.550    34.390      .062   554.200    40.970    11.300
    66.600    34.540      .062   558.600    41.280    11.330
    66.650    34.710      .062   562.900    41.590    11.350
    66.700    34.940      .062   567.200    41.910    11.430
    66.750    35.450      .062   571.600    42.200    11.500
    66.800    35.730      .062   576.400    42.820    11.590
    66.850    35.980      .062   565.500    43.270    11.530
    66.900    36.140      .063   559.100    43.530    11.450
    66.950    36.210      .063   555.300    44.060    11.410
    67.000    36.190      .063   556.600    44.520    11.420
    67.050    36.110      .063   559.400    45.070    11.540
    67.100    36.040      .063   564.900    45.510    11.700
    67.150    35.940      .063   568.600    45.880    11.890
    67.200    35.880      .063   570.100    46.220    12.100
    67.250    35.840      .063   565.100    46.600    12.340
    67.300    35.840      .063   559.000    46.900    12.630
    67.350    35.820      .064   547.500    47.260    12.710
    67.400    35.800      .064   550.800    47.660    12.790
    67.450    35.760      .064   555.100    48.100    13.040
    67.500    35.720      .064   556.000    48.400    13.250
    67.550    35.690      .064   548.100    48.680    13.470
    67.600    35.660      .064   539.000    48.940    13.650
    67.650    35.640      .064   529.800    49.120    13.390
    67.700    35.620      .064   541.600    49.320    13.200
    67.750    35.600      .064   553.400    49.470    12.990
    67.800    35.610      .064   560.700    49.600    13.070
    67.850    35.610      .064   557.900    49.750    13.010
    67.900    35.650      .064   555.200    49.900    12.980
    67.950    35.700      .064   555.900    50.070    13.030
    68.000    35.770      .064   559.300    50.270    13.080
    68.050    35.800      .064   561.700    50.470    13.000
    68.100    35.830      .064   563.400    50.710    12.850
    68.150    35.870      .064   563.200    50.830    12.730
    68.200    35.920      .064   563.000    50.960    12.700
    68.250    35.980      .064   562.700    51.080    12.830
    68.300    36.020      .064   562.500    51.210    12.940
    68.350    36.070      .064   562.300    51.360    12.910
    68.400    36.130      .064   562.100    51.480    12.850
    68.450    36.190      .064   561.800    51.600    12.930
    68.500    36.260      .064   561.600    51.730    13.020
    68.550    36.340      .064   561.400    51.850    13.030
    68.600    36.420      .064   561.200    51.930    12.920
    68.650    36.520      .064   561.000    52.010    12.710
    68.700    36.640      .064   560.700    52.090    12.480
    68.750    36.760      .064   560.500    52.130    12.250
    68.800    36.930      .064   560.300    52.170    12.030
    68.850    37.090      .064   560.100    52.230    12.030
    68.900    37.230      .064   559.800    52.300    12.180
    68.950    37.390      .064   559.600    52.360    12.300
    69.000    37.520      .064   559.400    52.420    12.410
    69.050    37.640      .064   559.200    52.470    12.410
    69.100    37.750      .064   559.000    52.540    12.430
    69.150    37.870      .064   558.700    52.600    12.390
    69.200    37.900      .064   558.500    52.660    12.290
    69.250    37.920      .064   558.300    52.710    12.230
    69.300    37.920      .064   558.100    52.800    12.280
    69.350    37.920      .064   557.800    52.900    12.450
    69.400    37.910      .064   557.600    52.990    12.640
    69.450    37.900      .064   557.400    53.070    12.800
    69.500    37.890      .064   557.200    53.190    12.680
    69.550    37.870      .064   557.000    53.310    12.520
    69.600    37.870      .064   556.700    53.410    12.430
    69.650    37.860      .064   556.500    53.490    12.350
    69.700    37.860      .064   556.300    53.580    12.300
    69.750    37.840      .064   556.100    53.690    12.300
    69.800    37.800      .064   555.800    53.820    12.270
    69.850    37.760      .064   555.600    53.990    12.280
    69.900    37.700      .064   555.400    54.150    12.380
    69.950    37.620      .064   555.200    54.310    12.520
    70.000    37.570      .064   555.000    54.480    12.660
    70.050    37.510      .064   554.700    54.640    12.780
    70.100    37.440      .065   554.500    54.790    12.740
    70.150    37.410      .065   554.300    54.950    12.520
    70.200    37.390      .065   554.100    55.120    12.460
    70.250    37.380      .065   553.800    55.310    12.390
    70.300    37.370      .066   553.600    55.550    12.320
    70.350    37.400      .066   553.400    55.730    12.220
    70.400    37.450      .066   553.200    55.930    12.150
    70.450    37.500      .066   553.000    56.110    12.090
    70.500    37.560      .066   552.700    56.300    12.120
    70.550    37.690      .066   552.500    56.460    12.460
    70.600    37.830      .066   552.300    56.660    12.640
    70.650    37.970      .066   552.100    56.820    12.770
    70.700    38.120      .066   551.800    56.930    13.140
    70.750    38.320      .066   551.600    57.000    13.410
    70.800    38.590      .066   551.400    57.080    13.650
    70.850    38.900      .065   551.200    57.160    13.670
    70.900    39.230      .065   550.900    57.250    13.710
    70.950    39.770      .065   550.700    57.340    13.700
    71.000    40.170      .065   550.500    57.430    13.640
    71.050    40.720      .065   550.300    57.530    13.640
    71.100    41.150      .064   550.100    57.630    13.630
    71.150    41.690      .064   549.800    57.760    13.570
    71.200    42.040      .064   549.600    57.860    13.270
    71.250    42.290      .064   549.400    57.980    12.860
    71.300    42.540      .064   549.200    58.110    12.450
    71.350    42.770      .064   548.900    58.270    12.190
    71.400    42.940      .064   548.700    58.420    12.320
    71.450    43.070      .064   548.500    58.670    12.470
    71.500    43.170      .064   548.300    58.910    12.470
    71.550    43.250      .064   548.100    59.160    12.120
    71.600    43.320      .064   547.800    59.420    11.940
    71.650    43.380      .064   547.600    59.710    11.970
    71.700    43.450      .064   547.400    60.000    12.180
    71.750    43.510      .064   547.200    60.330    12.480
    71.800    43.540      .064   546.900    60.560    12.620
    71.850    43.570      .064   546.700    60.780    12.660
    71.900    43.600      .064   546.500    60.970    12.770
    71.950    43.630      .063   546.300    61.130    12.920
    72.000    43.640      .063   546.100    61.310    13.220
    72.050    43.640      .063   545.800    61.440    13.160
    72.100    43.590      .063   545.600    61.550    12.840
    72.150    43.540      .063   545.400    61.640    12.590
    72.200    43.500      .063   545.200    61.730    12.670
    72.250    43.460      .063   544.900    61.830    12.880
    72.300    43.440      .063   544.700    61.890    13.040
    72.350    43.420      .063   544.500    61.940    12.960
    72.400    43.390      .063   544.300    61.970    12.920
    72.450    43.340      .063   544.100    61.970    12.900
    72.500    43.300      .063   543.800    61.970    12.830
    72.550    43.250      .063   543.600    61.970    12.360
    72.600    43.210      .063   543.400    61.970    12.150
