~Version Information
 VERS.                2.0:  CWLS LOG ASCII STANDARD -VERSION 2.0
 WRAP.                 NO:  ONE LINE PER DEPTH STEP
~WELL INFORMATION BLOCK
#MNEM.UNIT       DATA		            DESCRIPTION OF MNEMONIC
#---------    -------------            ------------------------
 STRT.M      .000                        :START DEPTH
 STOP.M    68.050                        :STOP DEPTH
 STEP.M      .050                        :STEP
 NULL.    -999999.0                      :NULL VALUE
 COMP.       WML                         :COMPANY
 WELL.                          B62B0903 :WELL
 FLD .    Nuth                           :FIELD
 CNTY.                                   :COUNTY
 STAT.                                   :STATE
 SRVC.                                   :SERVICE COMPANY
 DATE.     13-APR-92                     :LOG DATE
 UWI .                                   :UNIQUE WELL ID
 LIC .                                   :LICENSE NUMBER
~Curve Information Block
#MNEM.UNIT      API CODE     Curve Description
#---------    -------------  ------------------------
DEPTH    .M         00 000 00 00          :  1  DEPTH
GAMMA    .CPS       00 000 00 00          :  2  GAMMA
SN40     .OHM.M     00 000 00 00          :  3  SN40
CAL      .MM        00 000 00 00          :  4  CAL
SP       .V         00 000 00 00          :  5  SP
LN160    .OHM.M     00 000 00 00          :  6  LN160
~Parameter Information Block
#MNEM.UNIT   Information     Description
#---------- ---------------  ------------------------
 FILE.                         :File Type
 FIID.                         :File Type Identifier
 VERS.                         :System Version
 SER .                         :System Serial Number
 TRUK.                         :Truck Calibration Number
 TOOL.                         :Tool Serial Number
 TIME.                         :Time    HrHrMinMin
 LAT .                         :Latitude
 LON .                         :Longitude
 LMF .            MV           :LOG Measured FROM
 DMF .                         :Driller Measured From
 PD  .                         :Permanent Data
 PDEV.                         :Elevation Permanent Data
 EKB .M                        :Elevation Kelly Bushing
 ELEV.DF                       :Elevation DF
 EGL .M                        :Elevation Ground Level
 DRDP.                         :Drillers Depth
 CASD.                         :Casing Diameter
 CASB.                         :Casing Bottom
 CASX.                         :Casing Type
 CAST.                         :Casing Thickness
 TNOC.                         :Time Circulation Stopped
 LOGU.                         :Logging Unit
 RECB.            Bergsma      :Recorded By
 OSR1.                         :Other Services
 OSR2.                         :Other Services
 OSR3.                         :Other Services
 BS  .MM                       :Bit Size
 MST .                         :Mean Surface Temperature
 TGRD.                         :Temperature Gradiant
 MAGN.                         :Magnetic Declination
 MDEN.                         :Density Matrix
 MATR.                         :Neutron Matrix
 DTMT.                         :Delta T Matrix
 DTFL.                         :Delta T Fluid
 MUDS.                         :Mud Sample Source
 MRS .                         :Mud Resistivity
 MTP .                         :Mud Temperature
 MFRS.                         :Resistivity Mud Filtrate
 MFTP.                         :Temperature Mud Filtrate
 MCRS.                         :Resistivity Mud Cake
 MCTP.                         :Temperature Mud Cake
 FTYP.                         :Fluid Type
 FD  .K/M3                     :Fluid Density
 DFV .S                        :Fluid Viscosity
 FPH .                         :Fuild PH
 ELCO.                         :Electron Cutoff
~Other Information
#MNEM.UNIT  Information      Description
#---------- ---------------  ------------------------
# --------------------------
## COMMENTS    Top_Depth   Bot_Depth  LithCode  Lat    Long   Elev_Gl
##    Type of LithCode   Lithologie - 1970
##                    .00        5.00         .00     
##                   5.05        6.80       10.00     
##                   6.85        8.00       11.00     
##                   8.05       11.00       10.00     
##                  11.05       15.00       12.00     
##                  15.05       17.00       10.00     
##                  17.05       18.40       12.00     
##                  18.45       23.00       10.00     
##                  23.05       25.40       12.00     
##                  25.45       28.00        6.00     
##                  28.05       28.35       19.00     
##                  28.40       30.00       11.00     
##                  30.05       31.00       12.00     
##                  31.05       34.00       11.00     
##                  34.05       38.90        6.00     
##                  38.95       40.80       23.00     
##                  40.85       47.45        6.00     
##                  47.50       52.00       21.00     
##                  52.05       60.00       22.00     
##                  60.05       68.00       23.00     
##                  68.05       68.05         .00     
##    last_layer   68.05
# --------------------------
~A DEPTH    GAMMA    SN40     CAL      SP       LN160    
# ...
     6.550    27.110    16.750   508.900      .026    12.370
     6.600    27.770    16.530   507.900      .026    12.490
     6.650    29.600    16.170   506.900      .026    12.630
     6.700    30.510    15.840   504.000      .026    12.730
     6.750    31.320    15.480   506.800      .026    12.840
     6.800    32.000    15.170   510.800      .026    12.950
     6.850    32.970    14.840   513.800      .026    13.070
     6.900    33.770    14.470   519.100      .026    13.190
     6.950    34.140    14.030   522.000      .027    13.300
     7.000    34.280    13.780   524.900      .027    13.400
     7.050    34.430    13.460   524.800      .027    13.500
     7.100    34.280    13.350   521.500      .027    13.550
     7.150    34.210    13.270   511.700      .026    13.570
     7.200    34.510    13.270   512.000      .026    13.560
     7.250    34.820    13.260   512.600      .026    13.540
     7.300    34.970    13.380   510.700      .026    13.520
     7.350    35.110    13.500   507.000      .026    13.480
     7.400    34.550    13.610   500.800      .026    13.450
     7.450    33.370    13.850   498.400      .026    13.420
     7.500    32.320    14.080   498.000      .025    13.370
     7.550    31.930    14.310   496.600      .025    13.330
     7.600    31.100    14.520   497.000      .025    13.280
     7.650    30.590    14.740   501.000      .025    13.250
     7.700    30.090    14.930   505.200      .025    13.230
     7.750    29.520    15.120   508.800      .026    13.210
     7.800    28.870    15.300   509.100      .026    13.190
     7.850    27.730    15.460   507.300      .026    13.160
     7.900    26.630    15.580   506.400      .026    13.140
     7.950    26.050    15.720   505.700      .025    13.160
     8.000    25.200    15.790   504.700      .025    13.170
     8.050    24.940    15.870   505.000      .025    13.180
     8.100    24.930    15.940   506.100      .025    13.230
     8.150    24.730    15.990   507.200      .025    13.290
     8.200    24.030    16.080   506.200      .025    13.350
     8.250    23.500    16.170   499.100      .025    13.450
     8.300    22.830    16.250   498.900      .025    13.550
     8.350    21.330    16.330   499.700      .025    13.650
     8.400    20.930    16.400   501.900      .025    13.750
     8.450    20.650    16.470   502.600      .025    13.850
     8.500    20.470    16.540   502.800      .024    13.950
     8.550    20.160    16.560   502.200      .024    14.050
     8.600    19.730    16.560   499.200      .024    14.140
     8.650    19.320    16.560   497.800      .024    14.240
     8.700    18.990    16.550   499.300      .024    14.330
     8.750    18.620    16.530   500.800      .024    14.410
     8.800    18.260    16.540   502.000      .024    14.490
     8.850    18.000    16.580   503.500      .024    14.560
     8.900    18.210    16.630   500.700      .024    14.630
     8.950    18.390    16.690   496.500      .024    14.700
     9.000    18.520    16.780   495.300      .024    14.760
     9.050    18.610    16.870   494.700      .024    14.810
     9.100    18.370    16.990   494.700      .024    14.870
     9.150    17.270    17.030   495.000      .024    14.920
     9.200    16.700    17.070   495.000      .024    14.960
     9.250    15.960    17.110   494.900      .024    14.990
     9.300    15.150    17.130   495.000      .024    15.030
     9.350    14.650    17.140   495.300      .024    15.060
     9.400    14.540    17.140   496.900      .024    15.090
     9.450    14.460    17.150   499.500      .024    15.120
     9.500    14.300    17.110   502.700      .024    15.150
     9.550    14.230    17.080   512.600      .024    15.170
     9.600    14.130    17.050   510.600      .024    15.210
     9.650    14.080    17.010   509.000      .024    15.250
     9.700    14.270    16.970   506.500      .024    15.300
     9.750    14.460    16.930   506.200      .024    15.340
     9.800    14.660    16.900   505.800      .024    15.390
     9.850    14.800    16.890   505.400      .024    15.430
     9.900    14.950    16.890   505.300      .024    15.480
     9.950    15.170    16.890   506.900      .024    15.530
    10.000    15.540    16.880   508.600      .024    15.570
    10.050    16.690    16.890   507.800      .024    15.600
    10.100    16.970    16.910   507.000      .024    15.630
    10.150    16.900    16.920   507.800      .024    15.650
    10.200    17.170    16.960   510.000      .024    15.670
    10.250    17.820    17.010   514.600      .024    15.690
    10.300    18.420    17.050   511.500      .024    15.700
    10.350    18.800    17.100   499.000      .023    15.710
    10.400    19.040    17.140   500.400      .023    15.710
    10.450    19.320    17.190   499.700      .023    15.710
    10.500    19.450    17.210   497.900      .023    15.700
    10.550    19.390    17.230   499.900      .023    15.700
    10.600    19.240    17.190   502.200      .023    15.680
    10.650    19.060    17.130   503.600      .023    15.650
    10.700    18.930    17.010   507.800      .023    15.630
    10.750    18.840    16.890   510.200      .023    15.610
    10.800    19.440    16.740   516.000      .023    15.590
    10.850    19.880    16.570   520.200      .023    15.580
    10.900    21.030    16.410   523.900      .023    15.560
    10.950    21.330    16.240   524.300      .023    15.540
    11.000    21.770    16.040   521.000      .023    15.530
    11.050    22.230    15.910   518.800      .023    15.510
    11.100    22.340    15.760   514.600      .023    15.490
    11.150    22.400    15.580   512.600      .023    15.480
    11.200    22.990    15.380   508.700      .023    15.470
    11.250    23.360    15.240   501.300      .023    15.460
    11.300    23.650    15.100   466.100      .023    15.440
    11.350    23.760    15.010   470.900      .023    15.430
    11.400    23.820    14.960   480.000      .023    15.410
    11.450    24.070    14.940   485.700      .023    15.400
    11.500    24.210    14.950   492.300      .023    15.390
    11.550    24.300    14.990   494.200      .023    15.380
    11.600    24.020    15.060   497.400      .023    15.370
    11.650    23.440    15.170   499.900      .023    15.350
    11.700    23.310    15.250   510.400      .023    15.330
    11.750    23.250    15.330   511.000      .023    15.310
    11.800    23.340    15.410   503.000      .023    15.280
    11.850    23.500    15.500   502.500      .023    15.240
    11.900    23.620    15.570   501.900      .023    15.210
    11.950    22.530    15.640   501.700      .023    15.180
    12.000    22.180    15.670   502.100      .022    15.140
    12.050    20.980    15.700   502.900      .022    15.120
    12.100    20.640    15.730   506.100      .022    15.100
    12.150    20.600    15.770   510.100      .022    15.080
    12.200    20.850    15.790   510.900      .022    15.060
    12.250    21.060    15.810   510.100      .023    15.050
    12.300    21.250    15.810   509.000      .023    15.030
    12.350    21.390    15.810   511.100      .023    15.020
    12.400    21.440    15.810   515.800      .023    15.010
    12.450    21.440    15.810   516.800      .023    15.010
    12.500    21.430    15.840   516.000      .023    15.010
    12.550    21.480    15.900   514.200      .023    15.030
    12.600    21.690    15.960   514.000      .023    15.050
    12.650    22.010    16.020   516.900      .023    15.090
    12.700    21.800    16.020   497.300      .023    15.140
    12.750    21.490    16.000   472.300      .023    15.210
    12.800    21.740    15.970   468.200      .023    15.320
    12.850    21.860    15.920   469.200      .023    15.400
    12.900    22.040    15.880   473.500      .023    15.480
    12.950    22.220    15.830   483.300      .023    15.560
    13.000    22.480    15.790   489.900      .023    15.650
    13.050    22.750    15.760   496.300      .023    15.720
    13.100    23.090    15.730   498.500      .023    15.810
