~Version Information
 VERS.                2.0:  CWLS LOG ASCII STANDARD -VERSION 2.0
 WRAP.                 NO:  ONE LINE PER DEPTH STEP
~WELL INFORMATION BLOCK
#MNEM.UNIT       DATA		            DESCRIPTION OF MNEMONIC
#---------    -------------            ------------------------
 STRT.M      .000                        :START DEPTH
 STOP.M    82.700                        :STOP DEPTH
 STEP.M      .050                        :STEP
 NULL.    -999999.0                      :NULL VALUE
 COMP.       WML                         :COMPANY
 WELL.                          B62B0902 :WELL
 FLD .    Voerendaal                     :FIELD
 CNTY.                                   :COUNTY
 STAT.                                   :STATE
 SRVC.                                   :SERVICE COMPANY
 DATE.     04-FEB-92                     :LOG DATE
 UWI .                                   :UNIQUE WELL ID
 LIC .                                   :LICENSE NUMBER
~Curve Information Block
#MNEM.UNIT      API CODE     Curve Description
#---------    -------------  ------------------------
DEPTH    .M         00 000 00 00          :  1  DEPTH
SN40     .OHM.M     00 000 00 00          :  2  SN40
SP       .V         00 000 00 00          :  3  SP
CAL      .MM        00 000 00 00          :  4  CAL
LN160    .OHM.M     00 000 00 00          :  5  LN160
GAMMA    .CPS       00 000 00 00          :  6  GAMMA
~Parameter Information Block
#MNEM.UNIT   Information     Description
#---------- ---------------  ------------------------
 FILE.                         :File Type
 FIID.                         :File Type Identifier
 VERS.                         :System Version
 SER .                         :System Serial Number
 TRUK.                         :Truck Calibration Number
 TOOL.                         :Tool Serial Number
 TIME.                         :Time    HrHrMinMin
 LAT .                         :Latitude
 LON .                         :Longitude
 LMF .            MV           :LOG Measured FROM
 DMF .                         :Driller Measured From
 PD  .                         :Permanent Data
 PDEV.                         :Elevation Permanent Data
 EKB .M                        :Elevation Kelly Bushing
 ELEV.DF                       :Elevation DF
 EGL .M                        :Elevation Ground Level
 DRDP.                         :Drillers Depth
 CASD.                         :Casing Diameter
 CASB.                         :Casing Bottom
 CASX.                         :Casing Type
 CAST.                         :Casing Thickness
 TNOC.                         :Time Circulation Stopped
 LOGU.                         :Logging Unit
 RECB.            Bergsma      :Recorded By
 OSR1.                         :Other Services
 OSR2.                         :Other Services
 OSR3.                         :Other Services
 BS  .MM                       :Bit Size
 MST .                         :Mean Surface Temperature
 TGRD.                         :Temperature Gradiant
 MAGN.                         :Magnetic Declination
 MDEN.                         :Density Matrix
 MATR.                         :Neutron Matrix
 DTMT.                         :Delta T Matrix
 DTFL.                         :Delta T Fluid
 MUDS.                         :Mud Sample Source
 MRS .                         :Mud Resistivity
 MTP .                         :Mud Temperature
 MFRS.                         :Resistivity Mud Filtrate
 MFTP.                         :Temperature Mud Filtrate
 MCRS.                         :Resistivity Mud Cake
 MCTP.                         :Temperature Mud Cake
 FTYP.                         :Fluid Type
 FD  .K/M3                     :Fluid Density
 DFV .S                        :Fluid Viscosity
 FPH .                         :Fuild PH
 ELCO.                         :Electron Cutoff
~Other Information
#MNEM.UNIT  Information      Description
#---------- ---------------  ------------------------
# --------------------------
## COMMENTS    Top_Depth   Bot_Depth  LithCode  Lat    Long   Elev_Gl
##    Type of LithCode   Lithologie - 1970
##                    .00       10.80       13.00     
##                  10.85       11.80       23.00     
##                  11.85       15.70        6.00     
##                  15.75       16.00       23.00     
##                  16.05       28.00        7.00     
##                  28.05       46.00        9.00     
##                  46.05       46.05         .00     
##    last_layer   46.05
# --------------------------
~A DEPTH    SN40     SP       CAL      LN160    GAMMA    
# ...
    64.850    51.220      .023   212.200    51.620    10.310
    64.900    52.210      .023   212.500    51.770    10.080
    64.950    52.910      .023   212.900    52.040    10.080
    65.000    53.510      .023   213.200    52.410    10.140
    65.050    53.710      .022   213.300    52.730    10.300
    65.100    53.450      .021   213.400    53.090    10.280
    65.150    52.580      .022   212.700    53.140    10.230
    65.200    51.960      .022   211.600    53.120    10.190
    65.250    51.620      .022   211.500    53.080    10.110
    65.300    51.740      .023   211.400    52.760    10.010
    65.350    52.100      .024   211.300    52.440     9.930
    65.400    52.550      .024   211.300    51.710     9.860
    65.450    52.720      .024   211.300    50.950     9.790
    65.500    52.790      .024   211.400    50.830     9.650
    65.550    52.960      .024   211.500    51.010     9.330
    65.600    53.270      .024   212.000    51.170     9.120
    65.650    53.750      .025   212.200    51.280     9.110
    65.700    54.230      .025   211.900    51.290     9.230
    65.750    54.730      .026   211.600    51.280     9.410
    65.800    55.230      .026   211.400    51.250     9.580
    65.850    55.670      .026   211.200    51.230     9.730
    65.900    55.770      .026   211.100    51.240    10.010
    65.950    55.250      .026   211.300    51.260    10.170
    66.000    53.980      .026   211.500    51.290    10.340
    66.050    51.120      .026   211.700    51.330    10.590
    66.100    50.480      .026   211.900    51.370    10.770
    66.150    50.340      .026   211.800    51.400    10.830
    66.200    50.530      .027   211.700    51.420    10.800
    66.250    51.100      .027   211.600    51.440    10.730
    66.300    53.820      .026   211.500    51.410    10.650
    66.350    55.050      .026   211.500    51.380    10.550
    66.400    55.650      .026   211.400    51.290    10.520
    66.450    56.200      .025   211.500    51.160    10.660
    66.500    56.310      .025   211.500    50.980    10.940
    66.550    54.910      .024   211.600    50.540    11.110
    66.600    53.860      .023   211.600    49.440    11.080
    66.650    53.730      .023   211.800    48.740    10.880
    66.700    54.330      .023   212.000    48.010    10.510
    66.750    54.950      .022   212.600    47.660    10.010
    66.800    55.520      .022   213.000    47.560     9.990
    66.850    56.100      .022   213.200    47.540     9.940
    66.900    56.480      .023   213.000    47.730     9.850
    66.950    56.550      .023   212.500    48.070     9.790
    67.000    56.470      .023   211.400    48.490     9.800
    67.050    56.520      .024   210.100    48.960     9.750
    67.100    56.880      .024   209.300    49.160     9.650
    67.150    57.460      .024   209.200    49.320     9.420
    67.200    58.150      .024   209.600    49.410     9.030
    67.250    58.610      .025   210.100    49.450     9.040
    67.300    58.480      .025   210.400    49.490     9.120
    67.350    54.600      .025   210.700    49.530     9.230
    67.400    53.330      .024   211.000    49.570     9.400
    67.450    52.640      .023   211.200    49.610     9.500
    67.500    52.570      .023   211.300    49.650     9.550
    67.550    52.860      .023   211.300    49.740     9.520
    67.600    53.500      .024   211.200    49.840     9.420
    67.650    55.030      .024   211.200    49.930     9.010
    67.700    55.970      .024   211.200    50.060     9.010
    67.750    57.110      .023   211.300    50.190     9.120
    67.800    58.170      .023   211.300    50.320     9.260
    67.850    58.610      .023   211.400    50.470     9.410
    67.900    58.270      .022   211.400    50.590     9.530
    67.950    57.910      .022   211.600    50.680     9.560
    68.000    57.640      .021   212.100    50.650     9.570
    68.050    57.350      .021   212.600    50.640     9.560
    68.100    57.000      .021   212.500    50.620     9.540
    68.150    55.940      .021   212.100    50.670     9.540
    68.200    55.100      .020   211.400    50.950     9.580
    68.250    54.940      .020   210.800    51.530     9.650
    68.300    55.130      .020   210.100    52.280     9.600
    68.350    55.720      .019   209.800    53.100     9.440
    68.400    56.630      .019   209.900    53.900     9.400
    68.450    57.640      .019   209.900    54.690     9.340
    68.500    58.500      .019   210.000    55.340     9.280
    68.550    59.180      .019   210.100    55.150     9.070
    68.600    59.470      .018   210.200    54.940     9.020
    68.650    57.860      .018   210.300    54.730     9.120
    68.700    55.940      .018   210.300    54.520     9.240
    68.750    55.110      .018   210.200    54.310     9.380
    68.800    54.780      .018   210.000    54.090     9.570
    68.850    54.510      .018   209.800    53.830     9.730
    68.900    54.630      .018   209.300    53.660     9.750
    68.950    54.940      .018   208.400    53.500     9.850
    69.000    55.270      .017   207.800    53.360    10.130
    69.050    55.540      .017   206.000    53.270    10.380
    69.100    55.760      .017   205.500    53.250    10.520
    69.150    55.270      .016   206.200    53.300    10.610
    69.200    54.720      .016   207.000    53.430    10.710
    69.250    54.210      .015   208.100    53.670    10.860
    69.300    53.790      .015   208.600    54.030    10.900
    69.350    53.500      .015   208.400    54.330    10.900
    69.400    53.490      .014   208.300    54.630    10.890
    69.450    53.440      .014   208.300    54.940    10.830
    69.500    53.270      .013   208.400    55.250    10.630
    69.550    52.950      .012   208.700    55.520    10.310
    69.600    52.550      .012   208.700    55.790    10.010
    69.650    51.480      .012   208.900    56.000    10.000
    69.700    50.560      .012   208.900    56.070    10.080
    69.750    50.390      .012   208.600    56.060    10.200
    69.800    50.390      .012   208.400    56.020    10.370
    69.850    50.500      .012   208.600    55.960    10.820
    69.900    50.890      .012   208.900    55.870    11.120
    69.950    51.340      .012   208.700    55.800    11.200
    70.000    52.040      .012   208.500    55.710    11.190
    70.050    52.610      .012   208.600    55.600    11.120
    70.100    52.900      .012   208.800    55.450    11.060
    70.150    52.870      .010   208.700    55.190    10.990
    70.200    52.600      .010   208.500    54.850    10.960
    70.250    52.370      .010   208.400    54.440    10.920
    70.300    52.330      .010   208.400    54.290    10.910
    70.350    52.470      .010   208.600    54.120    10.890
    70.400    53.090      .011   209.000    54.120    10.900
    70.450    53.860      .011   209.600    54.110    10.920
    70.500    55.420      .012   210.300    54.110    10.950
    70.550    56.070      .012   210.800    54.100    11.040
    70.600    56.550      .013   211.200    54.030    11.110
    70.650    56.940      .013   211.600    53.880    11.120
    70.700    57.240      .014   212.100    53.680    11.120
    70.750    57.460      .015   212.500    53.450    11.110
    70.800    57.460      .015   212.400    53.100    11.100
    70.850    57.180      .016   211.500    52.880    11.070
    70.900    56.840      .016   210.300    52.660    10.990
    70.950    56.500      .017   210.000    52.390    10.840
    71.000    56.870      .017   209.900    52.100    10.610
    71.050    57.550      .018   208.800    51.800    10.370
    71.100    59.920      .018   207.400    51.550    10.170
    71.150    60.890      .020   207.700    51.350     9.860
    71.200    61.690      .020   208.100    51.260     9.600
    71.250    62.000      .021   207.600    51.200     9.570
    71.300    61.800      .022   205.700    51.190     9.630
    71.350    61.230      .023   204.300    51.170     9.710
    71.400    60.790      .026   205.400    51.130     9.830
