~Version Information
 VERS.                2.0:  CWLS LOG ASCII STANDARD -VERSION 2.0
 WRAP.                 NO:  ONE LINE PER DEPTH STEP
~WELL INFORMATION BLOCK
#MNEM.UNIT       DATA		            DESCRIPTION OF MNEMONIC
#---------    -------------            ------------------------
 STRT.M      .450                        :START DEPTH
 STOP.M   #######                        :STOP DEPTH
 STEP.M      .050                        :STEP
 NULL.    -999999.0                      :NULL VALUE
 COMP.       SCHIFOOD                    :COMPANY
 WELL.                          B62B0899 :WELL
 FLD .    Heerlen                        :FIELD
 CNTY.                                   :COUNTY
 STAT.                                   :STATE
 SRVC.                                   :SERVICE COMPANY
 DATE.     23-JAN-91                     :LOG DATE
 UWI .                                   :UNIQUE WELL ID
 LIC .                                   :LICENSE NUMBER
~Curve Information Block
#MNEM.UNIT      API CODE     Curve Description
#---------    -------------  ------------------------
DEPTH    .M         00 000 00 00          :  1  DEPTH
SN40     .OHM.M     00 000 00 00          :  2  SN40
SP       .V         00 000 00 00          :  3  SP
CAL      .MM        00 000 00 00          :  4  CAL
LN160    .OHM.M     00 000 00 00          :  5  LN160
GAMMA    .CPS       00 000 00 00          :  6  GAMMA
~Parameter Information Block
#MNEM.UNIT   Information     Description
#---------- ---------------  ------------------------
 FILE.                         :File Type
 FIID.                         :File Type Identifier
 VERS.                         :System Version
 SER .                         :System Serial Number
 TRUK.                         :Truck Calibration Number
 TOOL.                         :Tool Serial Number
 TIME.                         :Time    HrHrMinMin
 LAT .                         :Latitude
 LON .                         :Longitude
 LMF .            MV           :LOG Measured FROM
 DMF .                         :Driller Measured From
 PD  .                         :Permanent Data
 PDEV.                         :Elevation Permanent Data
 EKB .M                        :Elevation Kelly Bushing
 ELEV.DF                       :Elevation DF
 EGL .M                        :Elevation Ground Level
 DRDP.                         :Drillers Depth
 CASD.                         :Casing Diameter
 CASB.                         :Casing Bottom
 CASX.                         :Casing Type
 CAST.                         :Casing Thickness
 TNOC.                         :Time Circulation Stopped
 LOGU.                         :Logging Unit
 RECB.            Veenendaal   :Recorded By
 OSR1.                         :Other Services
 OSR2.                         :Other Services
 OSR3.                         :Other Services
 BS  .MM                       :Bit Size
 MST .                         :Mean Surface Temperature
 TGRD.                         :Temperature Gradiant
 MAGN.                         :Magnetic Declination
 MDEN.                         :Density Matrix
 MATR.                         :Neutron Matrix
 DTMT.                         :Delta T Matrix
 DTFL.                         :Delta T Fluid
 MUDS.                         :Mud Sample Source
 MRS .                         :Mud Resistivity
 MTP .                         :Mud Temperature
 MFRS.                         :Resistivity Mud Filtrate
 MFTP.                         :Temperature Mud Filtrate
 MCRS.                         :Resistivity Mud Cake
 MCTP.                         :Temperature Mud Cake
 FTYP.                         :Fluid Type
 FD  .K/M3                     :Fluid Density
 DFV .S                        :Fluid Viscosity
 FPH .                         :Fuild PH
 ELCO.                         :Electron Cutoff
~Other Information
#MNEM.UNIT  Information      Description
#---------- ---------------  ------------------------
# --------------------------
## COMMENTS    Top_Depth   Bot_Depth  LithCode  Lat    Long   Elev_Gl
##    Type of LithCode   Lithologie - 1970
##                    .00         .00         .00     
##                    .45        5.75         .00     
##                   5.80        7.15       13.00     
##                   7.20        8.50        2.00     
##                   8.55       10.20       23.00     
##                  10.25       11.30       11.00     
##                  11.35       15.15       23.00     
##                  15.20       18.40       21.00     
##                  18.45       27.30       12.00     
##                  27.35       39.00       11.00     
##                  39.05       47.15       12.00     
##                  47.20       49.00       10.00     
##                  49.05       51.00        7.00     
##                  51.05       54.00       10.00     
##                  54.05       55.80        9.00     
##                  55.85       57.00       20.00     
##                  57.05       58.00        9.00     
##                  58.05       60.00       20.00     
##                  60.05       63.20       11.00     
##                  63.25       67.00        8.00     
##                  67.05       70.20        9.00     
##                  70.25       74.00        7.00     
##                  74.05       75.70        9.00     
##                  75.75       78.00        7.00     
##                  78.05       84.00        8.00     
##                  84.05       92.00        9.00     
##                  92.05       94.10       10.00     
##                  94.15       97.50        9.00     
##                  97.55      100.55       10.00     
##                 100.60      100.60         .00     
##                 100.65      126.40     #######     
##    last_layer   126.4
# --------------------------
~A DEPTH    SN40     SP       CAL      LN160    GAMMA    
# ...
   105.700    60.330      .063   452.200    87.090     6.580
   105.750    60.060      .062   452.300    87.040     6.390
   105.800    59.740      .062   452.200    86.990     6.280
   105.850    59.490      .063   452.000    86.920     6.080
   105.900    59.440      .063   451.700    86.860     6.090
   105.950    59.530      .063   451.400    86.800     6.390
   106.000    59.790      .063   451.100    86.770     6.560
   106.050    59.960      .064   451.000    86.730     6.630
   106.100    60.090      .064   451.200    86.660     6.460
   106.150    60.090      .064   451.500    86.520     6.350
   106.200    59.950      .064   451.800    86.350     6.400
   106.250    59.610      .064   452.000    86.130     6.460
   106.300    59.370      .064   452.300    85.840     6.440
   106.350    59.230      .064   452.300    85.530     6.430
   106.400    59.170      .064   452.300    85.190     6.360
   106.450    59.140      .064   452.300    84.800     6.120
   106.500    59.180      .064   452.500    84.470     6.010
   106.550    59.230      .064   452.600    84.170     5.800
   106.600    59.310      .064   452.600    83.840     5.680
   106.650    59.450      .063   452.600    83.500     5.860
   106.700    59.480      .063   452.700    83.190     6.130
   106.750    59.450      .063   452.900    82.930     6.410
   106.800    59.290      .063   453.100    82.640     6.670
   106.850    59.020      .063   453.300    82.310     6.630
   106.900    58.520      .063   453.300    81.890     6.430
   106.950    57.520      .063   453.200    81.550     6.290
   107.000    57.100      .063   452.500    80.690     6.540
   107.050    56.620      .063   451.800    80.120     6.740
   107.100    56.360      .063   451.000    79.560     6.610
   107.150    56.080      .063   450.000    78.990     6.420
   107.200    55.850      .063   449.300    78.710     6.350
   107.250    55.700      .063   448.900    78.470     6.330
   107.300    55.560      .062   448.700    78.160     6.300
   107.350    55.470      .062   448.700    77.700     6.190
   107.400    55.320      .062   448.700    77.300     5.830
   107.450    55.150      .062   448.900    77.060     5.770
   107.500    54.910      .062   449.200    76.920     5.730
   107.550    54.410      .062   449.600    76.820     5.680
   107.600    53.750      .062   450.400    76.770     5.580
   107.650    53.340      .062   451.300    76.760     5.490
   107.700    52.880      .062   451.400    76.780     5.440
   107.750    52.720      .062   451.300    76.800     5.480
   107.800    52.650      .062   451.400    76.810     5.540
   107.850    52.650      .062   452.100    76.810     5.540
   107.900    52.650      .062   452.300    76.750     5.480
   107.950    52.620      .062   450.900    76.660     5.490
   108.000    52.430      .063   449.100    76.490     5.600
   108.050    52.240      .064   448.100    76.270     5.880
   108.100    51.920      .065   447.500    76.120     5.570
   108.150    51.750      .066   447.100    76.030     5.260
   108.200    51.640      .068   446.900    76.000     4.950
   108.250    51.570      .069   447.000    76.020     4.630
   108.300    51.500      .071   447.500    76.050     4.730
   108.350    51.420      .071   448.100    76.140     4.990
   108.400    51.390      .072   448.700    76.250     5.240
   108.450    51.360      .072   450.300    76.370     5.480
   108.500    51.340      .072   451.100    76.480     5.460
   108.550    51.330      .072   452.300    76.480     5.520
   108.600    51.350      .072   452.700    76.460     5.970
   108.650    51.410      .072   452.700    76.420     6.390
   108.700    51.480      .072   452.500    76.330     6.830
   108.750    51.630      .072   452.300    76.220     6.680
   108.800    51.810      .072   452.000    76.080     6.430
   108.850    52.070      .072   451.600    75.940     6.220
   108.900    52.690      .072   451.300    75.820     6.260
   108.950    53.200      .072   451.200    75.700     6.330
   109.000    53.540      .072   451.800    75.580     6.450
   109.050    53.670      .072   453.400    75.510     6.510
   109.100    53.710      .073   455.800    75.450     6.350
   109.150    53.730      .073   456.300    75.390     6.250
   109.200    53.740      .073   456.300    75.350     6.230
   109.250    53.750      .073   456.100    75.320     6.360
   109.300    53.770      .073   455.900    75.300     6.440
   109.350    53.900      .073   455.800    75.290     6.380
   109.400    54.160      .074   455.500    75.320     6.220
   109.450    54.360      .074   454.700    75.370     6.020
   109.500    54.500      .074   453.400    75.430     5.970
   109.550    54.570      .074   451.600    75.500     5.950
   109.600    54.610      .074   450.200    75.580     5.860
   109.650    54.620      .074   449.900    75.630     5.740
   109.700    54.570      .075   450.000    75.680     5.560
   109.750    54.490      .076   450.400    75.730     5.370
   109.800    54.370      .077   450.900    75.750     5.400
   109.850    54.240      .077   451.600    75.760     5.750
   109.900    54.140      .078   452.200    75.770     5.990
   109.950    54.070      .079   452.600    75.780     6.090
   110.000    54.070      .080   453.000    75.730     6.050
   110.050    54.150      .081   453.500    75.690     6.000
   110.100    54.240      .081   453.700    75.630     5.880
   110.150    54.410      .082   452.200    75.560     5.850
   110.200    54.680      .083   451.700    75.500     5.740
   110.250    54.950      .084   451.100    75.430     5.670
   110.300    55.000      .085   450.000    75.360     5.650
   110.350    54.960      .086   449.500    75.270     6.040
   110.400    54.870      .087   449.500    75.190     6.420
   110.450    54.750      .087   449.700    75.080     6.830
   110.500    54.520      .087   450.200    74.980     6.620
   110.550    54.260      .087   450.600    74.890     6.400
   110.600    54.050      .087   451.000    74.790     6.140
   110.650    53.680      .087   452.100    74.690     5.720
   110.700    53.340      .088   452.400    74.560     5.310
   110.750    52.930      .088   452.000    74.400     4.980
   110.800    52.880      .088   451.500    74.210     4.910
   110.850    52.860      .088   451.300    74.040     4.950
   110.900    52.860      .088   451.300    73.780     5.170
   110.950    52.870      .089   451.500    73.540     5.360
   111.000    52.860      .089   451.700    73.230     5.650
   111.050    52.830      .089   451.800    73.000     5.950
   111.100    52.810      .090   451.500    72.760     5.990
   111.150    52.780      .090   449.400    72.520     6.050
   111.200    52.710      .090   445.300    72.240     6.390
   111.250    52.570      .090   442.200    71.920     6.620
   111.300    52.400      .090   444.700    71.680     6.830
   111.350    52.080      .090   447.100    71.460     6.590
   111.400    51.300      .090   449.600    71.250     6.270
   111.450    50.580      .090   452.000    70.890     6.060
   111.500    49.750      .091   453.600    70.600     6.050
   111.550    49.170      .091   453.300    70.270     5.990
   111.600    48.980      .091   453.000    69.890     5.830
   111.650    48.960      .091   453.400    69.460     5.680
   111.700    49.070      .092   454.000    69.020     5.610
   111.750    49.290      .092   455.200    68.640     5.560
   111.800    49.450      .093   456.400    68.130     5.540
   111.850    49.530      .093   457.700    67.720     5.570
   111.900    49.520      .094   459.100    67.180     5.630
   111.950    49.390      .094   459.000    66.140     5.610
   112.000    49.170      .094   457.300    65.460     5.590
   112.050    48.830      .094   455.800    64.510     5.580
   112.100    48.470      .094   456.000    63.880     5.490
   112.150    48.010      .094   457.400    63.500     5.310
   112.200    47.450      .094   458.900    63.420     5.180
   112.250    46.970      .094   461.000    63.350     5.280
