~Version Information Block
 VERS.                2.00:     CWLS LOG ASCII STANDARD - VERSION 2.000000
 WRAP.                  NO:     One Line Per Depth Step
#
~Well Information Block
#MNEM.UNIT                     Data                         Information
#----------   ------------------------------------------   ----------------
 STRT.M                                         0.0000:
 STOP.M                                       171.0000:
 STEP.M                                         0.0200:
 NULL.                                       -999.2500:
 COMP.                                                :     COMPANY
 WELL.                                        B62B0838:     WELL
 FLD .                                                :     FIELD
 CNTY.                                                :     COUNTY
 STAT.                                                :     STATE
 CTRY.                                                :     COUNTRY
 SRVC.                                                :     SERVICE COMPANY
 DATE.                                                :     DATE
 API .                                                :     API NUMBER
 UWI .                                                :     UWI NUMBER
#
~Curve Information Block
#MNEM.UNIT       API CODE      Curve Description
#----------    -------------   -------------------
 DEPT.M                    :   Depth in Meters
 SN20.OHM-M                :   SN20
 LN100.OHM-M               :   LN100
 CALI.CM                   :   Calr
 GAM(NAT) .CPS             :   GAM(NAT)
#
~Parameter Information Block
#MNEM.UNIT            Value               Description
#----------    --------------------    -------------------
 PDAT.                            :    Permanent Datum
 EPD .M                     0.0000:    Elevation Of Perm. Datum
 WSTA.                         LOC:    
 E   .M                     0.0000:    E (Stretch Coefficient Of The Cable)
 TD  .M                   171.0000:    Total Depth
#
~Other Information Block
<DescLogPlotStart>   NEURALOG PLOT DEFINITION
PLOTDEFVERSION: 3
LASFILE: V:\a4\j4\p44009\boorgatmetingen\SCANS TE VERWERKEN IN DINO\wlg\B62B083
DEPTHSCALE: 200.000000
RESOLUTION: 600
DEPTHLABELFREQ: 50.000000
HEAVYGRIDFREQ: 50.000000
MEDIUMGRIDFREQ: 25.000000
LIGHTGRIDFREQ: 5.000000
#
#   TRACK 1
#
STARTTRACK: 
 LEFTX: 13.760000 inch
 RIGHTX: 15.010000 inch
 SCALETYPE: LINEAR
 NUMCHARTDIVISIONS: 10
CURVE: CALI  30.000000  50.000000  (0,0,255)      Solid             2     N    
ENDTRACK: 
#
#   TRACK 2
#
STARTTRACK: 
 LEFTX: 16.551667 inch
 RIGHTX: 21.551667 inch
 SCALETYPE: LINEAR
 NUMCHARTDIVISIONS: 10
CURVE: GAM(NAT)   0.000000   50.000000  (0,131,131)    Solid             2     N    
ENDTRACK: 
#
#   TRACK 3
#
STARTTRACK: 
 LEFTX: 15.343333 inch
 RIGHTX: 21.240000 inch
 SCALETYPE: LINEAR
 NUMCHARTDIVISIONS: 10
CURVE: SN20  0.000000   100.000000 (255,0,255)    Solid             2     Y    
CURVE: LN100  0.000000   100.000000 (255,0,0)      Dot               2     Y    
ENDTRACK: 
<DescLogPlotEnd>
~Other Information
#MNEM.UNIT  Information      Description
#---------- ---------------  ------------------------
# --------------------------
## COMMENTS    Top_Depth   Bot_Depth  LithCode  Lat    Long   Elev_Gl 
##	0.0	31.2	0.0
##	31.25	97.0	25.0
##	97.05	97.5	11.0
##	97.55	104.0	12.0
##	104.05	110.1	11.0
##	110.15	111.7	12.0
##	111.75	113.1	11.0
##	113.15	116.6	12.0
##	116.65	124.1	11.0
##	124.15	125.9	12.0
##	125.95	139.0	11.0
##	139.05	140.0	10.0
##	140.05	145.5	11.0
##	145.55	146.3	10.0
##	146.35	148.0	12.0
##	148.05	149.4	10.0
##	149.45	150.0	11.0
##	150.05	151.9	10.0
##	151.95	152.6	11.0
##	152.65	155.0	10.0
##	155.05	160.9	14.0
##	160.95	163.2	11.0
##	163.25	164.0	10.0
##	164.05	167.8	11.0
##	167.85	170.0	10.0
##	170.05	171.95	11.0
# --------------------------
~A  DEPTH         SN20             LN100            CALI             GAM(NAT)  
# ...
      57.140      31.93810378      45.90244596      39.26658003      17.08657423
      57.160      31.68195026      45.85924251      39.29894180      17.31145048
      57.180      31.42579675      45.85924251      39.37949503      17.46009172
      57.200      31.16964324      45.85924251      39.40476190      17.63218213
      57.220      30.91348972      45.85924251      39.43121693      17.75179127
      57.240      30.65733621      45.85924251      39.40476190      17.95717566
      57.260      30.51158847      45.85924251      39.40402550      18.10111600
      57.280      30.51158847      45.85924251      39.26225440      18.09186448
      57.300      30.51158847      45.85924251      39.20583867      18.00779002
      57.320      30.51158847      45.85924251      39.05734088      17.87457653
      57.340      30.53985302      45.88750707      38.99456666      17.71984408
      57.360      30.53985302      45.84382097      38.90855843      17.52165246
      57.380      30.53985302      45.79523899      38.74991182      17.24285124
      57.400      30.53985302      45.72815117      38.58804418      16.91126418
      57.420      30.53985302      45.71791973      38.53174603      16.74876742
      57.440      30.53985302      45.71791973      38.41614530      16.68075752
      57.460      30.45407423      45.71791973      38.31408150      16.61312141
      57.480      30.43053365      45.71791973      38.26414184      16.79912073
      57.500      30.28547202      45.71791973      38.18783069      16.82428651
      57.520      30.28547202      45.63058685      38.16504842      16.82307222
      57.540      30.32088701      45.39487287      38.12253783      16.77141959
      57.560      30.34200113      45.15915889      38.08201058      16.49720655
      57.580      30.34200774      44.92344491      38.08201058      16.22524014
      57.600      30.42679480      44.68773093      38.08201058      16.12080167
      57.620      30.51127772      44.45201695      38.08201058      15.92615006
      57.640      30.59638214      44.21630297      38.08201058      15.76683833
      57.660      30.65291125      43.98058899      38.08201058      15.67108081
      57.680      30.73397267      43.74487501      38.12667162      15.45167083
      57.700      30.84297799      43.50916103      38.16137566      15.39790605
      57.720      31.00947111      43.27344705      38.16137566      15.28120606
      57.740      31.07687959      43.03773307      38.18684365      15.20967196
      57.760      31.22844042      42.80201909      38.21428571      15.37331379
      57.780      31.35205736      42.56630511      38.26719577      15.55208871
      57.800      31.41914519      42.33059113      38.29580123      15.92122568
      57.820      31.49988264      42.09487715      38.35857545      16.07350978
      57.840      31.52911249      42.04352742      38.42592593      16.27430006
      57.860      31.61390616      42.43272870      38.45766886      16.47107963
      57.880      31.63096738      42.23552144      38.50914013      16.54072110
      57.900      31.67043527      42.13025498      38.53174603      16.62635198
      57.920      31.72696439      42.05196381      38.56662644      16.66384850
      57.940      31.72696439      41.94605271      38.57453201      16.71060839
      57.960      31.72973134      41.89667073      38.61280980      16.62677322
      57.980      31.75522894      41.71929163      38.77702487      16.64693947
      58.000      31.72696439      41.72823712      38.67240117      16.68802544
      58.020      31.69869983      41.64782363      38.56777747      16.81148509
      58.040      31.69869983      41.60282183      38.53174603      17.01895591
      58.060      31.69869983      41.53573400      38.53174603      17.21580470
      58.080      31.69869983      41.47773050      38.52377239      17.35040255
      58.100      31.69869983      41.40155835      38.45238095      17.48137535
      58.120      31.67043527      41.33691351      38.45238095      17.54790002
      58.140      31.67043527      41.28264556      38.45238095      17.65167399
      58.160      31.67043527      41.22385529      38.42592593      17.61075414
      58.180      31.67043527      41.13906162      38.42592593      17.57693608
      58.200      31.68684855      41.06611923      38.39947090      17.39740372
      58.220      31.69869983      40.97205941      38.39947090      17.27257355
      58.240      31.69869983      40.80961921      38.39947090      17.39060847
      58.260      31.69869983      40.77162239      38.37301587      17.50978054
      58.280      31.72696439      40.74123881      38.37301587      17.30334205
      58.300      31.72696439      40.66147326      38.37301587      17.00531201
      58.320      31.72696439      40.57879861      38.37301587      16.51462186
      58.340      31.76075954      40.47238503      38.34656085      16.24911846
      58.360      31.82784736      40.34373998      38.36035768      15.80080273
      58.380      31.86667063      40.23782889      38.37301587      15.43306101
      58.400      31.93375846      40.17806670      38.38008602      15.14305434
      58.420      32.00084628      40.13030126      38.29786503      14.94047428
      58.440      32.07152420      39.97662472      38.42592593      14.76784199
      58.460      32.17919729      39.89542114      38.40967852      14.38205507
      58.480      32.30446382      39.84424411      38.42592593      14.04235959
      58.500      32.38225581      39.77194966      38.37301587      13.96641333
      58.520      32.46184285      39.69756925      38.37301587      13.83973998
      58.540      32.54275551      39.61471608      38.32335159      13.70030674
      58.560      32.63143019      39.52798191      38.26719577      13.81892506
      58.580      32.68795930      39.47145280      38.26719577      13.95619078
      58.600      32.74595949      39.44024608      38.18804728      14.05971953
      58.620      32.82928208      39.37462934      38.18783069      14.13996523
      58.640      32.88013514      39.30754151      38.16137566      14.19076154
      58.660      32.95210563      39.26383558      38.16440484      14.26276632
      58.680      33.02713397      39.21707179      38.25105542      14.29615720
      58.700      33.05539853      39.18880724      38.30127479      14.49040536
      58.720      33.08366309      39.13227812      38.34656085      14.69617342
      58.740      33.08366309      39.13227812      38.38041471      14.83101057
      58.760      33.08481020      39.13227812      38.40938743      14.88840041
      58.780      33.11192764      39.12057230      38.43836015      14.95603652
      58.800      33.14019220      39.08174903      38.46733286      14.94378489
      58.820      33.08366309      39.10401357      38.49630558      14.95768392
      58.840      33.06854568      39.13227812      38.52527830      15.05749070
      58.860      33.02972241      39.15795424      38.48995107      15.23288183
      58.880      33.02713397      39.16054268      38.43614459      15.33534066
      58.900      33.02713397      39.18880724      38.38233812      15.36880472
      58.920      32.96978172      39.13310127      38.32853165      15.36185323
      58.940      32.91957659      39.18880724      38.27472517      15.35060230
      58.960      32.87458273      39.36136318      38.22091870      15.37174551
      58.980      32.75382464      39.35415985      38.60898543      15.18128853
      59.000      32.64490131      39.37318801      38.59664594      15.28180727
      59.020      32.55246133      39.43736343      38.61111111      15.44566269
      59.040      32.49543304      39.47909910      38.63756614      15.79467099
      59.060      32.38710872      39.55433241      38.63756614      15.93199406
      59.080      32.28975964      39.58550937      38.63756614      16.05231713
      59.100      32.08334573      39.64104014      38.62916551      16.11041893
