~Version Information
 VERS.                2.0:  CWLS LOG ASCII STANDARD -VERSION 2.0
 WRAP.                 NO:  ONE LINE PER DEPTH STEP
~WELL INFORMATION BLOCK
#MNEM.UNIT       DATA		            DESCRIPTION OF MNEMONIC
#---------    -------------            ------------------------
 STRT.M      .450                        :START DEPTH
 STOP.M   #######                        :STOP DEPTH
 STEP.M      .050                        :STEP
 NULL.    -999999.0                      :NULL VALUE
 COMP.       SCHIFOOD                    :COMPANY
 WELL.                          B62B0897 :WELL
 FLD .    Heerlen                        :FIELD
 CNTY.                                   :COUNTY
 STAT.                                   :STATE
 SRVC.                                   :SERVICE COMPANY
 DATE.     10-DEC-90                     :LOG DATE
 UWI .                                   :UNIQUE WELL ID
 LIC .                                   :LICENSE NUMBER
~Curve Information Block
#MNEM.UNIT      API CODE     Curve Description
#---------    -------------  ------------------------
DEPTH    .M         00 000 00 00          :  1  DEPTH
SN40     .OHM.M     00 000 00 00          :  2  SN40
SP       .V         00 000 00 00          :  3  SP
CAL      .MM        00 000 00 00          :  4  CAL
LN160    .OHM.M     00 000 00 00          :  5  LN160
GAMMA    .CPS       00 000 00 00          :  6  GAMMA
~Parameter Information Block
#MNEM.UNIT   Information     Description
#---------- ---------------  ------------------------
 FILE.                         :File Type
 FIID.                         :File Type Identifier
 VERS.                         :System Version
 SER .                         :System Serial Number
 TRUK.                         :Truck Calibration Number
 TOOL.                         :Tool Serial Number
 TIME.                         :Time    HrHrMinMin
 LAT .                         :Latitude
 LON .                         :Longitude
 LMF .            MV           :LOG Measured FROM
 DMF .                         :Driller Measured From
 PD  .                         :Permanent Data
 PDEV.                         :Elevation Permanent Data
 EKB .M                        :Elevation Kelly Bushing
 ELEV.DF                       :Elevation DF
 EGL .M                        :Elevation Ground Level
 DRDP.                         :Drillers Depth
 CASD.                         :Casing Diameter
 CASB.                         :Casing Bottom
 CASX.                         :Casing Type
 CAST.                         :Casing Thickness
 TNOC.                         :Time Circulation Stopped
 LOGU.                         :Logging Unit
 RECB.            Bergsma      :Recorded By
 OSR1.                         :Other Services
 OSR2.                         :Other Services
 OSR3.                         :Other Services
 BS  .MM                       :Bit Size
 MST .                         :Mean Surface Temperature
 TGRD.                         :Temperature Gradiant
 MAGN.                         :Magnetic Declination
 MDEN.                         :Density Matrix
 MATR.                         :Neutron Matrix
 DTMT.                         :Delta T Matrix
 DTFL.                         :Delta T Fluid
 MUDS.                         :Mud Sample Source
 MRS .                         :Mud Resistivity
 MTP .                         :Mud Temperature
 MFRS.                         :Resistivity Mud Filtrate
 MFTP.                         :Temperature Mud Filtrate
 MCRS.                         :Resistivity Mud Cake
 MCTP.                         :Temperature Mud Cake
 FTYP.                         :Fluid Type
 FD  .K/M3                     :Fluid Density
 DFV .S                        :Fluid Viscosity
 FPH .                         :Fuild PH
 ELCO.                         :Electron Cutoff
~Other Information
#MNEM.UNIT  Information      Description
#---------- ---------------  ------------------------
# --------------------------
## COMMENTS    Top_Depth   Bot_Depth  LithCode  Lat    Long   Elev_Gl
##    Type of LithCode   Lithologie - 1970
##                    .00         .00         .00     
##                    .45        6.00         .00     
##                   6.05        8.10        2.00     
##                   8.15       15.30       23.00     
##                  15.35       18.50       22.00     
##                  18.55       20.80       11.00     
##                  20.85       22.35       12.00     
##                  22.40       23.40       11.00     
##                  23.45       25.30       12.00     
##                  25.35       26.25       11.00     
##                  26.30       27.80       12.00     
##                  27.85       35.10       11.00     
##                  35.15       47.80       12.00     
##                  47.85       50.40        6.00     
##                  50.45       52.00       23.00     
##                  52.05       53.20       11.00     
##                  53.25       54.60       12.00     
##                  54.65       55.50       11.00     
##                  55.55       56.50       12.00     
##                  56.55       57.25       11.00     
##                  57.30       58.60       12.00     
##                  58.65       64.40       11.00     
##                  64.45       71.10        9.00     
##                  71.15       74.20        7.00     
##                  74.25       75.90        9.00     
##                  75.95       78.90        7.00     
##                  78.95       93.30        9.00     
##                  93.35       95.20       10.00     
##                  95.25       97.60        9.00     
##                  97.65       99.95       10.00     
##                 100.00      100.00         .00     
##                 100.05      126.75     #######     
##    last_layer   126.75
# --------------------------
~A DEPTH    SN40     SP       CAL      LN160    GAMMA    
# ...
    72.650    43.150      .063   543.200    61.900    12.040
    72.700    43.060      .063   542.900    61.780    12.070
    72.750    42.970      .063   542.800    61.640    12.220
    72.800    42.870      .063   542.900    61.540    12.370
    72.850    42.790      .063   543.100    61.420    12.540
    72.900    42.700      .063   543.300    61.320    12.570
    72.950    42.610      .063   543.400    61.250    12.480
    73.000    42.520      .063   543.600    61.110    12.460
    73.050    42.440      .063   543.800    61.000    12.430
    73.100    42.360      .063   543.900    60.920    12.440
    73.150    42.290      .063   544.100    60.770    12.450
    73.200    42.220      .063   544.300    60.660    12.420
    73.250    42.150      .063   544.500    60.410    12.370
    73.300    42.090      .063   542.400    60.230    12.350
    73.350    42.040      .063   539.900    60.030    12.260
    73.400    41.980      .063   538.400    59.730    12.100
    73.450    41.890      .063   537.600    59.390    12.080
    73.500    41.780      .063   537.100    59.080    12.180
    73.550    41.690      .063   536.700    58.770    12.330
    73.600    41.580      .063   536.300    58.420    12.570
    73.650    41.460      .063   536.000    58.060    12.750
    73.700    41.360      .063   535.700    57.750    12.760
    73.750    41.280      .063   536.800    57.390    12.600
    73.800    41.140      .063   537.500    57.110    12.420
    73.850    41.010      .063   537.600    56.840    12.230
    73.900    40.900      .063   537.500    56.650    12.150
    73.950    40.810      .063   537.600    56.500    12.110
    74.000    40.640      .063   537.700    56.350    12.060
    74.050    40.460      .063   537.700    56.230    12.000
    74.100    40.290      .063   534.800    56.140    11.980
    74.150    40.030      .063   532.700    56.040    12.140
    74.200    39.820      .063   531.200    55.960    12.340
    74.250    39.580      .063   531.100    55.890    12.430
    74.300    39.190      .063   531.100    55.810    12.310
    74.350    38.800      .063   530.400    55.750    12.250
    74.400    38.410      .063   530.000    55.670    12.270
    74.450    38.020      .063   530.100    55.600    12.340
    74.500    37.670      .063   533.200    55.530    12.360
    74.550    37.390      .063   539.300    55.510    12.410
    74.600    37.180      .063   545.400    55.490    12.450
    74.650    36.950      .063   551.400    55.470    12.490
    74.700    36.850      .063   553.600    55.460    12.370
    74.750    36.720      .063   546.800    55.450    12.180
    74.800    36.620      .064   540.000    55.440    12.090
    74.850    36.560      .064   533.200    55.410    12.130
    74.900    36.490      .064   534.700    55.380    12.160
    74.950    36.420      .064   540.100    55.330    12.200
    75.000    36.310      .064   545.400    55.270    12.190
    75.050    36.120      .064   550.800    55.180    12.100
    75.100    36.000      .064   555.800    55.090    11.830
    75.150    35.940      .063   536.200    55.010    11.550
    75.200    35.920      .063   538.500    54.930    11.270
    75.250    35.940      .063   540.700    54.860    11.070
    75.300    35.970      .063   542.900    54.790    11.140
    75.350    36.030      .063   545.200    54.720    11.190
    75.400    36.130      .063   547.400    54.650    11.210
    75.450    36.210      .063   546.100    54.590    11.260
    75.500    36.350      .063   543.100    54.570    11.350
    75.550    36.500      .063   540.000    54.550    11.600
    75.600    36.670      .063   532.600    54.550    11.780
    75.650    36.850      .063   528.900    54.550    11.920
    75.700    37.030      .063   527.800    54.560    11.790
    75.750    37.210      .063   531.900    54.570    11.770
    75.800    37.390      .063   538.800    54.580    11.780
    75.850    37.630      .063   545.600    54.590    11.730
    75.900    37.900      .063   552.500    54.670    11.610
    75.950    38.140      .063   551.900    54.740    11.310
    76.000    38.420      .063   541.200    54.850    11.200
    76.050    38.690      .063   545.600    54.950    11.500
    76.100    38.990      .063   549.900    55.030    11.680
    76.150    39.160      .063   554.300    55.130    11.710
    76.200    39.220      .063   545.500    55.220    11.690
    76.250    39.250      .063   531.200    55.280    11.690
    76.300    39.270      .063   534.700    55.340    11.690
    76.350    39.290      .063   538.500    55.380    11.710
    76.400    39.320      .063   542.200    55.400    11.360
    76.450    39.350      .063   546.000    55.400    10.790
    76.500    39.380      .063   549.800    55.380    10.490
    76.550    39.400      .063   553.600    55.360    10.520
    76.600    39.420      .063   548.800    55.330    10.620
    76.650    39.430      .063   540.300    55.310    10.680
    76.700    39.420      .063   531.800    55.290    10.870
    76.750    39.420      .063   523.300    55.290    11.160
    76.800    39.420      .063   527.300    55.280    11.460
    76.850    39.420      .063   531.200    55.260    11.750
    76.900    39.420      .063   532.600    55.240    12.040
    76.950    39.420      .063   532.700    55.140    11.910
    77.000    39.420      .064   532.500    55.040    11.610
    77.050    39.420      .064   532.400    54.950    11.310
    77.100    39.420      .064   532.300    54.860    11.050
    77.150    39.430      .064   531.600    54.760    10.920
    77.200    39.430      .064   529.400    54.640    10.830
    77.250    39.430      .064   528.800    54.510    10.900
    77.300    39.420      .064   528.400    54.360    11.010
    77.350    39.410      .064   528.600    54.220    11.160
    77.400    39.400      .065   533.400    54.050    11.330
    77.450    39.400      .065   541.200    53.930    11.350
    77.500    39.390      .066   549.000    53.810    11.360
    77.550    39.360      .066   552.000    53.680    11.440
    77.600    39.320      .067   543.200    53.520    11.600
    77.650    39.270      .067   534.400    53.410    11.820
    77.700    39.220      .067   525.500    53.300    12.060
    77.750    39.170      .067   533.200    53.230    12.270
    77.800    39.120      .067   540.900    53.120    12.380
    77.850    39.070      .067   548.600    53.020    12.450
    77.900    39.020      .067   557.400    52.940    12.400
    77.950    38.960      .067   548.400    52.870    12.380
    78.000    38.860      .067   539.500    52.830    12.410
    78.050    38.760      .067   531.100    52.780    12.470
    78.100    38.630      .067   539.000    52.690    12.400
    78.150    38.480      .067   547.000    52.560    12.270
    78.200    38.330      .067   554.900    52.430    12.160
    78.250    38.220      .067   553.000    52.260    12.160
    78.300    38.000      .067   543.500    52.080    12.300
    78.350    37.740      .067   532.700    51.890    12.490
    78.400    37.530      .067   537.600    51.660    12.700
    78.450    37.270      .067   542.500    51.420    12.900
    78.500    37.030      .067   547.400    51.180    13.050
    78.550    36.700      .067   552.300    50.940    13.150
    78.600    36.490      .067   557.000    50.700    13.150
    78.650    36.280      .067   539.800    50.460    12.890
    78.700    36.020      .067   544.700    50.220    12.710
    78.750    35.680      .068   549.600    49.980    12.450
    78.800    35.460      .068   554.500    49.740    12.250
    78.850    35.190      .068   560.700    49.500    12.260
    78.900    34.920      .068   553.400    49.300    12.440
    78.950    34.650      .068   545.000    49.120    12.940
    79.000    34.380      .068   548.500    48.930    13.110
    79.050    34.150      .068   552.100    48.750    13.240
    79.100    33.790      .068   555.700    48.570    13.310
    79.150    33.460      .068   559.300    48.380    13.370
    79.200    33.170      .068   554.900    48.210    13.460
