~Version Information
 VERS.                2.0:  CWLS LOG ASCII STANDARD -VERSION 2.0
 WRAP.                 NO:  ONE LINE PER DEPTH STEP
~WELL INFORMATION BLOCK
#MNEM.UNIT       DATA		            DESCRIPTION OF MNEMONIC
#---------    -------------            ------------------------
 STRT.M      .450                        :START DEPTH
 STOP.M   #######                        :STOP DEPTH
 STEP.M      .050                        :STEP
 NULL.    -999999.0                      :NULL VALUE
 COMP.       SCHIFOOD                    :COMPANY
 WELL.                          B62B0897 :WELL
 FLD .    Heerlen                        :FIELD
 CNTY.                                   :COUNTY
 STAT.                                   :STATE
 SRVC.                                   :SERVICE COMPANY
 DATE.     10-DEC-90                     :LOG DATE
 UWI .                                   :UNIQUE WELL ID
 LIC .                                   :LICENSE NUMBER
~Curve Information Block
#MNEM.UNIT      API CODE     Curve Description
#---------    -------------  ------------------------
DEPTH    .M         00 000 00 00          :  1  DEPTH
SN40     .OHM.M     00 000 00 00          :  2  SN40
SP       .V         00 000 00 00          :  3  SP
CAL      .MM        00 000 00 00          :  4  CAL
LN160    .OHM.M     00 000 00 00          :  5  LN160
GAMMA    .CPS       00 000 00 00          :  6  GAMMA
~Parameter Information Block
#MNEM.UNIT   Information     Description
#---------- ---------------  ------------------------
 FILE.                         :File Type
 FIID.                         :File Type Identifier
 VERS.                         :System Version
 SER .                         :System Serial Number
 TRUK.                         :Truck Calibration Number
 TOOL.                         :Tool Serial Number
 TIME.                         :Time    HrHrMinMin
 LAT .                         :Latitude
 LON .                         :Longitude
 LMF .            MV           :LOG Measured FROM
 DMF .                         :Driller Measured From
 PD  .                         :Permanent Data
 PDEV.                         :Elevation Permanent Data
 EKB .M                        :Elevation Kelly Bushing
 ELEV.DF                       :Elevation DF
 EGL .M                        :Elevation Ground Level
 DRDP.                         :Drillers Depth
 CASD.                         :Casing Diameter
 CASB.                         :Casing Bottom
 CASX.                         :Casing Type
 CAST.                         :Casing Thickness
 TNOC.                         :Time Circulation Stopped
 LOGU.                         :Logging Unit
 RECB.            Bergsma      :Recorded By
 OSR1.                         :Other Services
 OSR2.                         :Other Services
 OSR3.                         :Other Services
 BS  .MM                       :Bit Size
 MST .                         :Mean Surface Temperature
 TGRD.                         :Temperature Gradiant
 MAGN.                         :Magnetic Declination
 MDEN.                         :Density Matrix
 MATR.                         :Neutron Matrix
 DTMT.                         :Delta T Matrix
 DTFL.                         :Delta T Fluid
 MUDS.                         :Mud Sample Source
 MRS .                         :Mud Resistivity
 MTP .                         :Mud Temperature
 MFRS.                         :Resistivity Mud Filtrate
 MFTP.                         :Temperature Mud Filtrate
 MCRS.                         :Resistivity Mud Cake
 MCTP.                         :Temperature Mud Cake
 FTYP.                         :Fluid Type
 FD  .K/M3                     :Fluid Density
 DFV .S                        :Fluid Viscosity
 FPH .                         :Fuild PH
 ELCO.                         :Electron Cutoff
~Other Information
#MNEM.UNIT  Information      Description
#---------- ---------------  ------------------------
# --------------------------
## COMMENTS    Top_Depth   Bot_Depth  LithCode  Lat    Long   Elev_Gl
##    Type of LithCode   Lithologie - 1970
##                    .00         .00         .00     
##                    .45        6.00         .00     
##                   6.05        8.10        2.00     
##                   8.15       15.30       23.00     
##                  15.35       18.50       22.00     
##                  18.55       20.80       11.00     
##                  20.85       22.35       12.00     
##                  22.40       23.40       11.00     
##                  23.45       25.30       12.00     
##                  25.35       26.25       11.00     
##                  26.30       27.80       12.00     
##                  27.85       35.10       11.00     
##                  35.15       47.80       12.00     
##                  47.85       50.40        6.00     
##                  50.45       52.00       23.00     
##                  52.05       53.20       11.00     
##                  53.25       54.60       12.00     
##                  54.65       55.50       11.00     
##                  55.55       56.50       12.00     
##                  56.55       57.25       11.00     
##                  57.30       58.60       12.00     
##                  58.65       64.40       11.00     
##                  64.45       71.10        9.00     
##                  71.15       74.20        7.00     
##                  74.25       75.90        9.00     
##                  75.95       78.90        7.00     
##                  78.95       93.30        9.00     
##                  93.35       95.20       10.00     
##                  95.25       97.60        9.00     
##                  97.65       99.95       10.00     
##                 100.00      100.00         .00     
##                 100.05      126.75     #######     
##    last_layer   126.75
# --------------------------
~A DEPTH    SN40     SP       CAL      LN160    GAMMA    
# ...
    59.450    15.580      .069   562.500    15.550    11.710
    59.500    15.570      .068   559.900    15.450    11.880
    59.550    15.500      .068   561.800    15.340    12.210
    59.600    15.410      .068   563.600    15.270    12.570
    59.650    15.260      .068   565.900    15.210    12.880
    59.700    15.010      .068   566.400    15.180    13.200
    59.750    14.740      .068   565.100    15.160    13.320
    59.800    14.390      .068   565.800    15.130    13.700
    59.850    13.890      .068   567.200    15.130    14.120
    59.900    13.650      .067   568.800    15.150    14.540
    59.950    12.940      .067   569.000    15.150    15.030
    60.000    12.520      .067   568.400    15.150    15.740
    60.050    12.110      .067   567.900    15.130    16.430
    60.100    11.650      .067   567.300    15.110    17.130
    60.150    11.040      .067   566.000    15.100    18.130
    60.200    10.610      .067   565.000    15.080    18.220
    60.250    10.380      .067   560.000    15.050    18.890
    60.300    10.150      .067   551.000    15.010    19.230
    60.350     9.980      .067   541.900    14.960    19.460
    60.400     9.910      .067   529.500    14.870    19.220
    60.450     9.900      .067   527.800    14.800    18.140
    60.500     9.880      .067   520.800    14.730    17.620
    60.550     9.870      .067   512.500    14.660    17.250
    60.600     9.850      .067   521.000    14.520    17.150
    60.650     9.830      .067   529.500    14.380    17.070
    60.700     9.810      .068   538.000    14.290    17.000
    60.750     9.800      .068   546.500    14.200    16.870
    60.800     9.790      .068   555.000    14.130    16.650
    60.850     9.790      .068   563.500    14.070    16.110
    60.900     9.800      .068   559.200    14.020    15.590
    60.950     9.820      .068   551.600    13.960    15.220
    61.000     9.870      .068   555.200    13.920    15.080
    61.050     9.950      .068   558.800    13.910    14.600
    61.100    10.060      .068   562.400    13.920    14.620
    61.150    10.180      .068   566.000    13.950    14.710
    61.200    10.390      .068   569.300    13.980    14.780
    61.250    10.450      .068   559.500    14.010    14.830
    61.300    10.470      .069   549.800    14.050    14.950
    61.350    10.450      .069   540.000    14.120    15.050
    61.400    10.410      .069   544.600    14.180    15.250
    61.450    10.340      .069   549.200    14.300    15.800
    61.500    10.250      .069   553.900    14.430    16.220
    61.550     9.990      .069   558.500    14.580    17.070
    61.600     9.840      .069   550.800    14.730    17.450
    61.650     9.730      .069   548.800    14.870    17.630
    61.700     9.710      .069   540.200    15.020    17.910
    61.750     9.710      .069   527.700    15.170    17.880
    61.800     9.740      .069   515.300    15.320    17.870
    61.850     9.760      .069   502.900    15.490    17.960
    61.900     9.830      .069   493.000    15.760    18.150
    61.950     9.910      .069   499.200    16.060    18.260
    62.000    10.020      .069   505.400    16.290    18.510
    62.050    10.140      .069   511.500    16.660    18.650
    62.100    10.280      .069   515.600    16.910    18.440
    62.150    10.520      .069   520.600    17.200    18.130
    62.200    10.730      .069   532.100    17.550    17.160
    62.250    10.990      .069   543.700    17.720    17.140
    62.300    11.210      .069   548.100    17.890    17.130
    62.350    11.420      .069   544.900    18.020    16.850
    62.400    11.650      .069   541.700    18.110    16.460
    62.450    11.940      .069   543.000    18.150    15.830
    62.500    12.250      .069   553.000    18.190    15.570
    62.550    12.500      .069   563.000    18.130    15.350
    62.600    12.900      .069   563.100    18.060    15.040
    62.650    13.310      .069   551.100    17.980    14.630
    62.700    13.680      .069   539.900    17.900    14.240
    62.750    14.060      .068   545.200    17.810    13.810
    62.800    14.510      .068   550.500    17.750    13.430
    62.850    14.820      .068   544.100    17.720    13.410
    62.900    15.300      .068   548.300    17.770    13.510
    62.950    15.760      .068   552.400    17.830    13.500
    63.000    16.670      .068   556.600    17.890    13.310
    63.050    17.190      .068   560.700    17.940    13.230
    63.100    17.530      .068   564.800    18.040    13.210
    63.150    18.020      .068   568.700    18.190    13.350
    63.200    18.250      .068   562.300    18.370    13.570
    63.250    18.450      .068   555.900    18.620    13.740
    63.300    18.550      .068   549.500    18.910    13.680
    63.350    18.580      .068   542.800    19.260    13.530
    63.400    18.600      .068   554.100    19.560    13.530
    63.450    18.620      .068   565.400    19.850    13.660
    63.500    18.620      .068   567.100    20.210    13.920
    63.550    18.640      .069   551.500    20.460    14.120
    63.600    18.690      .069   535.800    20.730    14.100
    63.650    18.760      .069   521.500    20.980    14.130
    63.700    18.850      .069   534.400    21.350    14.150
    63.750    18.990      .069   547.200    21.820    14.330
    63.800    19.130      .069   560.100    22.210    14.500
    63.850    19.190      .069   573.000    22.600    14.750
    63.900    19.250      .069   572.000    22.900    14.850
    63.950    19.330      .069   571.300    23.380    14.830
    64.000    19.410      .069   571.800    23.810    14.610
    64.050    19.530      .069   579.300    24.130    14.230
    64.100    19.650      .069   586.800    24.600    13.850
    64.150    19.760      .069   592.700    25.080    13.470
    64.200    20.010      .069   581.800    25.530    13.090
    64.250    20.380      .069   584.700    25.890    12.710
    64.300    20.620      .069   569.800    26.380    12.330
    64.350    20.890      .070   559.800    26.820    11.950
    64.400    21.190      .070   550.900    27.250    11.840
    64.450    21.480      .070   556.600    27.590    11.760
    64.500    21.750      .070   562.300    28.110    11.670
    64.550    22.000      .071   568.000    28.530    11.560
    64.600    22.250      .071   573.700    29.070    11.480
    64.650    22.500      .071   579.500    29.500    11.450
    64.700    22.700      .071   571.500    29.920    11.390
    64.750    22.920      .071   568.600    30.250    11.320
    64.800    23.060      .071   572.200    30.670    11.220
    64.850    23.210      .071   575.400    31.090    11.080
    64.900    23.370      .071   582.800    31.530    11.060
    64.950    23.560      .070   584.000    31.970    11.260
    65.000    23.690      .070   577.800    32.470    11.520
    65.050    23.790      .070   575.400    32.980    11.730
    65.100    24.010      .069   573.700    33.400    11.840
    65.150    24.210      .069   580.800    34.090    11.920
    65.200    24.380      .069   586.000    34.490    11.790
    65.250    24.530      .068   586.600    34.880    11.700
    65.300    24.660      .068   573.800    35.470    11.630
    65.350    24.980      .067   575.300    35.820    11.570
    65.400    25.280      .067   579.400    36.170    11.510
    65.450    25.650      .067   580.500    36.460    11.360
    65.500    26.010      .066   569.300    36.700    11.180
    65.550    26.300      .066   556.400    36.860    10.910
    65.600    26.620      .066   552.200    36.970    10.800
    65.650    26.970      .065   555.600    37.060    10.590
    65.700    27.260      .065   560.300    37.170    10.550
    65.750    27.590      .064   565.000    37.280    10.690
    65.800    28.030      .064   569.700    37.390    10.780
    65.850    28.520      .063   574.400    37.460    10.870
    65.900    29.060      .063   579.300    37.560    11.000
    65.950    29.530      .063   571.800    37.640    11.210
    66.000    30.340      .063   564.200    37.720    11.380
