~Version Information Block
 VERS.                2.00:     CWLS LOG ASCII STANDARD - VERSION 2.000000
 WRAP.                  NO:     One Line Per Depth Step
#
~Well Information Block
#MNEM.UNIT                     Data                         Information
#----------   ------------------------------------------   ----------------
 STRT.M                                         0.0000:
 STOP.M                                        32.0000:
 STEP.M                                         0.0200:
 NULL.                                       -999.2500:
 COMP.                                                :     COMPANY
 WELL.                                        B62B0912:     WELL
 FLD .                                                :     FIELD
 CNTY.                                                :     COUNTY
 STAT.                                                :     STATE
 CTRY.                                                :     COUNTRY
 SRVC.                                                :     SERVICE COMPANY
 DATE.                                                :     DATE
 API .                                                :     API NUMBER
 UWI .                                                :     UWI NUMBER
#
~Curve Information Block
#MNEM.UNIT       API CODE      Curve Description
#----------    -------------   -------------------
 DEPT.M                    :   Depth in Meters
 CAL .CM                   :   Cal
 GAM(NAT) .CPS             :   GAM(NAT)
 SP  .MV                   :   SP
 SN40.OHM-M                :   SN40
 LN160.OHM-M               :   LN160
#
~Parameter Information Block
#MNEM.UNIT            Value               Description
#----------    --------------------    -------------------
 PDAT.                            :    Permanent Datum
 EPD .M                     0.0000:    Elevation Of Perm. Datum
 WSTA.                         LOC:    
 E   .M                     0.0000:    E (Stretch Coefficient Of The Cable)
 TD  .M                    32.0000:    Total Depth
#
~Other Information Block
<DescLogPlotStart>   NEURALOG PLOT DEFINITION
PLOTDEFVERSION: 3
LASFILE: D:\NeurLrest_23_04_'08en 20_05\nlg_1\B62B0912.las
DEPTHSCALE: 200.000000
RESOLUTION: 600
DEPTHLABELFREQ: 50.000000
HEAVYGRIDFREQ: 50.000000
MEDIUMGRIDFREQ: 25.000000
LIGHTGRIDFREQ: 5.000000
#
#   TRACK 1
#
STARTTRACK: 
 LEFTX: 0.500000 inch
 RIGHTX: 3.000000 inch
 SCALETYPE: LINEAR
 NUMCHARTDIVISIONS: 10
CURVE: SP    0.000000   50.000000  (0,0,255)      Solid             2     N    
ENDTRACK: 
#
#   TRACK 2
#
STARTTRACK: 
 LEFTX: 3.500000 inch
 RIGHTX: 6.000000 inch
 SCALETYPE: LINEAR
 NUMCHARTDIVISIONS: 10
CURVE: CAL   0.000000   100.000000 (0,131,131)    Solid             2     N    
ENDTRACK: 
#
#   TRACK 3
#
STARTTRACK: 
 LEFTX: 6.000000 inch
 RIGHTX: 11.000000 inch
 SCALETYPE: LINEAR
 NUMCHARTDIVISIONS: 10
CURVE: SN40  0.000000   100.000000 (255,0,255)    Solid             2     N    
CURVE: LN160  0.000000   100.000000 (255,0,0)      Dot               2     N    
ENDTRACK: 
#
#   TRACK 4
#
STARTTRACK: 
 LEFTX: 11.000000 inch
 RIGHTX: 16.000000 inch
 SCALETYPE: LINEAR
 NUMCHARTDIVISIONS: 10
CURVE: GAM(NAT)   0.000000   50.000000  (255,131,0)    Solid             2     N    
ENDTRACK: 
<DescLogPlotEnd>
~A  DEPTH        CAL               GAM(NAT)         SP                SN40            LN160  
# ...
      25.120      28.15126471      25.30252101      20.50124834      47.17647059      46.86000000
      25.140      28.25462815      25.30252101      20.45429385      47.17647059      46.77976891
      25.160      28.35799159      25.30252101      20.44627992      47.17647059      46.77310924
      25.180      28.46135503      24.97840065      20.41330645      47.17647059      46.77310924
      25.200      28.56471846      24.53002811      20.41330645      47.17647059      46.77310924
      25.220      28.66808190      24.08165556      20.37970430      47.17647059      46.77310924
      25.240      28.77144534      23.63328302      20.35952133      47.17647059      46.77310924
      25.260      28.87480878      23.18491047      20.34610215      47.17647059      46.77310924
      25.280      28.97817222      22.73653793      20.27889785      47.17647059      46.77310924
      25.300      29.08153566      22.28816538      20.24529570      47.17647059      46.77310924
      25.320      29.18489910      21.83979284      20.21169355      47.17647059      46.77310924
      25.340      29.26747312      21.73949580      20.19226934      47.15392857      46.75056723
      25.360      29.26747312      21.73949580      20.07906261      47.14285714      46.73949580
      25.380      29.26747312      21.78669093      20.04368280      47.14285714      46.73949580
      25.400      29.26747312      21.85557836      20.01799341      47.14285714      46.73949580
      25.420      29.26747312      21.92446579      19.94287634      47.14285714      46.73949580
      25.440      29.26747312      21.94117647      19.84954908      47.14285714      46.73949580
      25.460      29.26747312      21.94117647      19.77486559      47.14285714      46.73949580
      25.480      29.26747312      22.07071835      19.69601977      47.14285714      46.73949580
      25.500      29.26747312      22.15966387      19.64912851      47.14285714      46.73949580
      25.520      29.26747312      22.15966387      19.60685484      47.14285714      46.73949580
      25.540      29.26747312      22.26565465      19.57325269      47.14285714      46.73949580
      25.560      29.26747312      22.40917012      19.54205689      47.14285714      46.73949580
      25.580      29.26747312      22.55268559      19.52876778      47.14285714      46.73949580
      25.600      29.26747312      23.01644890      19.44827437      47.14285714      46.73949580
      25.620      29.26747312      23.55491895      19.40524194      47.14285714      46.73949580
      25.640      29.07678633      24.09338899      19.38809400      47.14285714      46.73949580
      25.660      28.86424731      24.63185904      19.37163978      47.14285714      46.73949580
      25.680      28.86424731      25.17032909      19.33803763      47.10798966      46.73949580
      25.700      28.86424731      25.70879913      19.33803763      47.07095992      46.73949580
      25.720      28.72511273      26.24726918      19.33803763      47.03393019      46.73949580
      25.740      28.56386576      26.78573922      19.30443548      46.99690045      46.73949580
      25.760      28.46102151      27.10195717      19.24115505      46.95987072      46.73949580
      25.780      28.46102151      27.15894822      19.23723118      46.92284098      46.73949580
      25.800      28.46102151      27.45578748      19.21457683      46.88581125      46.73949580
      25.820      28.46102151      27.50420168      19.20128772      46.84878151      46.73949580
      25.840      28.46102151      27.50420168      19.13642473      46.81175178      46.73949580
      25.860      28.05779570      27.20168067      19.17002688      46.77472204      46.73949580
      25.880      28.05779570      27.20168067      19.17002688      46.74076312      46.94117647
      25.900      28.05779570      27.20168067      19.13642473      46.76678401      46.94117647
      25.920      28.05779570      27.08403361      19.10124003      46.79280491      46.94117647
      25.940      28.05779570      27.08403361      19.03561828      46.81882580      46.94117647
      25.960      28.05779570      27.18164652      19.03561828      46.84484670      46.94117647
      25.980      28.05779570      27.42074329      19.06358394      46.87086759      47.14285714
      26.000      28.05779570      27.65984007      18.93481183      46.89688849      47.14285714
      26.020      28.05779570      27.89893684      18.93481183      46.92290938      47.14285714
      26.040      28.05779570      28.13803361      18.93481183      46.94893027      47.18357143
      26.060      28.05779570      28.37713039      18.90740982      46.97495117      47.24369748
      26.080      28.05779570      28.61622716      18.86760753      47.00097206      47.31042017
      26.100      28.05779570      28.85532394      18.80040323      47.02699296      47.34453782
      26.120      28.05779570      29.08403361      18.76680108      47.05301385      47.34453782
      26.140      28.05779570      29.08403361      18.73319892      47.07903475      47.34453782
      26.160      28.05779570      29.08403361      18.75984218      47.10505564      47.34453782
      26.180      28.05779570      29.06257522      18.76680108      47.13107654      47.34453782
      26.200      28.05779570      29.02239089      18.74718176      47.12899160      47.39842437
      26.220      28.05779570      28.88235294      18.69959677      47.10365546      47.45419476
      26.240      28.05779570      28.88235294      18.63239247      47.07831933      47.50996516
      26.260      28.05779570      28.88235294      18.65827697      47.05298319      47.56573555
      26.280      28.05779570      28.95074642      18.66599462      47.02764706      47.62150594
      26.300      28.05779570      29.02402373      18.66599462      47.00231092      47.67727634
      26.320      28.05779570      29.09730104      18.66599462      46.97697479      47.73304673
      26.340      28.05779570      29.17057835      18.66599462      46.95163866      47.78881712
      26.360      28.05779570      29.24385566      18.66599462      46.92630252      47.84458752
      26.380      28.05779570      29.31713297      18.66599462      46.90096639      47.90035791
      26.400      28.05779570      29.39041028      18.66599462      46.87563025      47.95612830
      26.420      28.05779570      29.46368759      18.69959677      46.85029412      48.01189870
      26.440      28.05779570      29.53696490      18.69959677      46.82495798      48.06766909
      26.460      28.05779570      29.61024221      18.72396375      46.79962185      48.12343949
      26.480      28.05779570      29.68351953      18.73319892      46.77428571      48.17920988
      26.500      28.05779570      29.75679684      18.75054197      46.74894958      48.23498027
      26.520      28.05779570      29.83007415      18.76680108      46.73949580      48.29075067
      26.540      28.05779570      29.90335146      18.76680108      46.73949580      48.34652106
      26.560      28.05779570      29.97662877      18.76680108      46.50420168      48.40229145
      26.580      28.05779570      30.04990608      18.76680108      46.50420168      48.45806185
      26.600      28.05779570      30.12318339      18.76680108      46.47773109      48.51383224
      26.620      28.05779570      30.19646070      18.80040323      45.89915966      48.56960263
      26.640      28.05779570      30.26973801      18.75724072      45.89915966      48.62537303
      26.660      28.05779570      30.34301532      18.69959677      45.66386555      48.68114342
      26.680      28.05779570      30.41629263      18.66345820      45.66386555      48.73691381
      26.700      28.05779570      30.11720656      18.64821800      45.66386555      48.79268421
      26.720      28.05779570      29.57304373      18.67048214      45.78840336      48.84845460
      26.740      28.05779570      29.02888091      18.69959677      46.00617347      48.90422499
