~Version Information
 VERS.                2.0:  CWLS LOG ASCII STANDARD -VERSION 2.0
 WRAP.                 NO:  ONE LINE PER DEPTH STEP
~WELL INFORMATION BLOCK
#MNEM.UNIT       DATA		            DESCRIPTION OF MNEMONIC
#---------    -------------            ------------------------
 STRT.M      .450                        :START DEPTH
 STOP.M   #######                        :STOP DEPTH
 STEP.M      .050                        :STEP
 NULL.    -999999.0                      :NULL VALUE
 COMP.       SCHIFOOD                    :COMPANY
 WELL.                          B62B0899 :WELL
 FLD .    Heerlen                        :FIELD
 CNTY.                                   :COUNTY
 STAT.                                   :STATE
 SRVC.                                   :SERVICE COMPANY
 DATE.     23-JAN-91                     :LOG DATE
 UWI .                                   :UNIQUE WELL ID
 LIC .                                   :LICENSE NUMBER
~Curve Information Block
#MNEM.UNIT      API CODE     Curve Description
#---------    -------------  ------------------------
DEPTH    .M         00 000 00 00          :  1  DEPTH
SN40     .OHM.M     00 000 00 00          :  2  SN40
SP       .V         00 000 00 00          :  3  SP
CAL      .MM        00 000 00 00          :  4  CAL
LN160    .OHM.M     00 000 00 00          :  5  LN160
GAMMA    .CPS       00 000 00 00          :  6  GAMMA
~Parameter Information Block
#MNEM.UNIT   Information     Description
#---------- ---------------  ------------------------
 FILE.                         :File Type
 FIID.                         :File Type Identifier
 VERS.                         :System Version
 SER .                         :System Serial Number
 TRUK.                         :Truck Calibration Number
 TOOL.                         :Tool Serial Number
 TIME.                         :Time    HrHrMinMin
 LAT .                         :Latitude
 LON .                         :Longitude
 LMF .            MV           :LOG Measured FROM
 DMF .                         :Driller Measured From
 PD  .                         :Permanent Data
 PDEV.                         :Elevation Permanent Data
 EKB .M                        :Elevation Kelly Bushing
 ELEV.DF                       :Elevation DF
 EGL .M                        :Elevation Ground Level
 DRDP.                         :Drillers Depth
 CASD.                         :Casing Diameter
 CASB.                         :Casing Bottom
 CASX.                         :Casing Type
 CAST.                         :Casing Thickness
 TNOC.                         :Time Circulation Stopped
 LOGU.                         :Logging Unit
 RECB.            Veenendaal   :Recorded By
 OSR1.                         :Other Services
 OSR2.                         :Other Services
 OSR3.                         :Other Services
 BS  .MM                       :Bit Size
 MST .                         :Mean Surface Temperature
 TGRD.                         :Temperature Gradiant
 MAGN.                         :Magnetic Declination
 MDEN.                         :Density Matrix
 MATR.                         :Neutron Matrix
 DTMT.                         :Delta T Matrix
 DTFL.                         :Delta T Fluid
 MUDS.                         :Mud Sample Source
 MRS .                         :Mud Resistivity
 MTP .                         :Mud Temperature
 MFRS.                         :Resistivity Mud Filtrate
 MFTP.                         :Temperature Mud Filtrate
 MCRS.                         :Resistivity Mud Cake
 MCTP.                         :Temperature Mud Cake
 FTYP.                         :Fluid Type
 FD  .K/M3                     :Fluid Density
 DFV .S                        :Fluid Viscosity
 FPH .                         :Fuild PH
 ELCO.                         :Electron Cutoff
~Other Information
#MNEM.UNIT  Information      Description
#---------- ---------------  ------------------------
# --------------------------
## COMMENTS    Top_Depth   Bot_Depth  LithCode  Lat    Long   Elev_Gl
##    Type of LithCode   Lithologie - 1970
##                    .00         .00         .00     
##                    .45        5.75         .00     
##                   5.80        7.15       13.00     
##                   7.20        8.50        2.00     
##                   8.55       10.20       23.00     
##                  10.25       11.30       11.00     
##                  11.35       15.15       23.00     
##                  15.20       18.40       21.00     
##                  18.45       27.30       12.00     
##                  27.35       39.00       11.00     
##                  39.05       47.15       12.00     
##                  47.20       49.00       10.00     
##                  49.05       51.00        7.00     
##                  51.05       54.00       10.00     
##                  54.05       55.80        9.00     
##                  55.85       57.00       20.00     
##                  57.05       58.00        9.00     
##                  58.05       60.00       20.00     
##                  60.05       63.20       11.00     
##                  63.25       67.00        8.00     
##                  67.05       70.20        9.00     
##                  70.25       74.00        7.00     
##                  74.05       75.70        9.00     
##                  75.75       78.00        7.00     
##                  78.05       84.00        8.00     
##                  84.05       92.00        9.00     
##                  92.05       94.10       10.00     
##                  94.15       97.50        9.00     
##                  97.55      100.55       10.00     
##                 100.60      100.60         .00     
##                 100.65      126.40     #######     
##    last_layer   126.4
# --------------------------
~A DEPTH    SN40     SP       CAL      LN160    GAMMA    
# ...
    72.700    42.470      .036   539.100    62.580     7.320
    72.750    42.080      .036   532.900    62.440     7.280
    72.800    41.800      .036   532.500    62.300     7.300
    72.850    41.730      .036   535.000    62.100     7.410
    72.900    41.720      .036   537.400    61.880     7.900
    72.950    41.730      .036   539.500    61.550     8.270
    73.000    41.750      .036   541.700    61.260     8.640
    73.050    41.750      .037   546.500    60.860     9.020
    73.100    41.710      .037   551.900    60.390     9.040
    73.150    41.640      .037   556.000    60.150     8.940
    73.200    41.540      .037   557.100    59.950     8.770
    73.250    41.350      .037   555.500    59.740     8.450
    73.300    40.970      .038   555.900    59.590     8.450
    73.350    40.610      .038   557.900    59.470     8.460
    73.400    40.240      .039   561.500    59.330     8.410
    73.450    39.880      .039   563.500    59.230     8.310
    73.500    39.590      .040   563.600    59.150     8.300
    73.550    39.080      .041   555.500    59.090     8.410
    73.600    38.690      .041   552.600    58.980     8.400
    73.650    38.400      .042   553.100    58.920     8.280
    73.700    38.180      .043   556.500    58.860     8.180
    73.750    37.990      .044   561.800    58.810     8.070
    73.800    37.820      .044   567.900    58.730     8.000
    73.850    37.670      .045   567.200    58.650     7.850
    73.900    37.570      .046   564.300    58.590     7.680
    73.950    37.490      .047   566.100    58.460     7.510
    74.000    37.430      .048   567.700    58.300     7.420
    74.050    37.350      .049   569.900    58.100     7.550
    74.100    37.230      .050   569.400    57.920     7.770
    74.150    37.090      .050   568.300    57.720     7.890
    74.200    36.720      .051   571.100    57.540     7.890
    74.250    36.550      .051   571.700    57.360     7.930
    74.300    36.410      .051   571.800    57.180     8.190
    74.350    36.320      .051   571.700    57.010     8.220
    74.400    36.320      .051   571.200    56.810     8.250
    74.450    36.350      .051   561.000    56.650     8.310
    74.500    36.400      .051   557.300    56.560     8.240
    74.550    36.540      .051   556.300    56.460     8.020
    74.600    36.680      .052   555.400    56.370     7.820
    74.650    36.840      .052   554.100    56.310     7.610
    74.700    37.010      .053   553.100    56.210     7.560
    74.750    37.160      .054   551.700    56.100     7.610
    74.800    37.310      .054   550.600    55.980     8.220
    74.850    37.380      .055   549.000    55.860     8.360
    74.900    37.450      .055   545.800    55.770     8.440
    74.950    37.530      .056   546.400    55.690     8.480
    75.000    37.550      .057   545.900    55.600     8.520
    75.050    37.570      .058   540.700    55.550     8.620
    75.100    37.590      .059   538.000    55.510     8.760
    75.150    37.630      .060   538.700    55.480     8.860
    75.200    37.690      .061   540.500    55.460     8.940
    75.250    37.710      .062   540.400    55.420     9.080
    75.300    37.720      .063   540.100    55.400     9.030
    75.350    37.730      .065   540.900    55.390     8.760
    75.400    37.740      .067   541.500    55.400     8.480
    75.450    37.740      .068   542.000    55.410     8.200
    75.500    37.730      .068   542.900    55.430     7.920
    75.550    37.720      .068   543.400    55.440     7.630
    75.600    37.710      .068   543.100    55.450     7.160
    75.650    37.710      .068   540.500    55.460     6.880
    75.700    37.710      .068   538.700    55.470     6.610
    75.750    37.710      .068   538.100    55.480     6.560
    75.800    37.690      .068   537.600    55.490     6.620
    75.850    37.680      .068   538.600    55.500     6.880
    75.900    37.660      .068   539.500    55.500     7.130
    75.950    37.650      .068   538.900    55.490     7.380
    76.000    37.650      .068   536.900    55.470     7.640
    76.050    37.690      .068   534.400    55.460     7.820
    76.100    37.740      .068   533.200    55.430     7.820
    76.150    37.840      .068   532.200    55.400     7.750
    76.200    37.950      .068   532.800    55.350     7.610
    76.250    38.090      .068   537.100    55.300     7.530
    76.300    38.220      .068   538.200    55.240     7.550
    76.350    38.270      .069   538.000    55.170     7.700
    76.400    38.250      .069   537.100    55.120     7.660
    76.450    38.200      .070   541.500    55.040     7.590
    76.500    38.120      .070   544.000    54.970     7.570
    76.550    38.030      .070   544.200    54.910     7.720
    76.600    37.910      .071   531.900    54.860     7.820
    76.650    37.790      .071   535.300    54.810     7.880
    76.700    37.730      .072   535.300    54.770     7.980
    76.750    37.700      .072   529.400    54.730     8.120
    76.800    37.690      .072   524.500    54.700     8.140
    76.850    37.680      .071   525.600    54.660     8.140
    76.900    37.680      .071   525.600    54.620     8.000
    76.950    37.680      .071   524.000    54.590     7.910
    77.000    37.670      .071   524.700    54.530     7.840
    77.050    37.650      .071   526.000    54.450     7.780
    77.100    37.620      .071   526.900    54.360     7.820
    77.150    37.590      .071   527.500    54.260     7.910
    77.200    37.510      .071   527.800    54.180     7.930
    77.250    37.430      .071   527.100    54.040     7.870
    77.300    37.350      .071   525.800    53.870     7.760
    77.350    37.250      .071   525.400    53.720     7.680
    77.400    37.140      .071   525.700    53.580     7.510
    77.450    37.030      .071   526.700    53.410     7.260
    77.500    36.940      .071   527.000    53.200     7.070
    77.550    36.860      .071   526.500    53.030     7.040
    77.600    36.770      .071   525.700    52.860     7.170
    77.650    36.680      .071   524.600    52.720     7.710
    77.700    36.610      .071   524.100    52.520     8.240
    77.750    36.530      .071   525.200    52.340     8.780
    77.800    36.470      .071   526.800    52.050     9.320
    77.850    36.410      .071   527.700    51.870     9.440
    77.900    36.330      .072   526.200    51.690     9.350
    77.950    36.250      .072   525.600    51.470     9.250
    78.000    36.160      .073   525.100    51.230     9.220
    78.050    36.050      .073   524.500    50.990     9.130
    78.100    35.920      .073   525.000    50.730     8.980
    78.150    35.790      .073   526.900    50.480     8.930
    78.200    35.650      .074   527.300    50.190     9.030
    78.250    35.490      .074   527.000    49.960     9.080
    78.300    35.290      .074   527.000    49.720     9.110
    78.350    35.060      .074   527.000    49.510     9.080
    78.400    34.850      .074   527.200    49.310     8.330
    78.450    34.530      .074   528.000    49.130     8.310
    78.500    34.250      .074   530.600    48.970     8.250
    78.550    34.010      .074   531.600    48.800     8.090
    78.600    33.770      .074   531.900    48.650     8.030
    78.650    33.540      .074   532.000    48.510     7.800
    78.700    33.330      .074   531.800    48.380     7.570
    78.750    33.150      .074   531.500    48.250     7.460
    78.800    32.960      .074   531.200    48.120     7.770
    78.850    32.780      .075   531.000    47.990     8.140
    78.900    32.600      .075   531.000    47.860     8.500
    78.950    32.410      .076   531.000    47.720     8.760
    79.000    32.240      .076   530.900    47.580     8.810
    79.050    32.080      .077   531.000    47.440     8.830
    79.100    31.890      .077   531.400    47.280     8.640
    79.150    31.770      .077   532.500    47.120     8.120
    79.200    31.670      .077   534.800    46.940     7.720
    79.250    31.560      .078   537.000    46.780     7.640
