~Version Information
 VERS.                2.0:  CWLS LOG ASCII STANDARD -VERSION 2.0
 WRAP.                 NO:  ONE LINE PER DEPTH STEP
~WELL INFORMATION BLOCK
#MNEM.UNIT       DATA		            DESCRIPTION OF MNEMONIC
#---------    -------------            ------------------------
 STRT.M      .450                        :START DEPTH
 STOP.M   #######                        :STOP DEPTH
 STEP.M      .050                        :STEP
 NULL.    -999999.0                      :NULL VALUE
 COMP.       SCHIFOOD                    :COMPANY
 WELL.                          B62B0899 :WELL
 FLD .    Heerlen                        :FIELD
 CNTY.                                   :COUNTY
 STAT.                                   :STATE
 SRVC.                                   :SERVICE COMPANY
 DATE.     23-JAN-91                     :LOG DATE
 UWI .                                   :UNIQUE WELL ID
 LIC .                                   :LICENSE NUMBER
~Curve Information Block
#MNEM.UNIT      API CODE     Curve Description
#---------    -------------  ------------------------
DEPTH    .M         00 000 00 00          :  1  DEPTH
SN40     .OHM.M     00 000 00 00          :  2  SN40
SP       .V         00 000 00 00          :  3  SP
CAL      .MM        00 000 00 00          :  4  CAL
LN160    .OHM.M     00 000 00 00          :  5  LN160
GAMMA    .CPS       00 000 00 00          :  6  GAMMA
~Parameter Information Block
#MNEM.UNIT   Information     Description
#---------- ---------------  ------------------------
 FILE.                         :File Type
 FIID.                         :File Type Identifier
 VERS.                         :System Version
 SER .                         :System Serial Number
 TRUK.                         :Truck Calibration Number
 TOOL.                         :Tool Serial Number
 TIME.                         :Time    HrHrMinMin
 LAT .                         :Latitude
 LON .                         :Longitude
 LMF .            MV           :LOG Measured FROM
 DMF .                         :Driller Measured From
 PD  .                         :Permanent Data
 PDEV.                         :Elevation Permanent Data
 EKB .M                        :Elevation Kelly Bushing
 ELEV.DF                       :Elevation DF
 EGL .M                        :Elevation Ground Level
 DRDP.                         :Drillers Depth
 CASD.                         :Casing Diameter
 CASB.                         :Casing Bottom
 CASX.                         :Casing Type
 CAST.                         :Casing Thickness
 TNOC.                         :Time Circulation Stopped
 LOGU.                         :Logging Unit
 RECB.            Veenendaal   :Recorded By
 OSR1.                         :Other Services
 OSR2.                         :Other Services
 OSR3.                         :Other Services
 BS  .MM                       :Bit Size
 MST .                         :Mean Surface Temperature
 TGRD.                         :Temperature Gradiant
 MAGN.                         :Magnetic Declination
 MDEN.                         :Density Matrix
 MATR.                         :Neutron Matrix
 DTMT.                         :Delta T Matrix
 DTFL.                         :Delta T Fluid
 MUDS.                         :Mud Sample Source
 MRS .                         :Mud Resistivity
 MTP .                         :Mud Temperature
 MFRS.                         :Resistivity Mud Filtrate
 MFTP.                         :Temperature Mud Filtrate
 MCRS.                         :Resistivity Mud Cake
 MCTP.                         :Temperature Mud Cake
 FTYP.                         :Fluid Type
 FD  .K/M3                     :Fluid Density
 DFV .S                        :Fluid Viscosity
 FPH .                         :Fuild PH
 ELCO.                         :Electron Cutoff
~Other Information
#MNEM.UNIT  Information      Description
#---------- ---------------  ------------------------
# --------------------------
## COMMENTS    Top_Depth   Bot_Depth  LithCode  Lat    Long   Elev_Gl
##    Type of LithCode   Lithologie - 1970
##                    .00         .00         .00     
##                    .45        5.75         .00     
##                   5.80        7.15       13.00     
##                   7.20        8.50        2.00     
##                   8.55       10.20       23.00     
##                  10.25       11.30       11.00     
##                  11.35       15.15       23.00     
##                  15.20       18.40       21.00     
##                  18.45       27.30       12.00     
##                  27.35       39.00       11.00     
##                  39.05       47.15       12.00     
##                  47.20       49.00       10.00     
##                  49.05       51.00        7.00     
##                  51.05       54.00       10.00     
##                  54.05       55.80        9.00     
##                  55.85       57.00       20.00     
##                  57.05       58.00        9.00     
##                  58.05       60.00       20.00     
##                  60.05       63.20       11.00     
##                  63.25       67.00        8.00     
##                  67.05       70.20        9.00     
##                  70.25       74.00        7.00     
##                  74.05       75.70        9.00     
##                  75.75       78.00        7.00     
##                  78.05       84.00        8.00     
##                  84.05       92.00        9.00     
##                  92.05       94.10       10.00     
##                  94.15       97.50        9.00     
##                  97.55      100.55       10.00     
##                 100.60      100.60         .00     
##                 100.65      126.40     #######     
##    last_layer   126.4
# --------------------------
~A DEPTH    SN40     SP       CAL      LN160    GAMMA    
# ...
    85.900    26.580      .078   541.600    34.080     9.550
    85.950    26.580      .078   541.600    33.980     9.630
    86.000    26.580      .078   541.600    33.870     9.610
    86.050    26.570      .078   541.800    33.770     9.400
    86.100    26.550      .078   542.100    33.680     8.850
    86.150    26.510      .078   542.400    33.580     8.740
    86.200    26.480      .078   542.700    33.510     8.640
    86.250    26.450      .078   543.100    33.420     8.530
    86.300    26.400      .078   543.600    33.350     8.480
    86.350    26.350      .078   543.900    33.280     8.190
    86.400    26.280      .078   544.100    33.210     8.090
    86.450    26.190      .078   544.300    33.180     8.050
    86.500    26.070      .078   544.500    33.160     8.100
    86.550    25.980      .078   544.900    33.130     8.210
    86.600    25.870      .078   545.200    33.110     8.560
    86.650    25.750      .078   545.400    33.100     8.970
    86.700    25.600      .078   545.600    33.100     9.220
    86.750    25.470      .078   545.900    33.090     9.310
    86.800    25.350      .078   546.300    33.080     9.380
    86.850    25.230      .078   547.000    33.080     9.490
    86.900    25.120      .078   547.800    33.080     9.490
    86.950    25.000      .078   548.300    33.080     9.440
    87.000    24.890      .078   548.300    33.070     9.410
    87.050    24.780      .078   548.200    33.050     9.450
    87.100    24.670      .078   548.400    33.030     9.570
    87.150    24.570      .078   548.800    33.000     9.870
    87.200    24.470      .078   549.400    32.950     9.870
    87.250    24.380      .079   550.000    32.900     9.910
    87.300    24.290      .079   550.600    32.850    10.240
    87.350    24.210      .079   553.000    32.780    10.570
    87.400    24.140      .079   554.100    32.720    10.910
    87.450    24.060      .079   554.800    32.620    11.250
    87.500    23.990      .079   555.000    32.490    11.000
    87.550    23.920      .079   554.000    32.360    10.690
    87.600    23.870      .080   552.300    32.230    10.880
    87.650    23.820      .080   550.700    32.100    11.070
    87.700    23.790      .080   550.500    32.000    11.290
    87.750    23.760      .080   549.800    31.850    11.420
    87.800    23.730      .080   548.500    31.700    11.370
    87.850    23.710      .080   548.000    31.570    11.130
    87.900    23.690      .080   547.700    31.460    10.710
    87.950    23.670      .080   547.300    31.370    10.350
    88.000    23.660      .080   547.000    31.280    10.170
    88.050    23.640      .080   546.800    31.220     9.810
    88.100    23.630      .080   546.600    31.160     9.890
    88.150    23.630      .080   546.600    31.110     9.940
    88.200    23.630      .080   546.600    31.070    10.240
    88.250    23.620      .080   546.700    31.040    10.530
    88.300    23.610      .080   547.000    31.020    10.830
    88.350    23.600      .081   547.400    31.000    11.110
    88.400    23.570      .081   548.000    30.980    10.360
    88.450    23.570      .081   548.700    30.960    10.100
    88.500    23.550      .081   549.600    30.940     9.940
    88.550    23.550      .081   550.500    30.930     9.730
    88.600    23.550      .081   551.300    30.930     9.680
    88.650    23.550      .081   552.200    30.910     9.690
    88.700    23.540      .081   552.400    30.890     9.700
    88.750    23.530      .081   551.300    30.870     9.570
    88.800    23.510      .081   550.500    30.850     9.440
    88.850    23.490      .081   549.900    30.820     9.380
    88.900    23.480      .081   549.400    30.800     9.370
    88.950    23.470      .082   549.200    30.780     9.400
    89.000    23.480      .082   549.900    30.760     9.420
    89.050    23.490      .082   550.300    30.740     9.370
    89.100    23.490      .082   550.200    30.720     9.120
    89.150    23.500      .082   549.700    30.700     8.890
    89.200    23.510      .082   549.400    30.670     8.860
    89.250    23.520      .082   549.000    30.640     9.010
    89.300    23.540      .082   548.600    30.610     9.120
    89.350    23.560      .082   548.100    30.600     9.360
    89.400    23.580      .082   547.700    30.590     9.590
    89.450    23.610      .082   547.500    30.580     9.740
    89.500    23.640      .082   546.100    30.570     9.770
    89.550    23.670      .082   545.200    30.570     9.770
    89.600    23.690      .082   544.000    30.570     9.770
    89.650    23.720      .082   543.600    30.570     9.790
    89.700    23.750      .082   543.800    30.560     9.880
    89.750    23.770      .082   544.700    30.530    10.090
    89.800    23.790      .082   546.400    30.500    10.350
    89.850    23.800      .082   548.300    30.470    10.610
    89.900    23.820      .082   549.200    30.430    10.850
    89.950    23.840      .082   550.000    30.390    10.520
    90.000    23.860      .082   550.900    30.350    10.190
    90.050    23.870      .082   551.100    30.310     9.910
    90.100    23.890      .082   551.000    30.260     9.780
    90.150    23.900      .082   551.100    30.200     9.260
    90.200    23.910      .082   551.200    30.130     9.230
    90.250    23.930      .082   551.700    30.080     9.290
    90.300    23.950      .082   551.800    30.020     9.460
    90.350    23.960      .082   552.400    29.970     9.650
    90.400    23.960      .082   553.400    29.900     9.670
    90.450    23.930      .082   554.100    29.850     9.850
    90.500    23.890      .082   553.900    29.800    10.030
    90.550    23.840      .082   552.200    29.750     9.640
    90.600    23.780      .082   550.500    29.690     9.520
    90.650    23.720      .082   549.900    29.640     9.510
    90.700    23.670      .082   550.200    29.580     9.210
    90.750    23.630      .082   552.000    29.520     8.730
    90.800    23.580      .082   553.300    29.470     8.240
    90.850    23.520      .082   554.600    29.410     8.030
    90.900    23.470      .082   556.600    29.360     8.250
    90.950    23.420      .082   558.100    29.320     8.510
    91.000    23.360      .082   558.600    29.270     8.730
    91.050    23.320      .082   557.800    29.220     8.760
    91.100    23.280      .082   555.700    29.170     8.770
    91.150    23.240      .082   555.100    29.120     8.830
    91.200    23.180      .083   555.100    29.070     8.900
    91.250    23.110      .083   555.400    29.020     8.680
    91.300    23.030      .084   555.400    28.960     8.460
    91.350    22.930      .085   556.000    28.920     8.240
    91.400    22.820      .086   559.600    28.870     8.450
    91.450    22.700      .087   563.900    28.830     8.670
    91.500    22.580      .087   565.900    28.780     8.880
    91.550    22.450      .087   562.800    28.720     9.100
    91.600    22.330      .088   562.800    28.680     9.290
    91.650    22.210      .088   562.400    28.600     9.030
    91.700    22.090      .088   561.900    28.520     8.860
    91.750    21.970      .088   561.200    28.450     8.660
    91.800    21.850      .088   560.300    28.390     8.810
    91.850    21.730      .088   559.100    28.280     9.090
    91.900    21.600      .088   558.700    28.160     9.320
    91.950    21.480      .088   558.600    28.060     9.550
    92.000    21.360      .088   558.200    27.950     9.520
    92.050    21.240      .088   557.600    27.840     9.560
    92.100    21.120      .088   557.700    27.710     9.660
    92.150    21.000      .088   558.300    27.620     9.800
    92.200    20.880      .088   559.500    27.530     9.880
    92.250    20.780      .088   560.800    27.450     9.930
    92.300    20.680      .088   562.100    27.390     9.980
    92.350    20.580      .088   564.100    27.330    10.040
    92.400    20.480      .088   565.900    27.280    10.140
    92.450    20.380      .088   567.300    27.230    10.350
