~Version Information
 VERS.                2.0:  CWLS LOG ASCII STANDARD -VERSION 2.0
 WRAP.                 NO:  ONE LINE PER DEPTH STEP
~WELL INFORMATION BLOCK
#MNEM.UNIT       DATA		            DESCRIPTION OF MNEMONIC
#---------    -------------            ------------------------
 STRT.M      .000                        :START DEPTH
 STOP.M    82.700                        :STOP DEPTH
 STEP.M      .050                        :STEP
 NULL.    -999999.0                      :NULL VALUE
 COMP.       WML                         :COMPANY
 WELL.                          B62B0902 :WELL
 FLD .    Voerendaal                     :FIELD
 CNTY.                                   :COUNTY
 STAT.                                   :STATE
 SRVC.                                   :SERVICE COMPANY
 DATE.     04-FEB-92                     :LOG DATE
 UWI .                                   :UNIQUE WELL ID
 LIC .                                   :LICENSE NUMBER
~Curve Information Block
#MNEM.UNIT      API CODE     Curve Description
#---------    -------------  ------------------------
DEPTH    .M         00 000 00 00          :  1  DEPTH
SN40     .OHM.M     00 000 00 00          :  2  SN40
SP       .V         00 000 00 00          :  3  SP
CAL      .MM        00 000 00 00          :  4  CAL
LN160    .OHM.M     00 000 00 00          :  5  LN160
GAMMA    .CPS       00 000 00 00          :  6  GAMMA
~Parameter Information Block
#MNEM.UNIT   Information     Description
#---------- ---------------  ------------------------
 FILE.                         :File Type
 FIID.                         :File Type Identifier
 VERS.                         :System Version
 SER .                         :System Serial Number
 TRUK.                         :Truck Calibration Number
 TOOL.                         :Tool Serial Number
 TIME.                         :Time    HrHrMinMin
 LAT .                         :Latitude
 LON .                         :Longitude
 LMF .            MV           :LOG Measured FROM
 DMF .                         :Driller Measured From
 PD  .                         :Permanent Data
 PDEV.                         :Elevation Permanent Data
 EKB .M                        :Elevation Kelly Bushing
 ELEV.DF                       :Elevation DF
 EGL .M                        :Elevation Ground Level
 DRDP.                         :Drillers Depth
 CASD.                         :Casing Diameter
 CASB.                         :Casing Bottom
 CASX.                         :Casing Type
 CAST.                         :Casing Thickness
 TNOC.                         :Time Circulation Stopped
 LOGU.                         :Logging Unit
 RECB.            Bergsma      :Recorded By
 OSR1.                         :Other Services
 OSR2.                         :Other Services
 OSR3.                         :Other Services
 BS  .MM                       :Bit Size
 MST .                         :Mean Surface Temperature
 TGRD.                         :Temperature Gradiant
 MAGN.                         :Magnetic Declination
 MDEN.                         :Density Matrix
 MATR.                         :Neutron Matrix
 DTMT.                         :Delta T Matrix
 DTFL.                         :Delta T Fluid
 MUDS.                         :Mud Sample Source
 MRS .                         :Mud Resistivity
 MTP .                         :Mud Temperature
 MFRS.                         :Resistivity Mud Filtrate
 MFTP.                         :Temperature Mud Filtrate
 MCRS.                         :Resistivity Mud Cake
 MCTP.                         :Temperature Mud Cake
 FTYP.                         :Fluid Type
 FD  .K/M3                     :Fluid Density
 DFV .S                        :Fluid Viscosity
 FPH .                         :Fuild PH
 ELCO.                         :Electron Cutoff
~Other Information
#MNEM.UNIT  Information      Description
#---------- ---------------  ------------------------
# --------------------------
## COMMENTS    Top_Depth   Bot_Depth  LithCode  Lat    Long   Elev_Gl
##    Type of LithCode   Lithologie - 1970
##                    .00       10.80       13.00     
##                  10.85       11.80       23.00     
##                  11.85       15.70        6.00     
##                  15.75       16.00       23.00     
##                  16.05       28.00        7.00     
##                  28.05       46.00        9.00     
##                  46.05       46.05         .00     
##    last_layer   46.05
# --------------------------
~A DEPTH    SN40     SP       CAL      LN160    GAMMA    
# ...
    51.650    67.820      .043   212.000    65.560     8.560
    51.700    67.710      .043   212.100    66.150     8.560
    51.750    67.610      .043   212.300    66.680     8.530
    51.800    67.620      .043   212.500    66.920     8.490
    51.850    67.790      .043   213.000    67.130     8.400
    51.900    67.980      .043   213.400    67.280     8.270
    51.950    68.140      .043   213.600    67.340     8.070
    52.000    68.160      .043   213.500    67.300     7.860
    52.050    68.050      .043   213.300    67.260     7.700
    52.100    67.970      .043   213.100    67.270     7.470
    52.150    67.870      .043   212.900    67.270     7.260
    52.200    67.810      .043   212.400    67.280     6.900
    52.250    67.920      .043   212.300    67.310     6.730
    52.300    68.170      .043   212.500    67.360     6.660
    52.350    68.400      .043   212.700    67.420     6.660
    52.400    68.690      .043   212.700    67.470     6.750
    52.450    69.020      .044   212.800    67.570     6.970
    52.500    69.340      .044   212.800    67.680     7.180
    52.550    69.660      .044   212.700    67.790     7.350
    52.600    69.940      .044   212.600    67.900     7.470
    52.650    70.100      .044   212.500    68.010     7.780
    52.700    70.050      .044   212.600    68.130     7.820
    52.750    70.000      .044   212.700    68.260     7.820
    52.800    69.950      .044   212.800    68.370     7.880
    52.850    69.930      .044   212.800    68.400     8.200
    52.900    69.940      .044   212.900    68.330     8.230
    52.950    69.950      .043   213.200    68.240     8.210
    53.000    70.030      .043   213.300    68.110     8.160
    53.050    70.190      .043   213.500    67.760     8.010
    53.100    70.410      .043   213.000    67.130     7.850
    53.150    70.640      .043   211.900    66.640     7.910
    53.200    70.920      .043   211.500    66.040     8.100
    53.250    71.260      .043   211.500    65.470     8.400
    53.300    71.670      .042   211.600    64.840     8.690
    53.350    72.100      .042   211.700    64.030     8.780
    53.400    72.730      .042   212.100    62.970     8.760
    53.450    73.040      .042   212.500    62.190     8.630
    53.500    73.340      .042   213.000    61.510     8.510
    53.550    73.650      .042   213.200    60.920     8.490
    53.600    74.040      .042   213.600    60.540     8.560
    53.650    73.890      .042   213.700    60.160     8.690
    53.700    73.380      .042   214.000    60.100     8.690
    53.750    73.300      .042   213.600    60.120     8.660
    53.800    73.880      .042   212.800    60.160     8.550
    53.850    74.820      .042   212.000    60.210     8.350
    53.900    75.720      .041   211.200    60.280     8.130
    53.950    76.320      .041   211.100    60.370     8.100
    54.000    76.140      .041   211.000    60.440     8.100
    54.050    75.490      .041   211.100    60.520     8.090
    54.100    74.320      .041   211.200    60.610     8.030
    54.150    73.530      .041   211.400    60.790     7.910
    54.200    71.790      .041   211.600    60.980     7.630
    54.250    71.130      .041   211.900    61.270     7.530
    54.300    71.340      .041   212.200    61.700     7.550
    54.350    72.180      .041   212.400    62.130     7.680
    54.400    75.020      .041   212.600    63.000     7.790
    54.450    75.960      .040   213.300    63.530     7.800
    54.500    76.020      .040   214.100    64.090     7.780
    54.550    75.500      .040   215.400    64.950     7.700
    54.600    74.920      .039   216.100    65.970     7.630
    54.650    74.300      .039   216.100    66.650     7.550
    54.700    73.870      .038   213.700    67.370     7.530
    54.750    73.660      .037   212.800    67.630     7.510
    54.800    73.360      .037   212.100    68.210     7.490
    54.850    72.650      .037   211.700    68.790     7.490
    54.900    72.860      .037   211.900    69.630     7.610
    54.950    73.220      .037   212.600    70.920     7.740
    55.000    73.440      .037   213.200    71.450     7.710
    55.050    72.940      .037   213.700    72.420     7.680
    55.100    72.740      .037   213.800    72.840     7.650
    55.150    72.870      .037   213.600    73.170     7.630
    55.200    73.070      .037   213.500    73.180     7.680
    55.250    73.240      .038   213.200    72.620     7.790
    55.300    73.190      .038   212.800    71.590     8.040
    55.350    72.730      .038   212.300    70.230     8.140
    55.400    72.190      .039   212.100    69.450     8.120
    55.450    71.340      .039   212.000    67.620     7.870
    55.500    71.040      .039   212.000    66.090     7.600
    55.550    71.060      .039   212.000    64.630     7.530
    55.600    71.350      .039   212.000    64.020     7.580
    55.650    72.320      .039   211.900    62.900     7.640
    55.700    73.590      .039   211.900    62.120     7.700
    55.750    75.560      .038   211.800    61.900     7.690
    55.800    77.450      .038   211.800    61.420     7.650
    55.850    79.170      .038   211.800    60.860     7.530
    55.900    79.390      .038   212.000    60.210     7.250
    55.950    79.210      .038   212.200    59.500     6.880
    56.000    77.790      .039   212.600    58.650     6.580
    56.050    74.240      .039   213.500    57.520     6.380
    56.100    70.330      .039   214.400    57.030     6.290
    56.150    68.150      .039   216.800    56.160     6.280
    56.200    67.310      .039   217.400    56.000     6.290
    56.250    66.890      .039   214.600    55.950     6.360
    56.300    67.470      .039   213.400    56.030     6.450
    56.350    69.030      .039   213.500    56.100     6.510
    56.400    71.540      .038   213.700    56.140     6.540
    56.450    72.100      .038   213.900    56.110     6.650
    56.500    71.900      .038   213.500    56.070     6.770
    56.550    68.400      .038   213.300    56.070     6.740
    56.600    65.550      .037   213.000    56.190     6.710
    56.650    64.700      .037   212.400    56.440     6.740
    56.700    64.440      .037   211.800    56.800     6.850
    56.750    64.690      .037   211.700    57.320     6.960
    56.800    66.170      .037   211.700    57.920     7.080
    56.850    68.110      .037   211.700    59.110     7.230
    56.900    69.360      .037   211.700    61.130     7.370
    56.950    70.700      .037   211.700    62.170     7.390
    57.000    71.490      .036   211.700    63.240     7.400
    57.050    72.040      .036   211.900    63.970     7.630
    57.100    71.240      .036   212.100    64.670     8.270
    57.150    70.240      .035   213.200    64.800     8.380
    57.200    69.200      .035   213.700    64.870     8.500
    57.250    68.630      .034   213.900    64.920     8.660
    57.300    68.290      .034   214.200    64.990     8.870
    57.350    68.740      .034   214.500    65.060     8.950
    57.400    69.390      .034   214.900    65.480     9.020
    57.450    69.750      .034   215.300    66.150     9.040
    57.500    69.920      .034   216.200    67.250     9.030
    57.550    69.770      .033   214.600    67.710     9.010
    57.600    69.520      .033   213.000    68.160     8.930
    57.650    69.080      .033   212.300    68.530     8.760
    57.700    68.610      .032   212.100    68.810     8.550
    57.750    68.460      .032   212.100    69.040     8.250
    57.800    68.530      .032   212.200    69.170     7.930
    57.850    68.640      .032   212.200    69.280     7.790
    57.900    68.640      .032   212.200    69.310     7.740
    57.950    68.130      .032   212.300    69.340     7.640
    58.000    67.370      .032   212.300    69.330     7.510
    58.050    66.280      .032   212.400    69.270     7.330
    58.100    65.670      .032   212.500    69.150     7.230
    58.150    65.030      .032   212.500    68.930     7.270
    58.200    65.400      .032   212.600    68.700     7.370
