~Version Information
 VERS.                2.0:  CWLS LOG ASCII STANDARD -VERSION 2.0
 WRAP.                 NO:  ONE LINE PER DEPTH STEP
~WELL INFORMATION BLOCK
#MNEM.UNIT       DATA		            DESCRIPTION OF MNEMONIC
#---------    -------------            ------------------------
 STRT.M      .150                        :START DEPTH
 STOP.M   #######                        :STOP DEPTH
 STEP.M      .050                        :STEP
 NULL.    -999999.0                      :NULL VALUE
 COMP.       SOFTDR                      :COMPANY
 WELL.                          B62B0927 :WELL
 FLD .    Heerlen                        :FIELD
 CNTY.                                   :COUNTY
 STAT.                                   :STATE
 SRVC.                                   :SERVICE COMPANY
 DATE.     29-MAY-97                     :LOG DATE
 UWI .                                   :UNIQUE WELL ID
 LIC .                                   :LICENSE NUMBER
~Curve Information Block
#MNEM.UNIT      API CODE     Curve Description
#---------    -------------  ------------------------
DEPTH    .M         00 000 00 00          :  1  DEPTH
GAM(NAT) .CPS       00 000 00 00          :  2  GAM(NAT)
SP       .V         00 000 00 00          :  3  SP
RES(16N) .OHM.M     00 000 00 00          :  4  RES(16N)
RES(64N) .OHM.M     00 000 00 00          :  5  RES(64N)
RES      .OHM       00 000 00 00          :  6  RES
~Parameter Information Block
#MNEM.UNIT   Information     Description
#---------- ---------------  ------------------------
 FILE.                         :File Type
 FIID.                         :File Type Identifier
 VERS.                         :System Version
 SER .                         :System Serial Number
 TRUK.                         :Truck Calibration Number
 TOOL.                         :Tool Serial Number
 TIME.                         :Time    HrHrMinMin
 LAT .                         :Latitude
 LON .                         :Longitude
 LMF .            MV           :LOG Measured FROM
 DMF .                         :Driller Measured From
 PD  .                         :Permanent Data
 PDEV.                         :Elevation Permanent Data
 EKB .M                        :Elevation Kelly Bushing
 ELEV.DF                       :Elevation DF
 EGL .M                        :Elevation Ground Level
 DRDP.                         :Drillers Depth
 CASD.                         :Casing Diameter
 CASB.                         :Casing Bottom
 CASX.                         :Casing Type
 CAST.                         :Casing Thickness
 TNOC.                         :Time Circulation Stopped
 LOGU.                         :Logging Unit
 RECB.            Bergsma      :Recorded By
 OSR1.                         :Other Services
 OSR2.                         :Other Services
 OSR3.                         :Other Services
 BS  .MM                       :Bit Size
 MST .                         :Mean Surface Temperature
 TGRD.                         :Temperature Gradiant
 MAGN.                         :Magnetic Declination
 MDEN.                         :Density Matrix
 MATR.                         :Neutron Matrix
 DTMT.                         :Delta T Matrix
 DTFL.                         :Delta T Fluid
 MUDS.                         :Mud Sample Source
 MRS .                         :Mud Resistivity
 MTP .                         :Mud Temperature
 MFRS.                         :Resistivity Mud Filtrate
 MFTP.                         :Temperature Mud Filtrate
 MCRS.                         :Resistivity Mud Cake
 MCTP.                         :Temperature Mud Cake
 FTYP.                         :Fluid Type
 FD  .K/M3                     :Fluid Density
 DFV .S                        :Fluid Viscosity
 FPH .                         :Fuild PH
 ELCO.                         :Electron Cutoff
~Other Information
#MNEM.UNIT  Information      Description
#---------- ---------------  ------------------------
# --------------------------
## COMMENTS    Top_Depth   Bot_Depth  LithCode  Lat    Long   Elev_Gl
##    Type of LithCode   Lithologie - 1970
##                    .15        3.55       62.00     
##                   3.55        5.50        2.00     
##                   5.50        8.70       26.00     
##                   8.70       15.10       63.00     
##                  15.10       19.15       26.00     
##                  19.15       20.70       43.00     
##                  20.70       22.60       26.00     
##                  22.60       30.05       63.00     
##                  30.05       30.85       26.00     
##                  30.85       52.70       63.00     
##                  52.70       54.00       26.00     
##                  54.00       58.15       63.00     
##                  58.15       59.85       26.00     
##                  59.85       66.75       63.00     
##                  66.75       70.35       26.00     
##                  70.35       72.25       63.00     
##                  72.25       73.10       26.00     
##                  73.10       74.40       63.00     
##                  74.40       75.15       26.00     
##                  75.15       75.95       63.00     
##                  75.95       76.75       26.00     
##                  76.75       77.40       63.00     
##                  77.40       78.20       26.00     
##                  78.20       79.70       63.00     
##                  79.70       80.75       26.00     
##                  80.75       81.70       58.00     
##                  81.70       83.15       26.00     
##                  83.15       84.95       58.00     
##                  84.95       87.35       22.00     
##                  87.35       88.60       23.00     
##                  88.60       89.30       58.00     
##                  89.30       91.10       23.00     
##                  91.10       92.35       58.00     
##                  92.35       94.30       23.00     
##                  94.30       99.05       26.00     
##                  99.05      100.50       23.00     
##                 100.50      103.10       26.00     
##                 103.10      105.80       40.00     
##                 105.80      107.05       43.00     
##                 107.05      110.35       57.00     
##                 110.35      112.35       15.00     
##                 112.35      116.10       63.00     
##                 116.10      120.45       32.00     
##                 120.45      121.95       63.00     
##                 121.95      122.70       12.00     
##                 122.70      124.70       15.00     
##                 124.70      127.95       19.00     
##                 127.95      129.55       58.00     
##                 129.55      130.60       38.00     
##                 130.60      132.70       57.00     
##                 132.70      133.60       59.00     
##                 133.60      135.20       57.00     
##                 135.20      135.85       59.00     
##                 135.85      136.50       57.00     
##                 136.50      137.30       58.00     
##    last_layer   137.3
##    Type of LithCode   Lithologie - 1970
##                   1.90        2.15       87.00     
##                   2.15        3.90       84.00     
##                   3.90        4.25       85.00     
##                   4.25       21.95         .00     
##                  21.95       22.35       87.00     
##                  22.35       24.95       84.00     
##                  24.95       25.30       85.00     
##                  25.30       37.95         .00     
##                  37.95       38.25       87.00     
##                  38.25       40.95       84.00     
##                  40.95       41.20       85.00     
##                  41.20       42.00         .00     
##                  42.00       44.95       74.00     
##                  44.95       46.95         .00     
##                  46.95       47.25       87.00     
##                  47.25       50.90       84.00     
##                  50.90       51.20       85.00     
##                  51.20       59.95         .00     
##                  59.95       60.35       87.00     
##                  60.35       62.95       84.00     
##                  62.95       63.25       85.00     
##                  63.25       76.90         .00     
##                  76.90       77.15       87.00     
##                  77.15       80.00       84.00     
##                  80.00       80.35       85.00     
##                  80.35      106.95         .00     
##                 106.95      107.25       87.00     
##                 107.25      115.45       84.00     
##                 115.45      115.80       85.00     
##                 115.80      116.40         .00     
##                 116.40      117.40       77.00     
##                 117.40      119.40       80.00     
##                 119.40      120.45       77.00     
##                 120.45      121.90         .00     
##                 121.90      122.35       87.00     
##                 122.35      127.90       84.00     
##                 127.90      128.30       85.00     
##                 128.30      130.95         .00     
##                 130.95      131.25       87.00     
##                 131.25      133.95       84.00     
##                 133.95      134.15       85.00     
##    last_layer   134.15
# --------------------------
~A DEPTH    GAM(NAT) SP       RES(16N) RES(64N) RES      
# ...
    26.450    53.200      .034    32.500    36.000   218.100
    26.500    42.400      .034    32.600    35.800   215.500
    26.550    23.400      .034    32.700    35.700   213.100
    26.600    44.200      .034    33.000    35.500   214.900
    26.650    44.100      .034    33.000    35.400   222.800
    26.700    31.300      .034    32.700    35.500   228.800
    26.750    34.400      .034    32.400    35.500   230.200
    26.800    43.100      .033    32.200    35.500   227.200
    26.850    41.100      .034    32.200    35.400   221.600
    26.900    35.500      .036    32.200    35.400   216.400
    26.950    36.800      .035    32.000    35.400   213.700
    27.000    46.500      .035    31.900    35.300   215.300
    27.050    48.400      .035    31.800    35.300   218.300
    27.100    45.000      .035    31.900    35.300   220.400
    27.150    38.100      .035    31.800    35.300   222.000
    27.200    41.500      .035    31.700    35.400   223.400
    27.250    39.700      .035    31.600    35.400   224.100
    27.300    23.900      .035    31.700    35.300   223.900
    27.350    28.800      .035    31.900    35.100   223.800
    27.400    27.000      .035    32.300    34.900   224.100
    27.450    22.000      .034    32.700    34.700   224.000
    27.500    35.600      .031    33.200    34.600   222.700
    27.550    38.000      .030    33.500    34.500   220.800
    27.600    42.000      .031    33.800    34.400   218.900
    27.650    33.800      .031    33.900    34.300   216.800
    27.700    35.800      .031    34.000    34.300   214.000
    27.750    29.400      .032    34.200    34.300   212.300
    27.800    25.700      .032    34.100    34.200   212.900
    27.850    33.000      .033    33.800    34.100   213.500
    27.900    30.400      .034    33.600    34.000   213.800
    27.950    34.900      .034    32.900    34.000   214.800
    28.000    38.200      .035    32.100    34.000   214.200
    28.050    33.200      .035    31.800    34.000   212.500
    28.100    28.400      .035    31.600    34.000   217.300
    28.150    22.600      .037    31.000    34.000   224.000
    28.200    23.500      .037    30.600    34.100   227.000
    28.250    25.100      .038    30.600    34.200   227.700
    28.300    35.000      .042    30.700    34.300   223.400
    28.350    29.200      .045    31.400    34.200   221.600
    28.400    28.300      .045    31.900    34.200   224.200
    28.450    48.000      .044    31.700    34.200   223.700
    28.500    36.500      .044    31.700    34.100   219.800
    28.550    37.600      .044    32.200    34.000   220.000
    28.600    31.400      .044    32.300    33.800   221.800
    28.650    27.200      .044    32.000    33.700   223.100
    28.700    34.100      .044    31.800    33.500   223.900
    28.750    43.600      .043    31.900    33.400   224.600
    28.800    48.100      .043    31.900    33.300   224.700
    28.850    44.000      .043    32.100    33.300   225.100
    28.900    26.900      .043    32.200    33.400   225.600
    28.950    45.700      .042    32.200    33.600   225.200
    29.000    30.700      .042    32.200    33.900   224.500
    29.050    30.200      .043    32.300    34.000   223.800
    29.100    40.600      .043    32.200    34.100   223.500
    29.150    68.500      .044    32.200    34.200   223.700
    29.200    39.600      .044    31.900    34.300   224.500
    29.250    35.900      .043    31.500    34.300   225.300
    29.300    50.900      .043    31.200    34.300   225.200
    29.350    39.500      .043    31.000    34.300   224.200
    29.400    42.400      .044    30.900    34.200   224.000
    29.450    51.000      .044    30.800    34.100   224.900
    29.500    26.000      .044    31.000    34.000   225.400
    29.550    25.900      .044    31.200    33.900   223.800
    29.600    39.000      .044    31.700    33.900   220.900
    29.650    29.100      .044    32.300    33.700   218.100
    29.700    39.200      .044    32.600    33.400   216.400
    29.750    49.800      .044    32.700    33.200   214.200
    29.800    39.200      .043    32.600    33.000   213.400
    29.850    40.700      .043    32.500    32.700   213.800
    29.900    46.500      .043    32.300    32.500   215.200
    29.950    56.400      .043    32.200    32.400   217.500
    30.000    61.400      .043    32.300    32.300   220.100
    30.050    38.400      .043    32.500    32.100   220.100
    30.100    54.600      .043    32.900    32.000   219.800
    30.150    28.800      .043    33.500    31.700   220.900
    30.200    27.900      .042    33.900    31.500   222.400
    30.250    40.300      .042    34.000    31.500   224.100
    30.300    15.000      .042    34.100    31.300   225.100
    30.350    38.200      .042    33.900    31.200   226.500
    30.400    23.200      .042    33.800    31.100   227.200
    30.450    26.100      .042    33.700    31.000   228.100
    30.500    33.100      .042    33.700    30.900   230.100
    30.550    36.200      .042    33.700    30.900   231.800
    30.600    29.500      .042    33.600    30.900   232.500
    30.650    49.200      .042    33.700    30.800   231.700
    30.700    42.700      .042    33.600    30.700   229.900
    30.750    66.300      .042    33.500    30.800   227.700
    30.800    37.100      .042    33.100    30.900   225.700
    30.850    41.600      .042    32.600    30.800   224.500
    30.900    43.900      .042    31.300    30.600   224.700
    30.950    45.900      .042    30.200    30.400   225.200
    31.000    68.800      .044    29.700    30.500   224.400
    31.050    68.400      .046    29.400    30.600   223.000
    31.100    51.300      .046    29.400    30.600   223.400
    31.150    36.700      .045    29.300    30.700   226.500
    31.200    65.700      .045    29.300    30.700   224.200
    31.250    61.600      .045    29.400    30.800   214.900
    31.300    39.300      .046    30.200    31.000   210.200
    31.350    58.700      .046    30.400    31.200   209.000
    31.400    57.900      .046    29.900    31.400   208.500
    31.450    75.200      .046    29.300    31.500   208.600
    31.500    49.300      .046    28.500    31.600   209.300
    31.550    40.500      .046    27.900    31.600   210.000
    31.600    59.800      .046    27.500    31.600   211.200
    31.650    50.600      .047    27.300    31.400   212.900
    31.700    44.900      .047    27.100    31.400   215.300
    31.750    48.200      .046    27.000    31.300   218.900
    31.800    64.000      .044    27.000    31.200   220.800
    31.850    62.600      .044    27.100    31.100   218.900
    31.900    37.700      .044    27.500    31.100   216.700
    31.950    87.100      .043    27.900    31.100   216.100
    32.000    70.100      .043    27.900    30.900   216.000
    32.050    53.600      .043    27.800    30.600   216.000
    32.100    72.400      .043    27.800    30.200   215.900
    32.150    79.900      .043    27.800    29.900   215.200
    32.200    46.600      .043    27.700    29.700   214.500
    32.250    48.500      .044    27.600    29.400   214.800
    32.300    44.900      .044    27.500    29.200   215.900
    32.350    57.400      .044    27.300    29.000   216.800
    32.400    65.400      .044    27.200    28.800   216.700
    32.450    39.200      .044    27.300    28.800   216.300
    32.500    51.500      .044    27.400    28.700   216.300
    32.550    45.700      .044    27.400    28.700   216.500
    32.600    43.300      .044    27.400    28.700   216.500
    32.650    63.700      .044    27.300    28.700   215.400
    32.700    54.300      .044    27.200    28.700   214.600
    32.750    54.200      .045    27.300    28.600   213.800
    32.800    42.700      .045    27.200    28.500   213.700
    32.850    58.000      .046    26.900    28.400   214.100
    32.900    46.500      .045    26.600    28.200   214.700
    32.950    61.200      .045    26.400    28.100   214.400
    33.000    34.400      .045    26.200    28.000   212.500
