~Version Information
 VERS.                2.0:  CWLS LOG ASCII STANDARD -VERSION 2.0
 WRAP.                 NO:  ONE LINE PER DEPTH STEP
~WELL INFORMATION BLOCK
#MNEM.UNIT       DATA		            DESCRIPTION OF MNEMONIC
#---------    -------------            ------------------------
 STRT.M      .000                        :START DEPTH
 STOP.M    99.850                        :STOP DEPTH
 STEP.M      .050                        :STEP
 NULL.    -999999.0                      :NULL VALUE
 COMP.       WML                         :COMPANY
 WELL.                          B62B0901 :WELL
 FLD .    Klimmen                        :FIELD
 CNTY.                                   :COUNTY
 STAT.                                   :STATE
 SRVC.                                   :SERVICE COMPANY
 DATE.     17-JAN-92                     :LOG DATE
 UWI .                                   :UNIQUE WELL ID
 LIC .                                   :LICENSE NUMBER
~Curve Information Block
#MNEM.UNIT      API CODE     Curve Description
#---------    -------------  ------------------------
DEPTH    .M         00 000 00 00          :  1  DEPTH
SN40     .OHM.M     00 000 00 00          :  2  SN40
SP       .V         00 000 00 00          :  3  SP
CAL      .MM        00 000 00 00          :  4  CAL
LN160    .OHM.M     00 000 00 00          :  5  LN160
GAMMA    .CPS       00 000 00 00          :  6  GAMMA
~Parameter Information Block
#MNEM.UNIT   Information     Description
#---------- ---------------  ------------------------
 FILE.                         :File Type
 FIID.                         :File Type Identifier
 VERS.                         :System Version
 SER .                         :System Serial Number
 TRUK.                         :Truck Calibration Number
 TOOL.                         :Tool Serial Number
 TIME.                         :Time    HrHrMinMin
 LAT .                         :Latitude
 LON .                         :Longitude
 LMF .            MV           :LOG Measured FROM
 DMF .                         :Driller Measured From
 PD  .                         :Permanent Data
 PDEV.                         :Elevation Permanent Data
 EKB .M                        :Elevation Kelly Bushing
 ELEV.DF                       :Elevation DF
 EGL .M                        :Elevation Ground Level
 DRDP.                         :Drillers Depth
 CASD.                         :Casing Diameter
 CASB.                         :Casing Bottom
 CASX.                         :Casing Type
 CAST.                         :Casing Thickness
 TNOC.                         :Time Circulation Stopped
 LOGU.                         :Logging Unit
 RECB.            Bergsma      :Recorded By
 OSR1.                         :Other Services
 OSR2.                         :Other Services
 OSR3.                         :Other Services
 BS  .MM                       :Bit Size
 MST .                         :Mean Surface Temperature
 TGRD.                         :Temperature Gradiant
 MAGN.                         :Magnetic Declination
 MDEN.                         :Density Matrix
 MATR.                         :Neutron Matrix
 DTMT.                         :Delta T Matrix
 DTFL.                         :Delta T Fluid
 MUDS.                         :Mud Sample Source
 MRS .                         :Mud Resistivity
 MTP .                         :Mud Temperature
 MFRS.                         :Resistivity Mud Filtrate
 MFTP.                         :Temperature Mud Filtrate
 MCRS.                         :Resistivity Mud Cake
 MCTP.                         :Temperature Mud Cake
 FTYP.                         :Fluid Type
 FD  .K/M3                     :Fluid Density
 DFV .S                        :Fluid Viscosity
 FPH .                         :Fuild PH
 ELCO.                         :Electron Cutoff
~Other Information
#MNEM.UNIT  Information      Description
#---------- ---------------  ------------------------
# --------------------------
## COMMENTS    Top_Depth   Bot_Depth  LithCode  Lat    Long   Elev_Gl
##    Type of LithCode   Lithologie - 1970
##                    .00         .30        7.00     
##                    .35        4.60       11.00     
##                   4.65       77.95         .00     
##                  78.00       88.95        7.00     
##                  89.00       99.05       10.00     
##                  99.10       99.10         .00     
##    last_layer   99.1
# --------------------------
~A DEPTH    SN40     SP       CAL      LN160    GAMMA    
# ...
    50.800    44.520      .022   245.900    48.720    15.590
    50.850    43.950      .022   246.200    49.070    15.470
    50.900    43.500      .022   246.400    49.330    15.390
    50.950    42.750      .022   246.600    49.470    15.350
    51.000    42.280      .022   246.800    49.560    15.380
    51.050    41.850      .022   247.000    49.600    15.410
    51.100    41.430      .022   247.200    49.600    15.350
    51.150    41.070      .022   247.400    49.520    15.080
    51.200    40.810      .022   247.500    49.310    14.800
    51.250    40.630      .022   247.600    48.530    14.820
    51.300    40.410      .022   247.700    47.410    14.850
    51.350    40.150      .022   247.600    46.800    14.800
    51.400    39.850      .022   247.500    46.260    14.140
    51.450    39.850      .022   247.600    45.780    13.890
    51.500    39.910      .022   247.600    45.440    13.760
    51.550    39.950      .022   248.500    45.190    13.680
    51.600    39.870      .022   249.800    44.920    13.720
    51.650    39.580      .022   250.400    44.640    13.780
    51.700    39.090      .022   249.700    44.180    13.410
    51.750    38.250      .022   248.700    43.700    13.260
    51.800    37.760      .022   247.500    43.150    13.550
    51.850    37.170      .022   246.100    42.640    14.090
    51.900    36.530      .022   246.300    42.030    14.410
    51.950    35.790      .022   246.400    41.280    14.560
    52.000    35.140      .022   246.100    40.420    14.680
    52.050    34.620      .022   245.100    39.420    14.820
    52.100    34.720      .022   244.000    38.480    14.870
    52.150    35.010      .022   243.500    37.520    14.910
    52.200    35.440      .022   243.300    37.020    14.920
    52.250    35.820      .022   242.900    36.530    14.730
    52.300    36.140      .022   242.200    36.160    14.210
    52.350    36.320      .021   241.900    36.050    14.200
    52.400    35.780      .021   242.000    35.960    14.210
    52.450    35.030      .021   242.300    35.860    14.220
    52.500    34.200      .021   242.700    35.750    14.180
    52.550    33.340      .021   244.300    35.640    13.850
    52.600    31.640      .021   245.500    35.530    13.860
    52.650    30.960      .021   246.000    35.420    14.010
    52.700    30.050      .021   246.200    35.400    14.250
    52.750    29.780      .021   240.200    35.390    14.410
    52.800    29.940      .021   239.000    35.390    14.450
    52.850    30.520      .022   239.100    35.370    14.250
    52.900    31.470      .022   239.100    35.330    13.500
    52.950    32.760      .022   240.000    35.250    13.330
    53.000    33.810      .022   241.500    35.150    13.210
    53.050    34.610      .022   241.600    35.100    13.060
    53.100    34.740      .022   240.800    35.020    12.850
    53.150    34.590      .022   239.600    34.930    12.460
    53.200    34.310      .021   238.600    34.860    12.030
    53.250    34.040      .021   238.700    34.820    11.590
    53.300    33.480      .021   239.600    34.990    11.370
    53.350    32.910      .021   240.600    35.230    11.190
    53.400    32.230      .021   240.700    35.610    10.950
    53.450    32.060      .021   241.400    35.890    10.720
    53.500    32.180      .021   242.400    36.070    10.770
    53.550    32.520      .021   243.300    36.180    10.920
    53.600    33.140      .021   244.600    36.200    11.180
    53.650    33.600      .021   245.900    36.130    11.420
    53.700    34.080      .021   247.000    35.800    11.700
    53.750    34.600      .021   248.200    35.380    11.890
    53.800    35.090      .021   249.100    34.930    11.910
    53.850    35.250      .021   248.800    34.450    11.700
    53.900    34.970      .021   248.000    34.060    11.650
    53.950    34.610      .020   247.600    33.550    12.000
    54.000    33.380      .020   247.500    33.380    12.360
    54.050    33.180      .020   243.700    33.260    12.610
    54.100    33.220      .020   243.100    33.290    13.110
    54.150    33.380      .020   242.200    33.410    13.460
    54.200    33.560      .021   242.600    33.560    13.690
    54.250    33.700      .021   245.300    33.760    13.960
    54.300    33.760      .021   246.900    33.910    14.270
    54.350    33.480      .021   247.700    34.080    14.510
    54.400    33.010      .021   248.400    34.160    14.730
    54.450    32.170      .021   249.100    34.210    15.020
    54.500    30.170      .021   248.400    34.230    15.000
    54.550    29.330      .021   245.900    34.250    14.820
    54.600    28.860      .021   244.100    34.270    14.700
    54.650    29.090      .022   243.200    34.310    14.540
    54.700    29.660      .022   244.100    34.350    14.200
    54.750    30.020      .023   241.800    34.400    13.940
    54.800    30.370      .024   241.000    34.450    13.840
    54.850    30.650      .025   242.100    34.490    13.810
    54.900    30.890      .025   243.600    34.520    13.800
    54.950    31.030      .024   244.100    34.550    13.840
    55.000    31.090      .024   244.600    34.500    13.920
    55.050    31.140      .024   245.400    34.380    13.950
    55.100    31.180      .024   246.800    34.210    13.890
    55.150    31.230      .024   247.200    33.840    13.670
    55.200    31.240      .024   247.200    33.530    13.340
    55.250    31.180      .024   246.200    33.430    13.030
    55.300    31.030      .024   244.300    33.350    12.450
    55.350    30.800      .024   244.500    33.430    12.080
    55.400    30.890      .024   244.400    33.510    12.030
    55.450    31.150      .024   243.400    33.730    12.310
    55.500    31.440      .024   241.100    33.980    12.540
    55.550    31.820      .024   240.300    34.060    12.680
    55.600    32.160      .024   241.500    34.060    12.800
    55.650    32.420      .024   243.800    34.010    12.850
    55.700    32.610      .024   245.900    33.880    12.820
    55.750    32.600      .023   247.900    33.650    12.760
    55.800    32.090      .023   249.800    33.410    12.730
    55.850    31.020      .023   250.900    33.020    12.770
    55.900    29.710      .023   247.500    32.650    12.820
    55.950    28.860      .023   244.000    32.240    12.940
    56.000    28.270      .024   242.500    31.770    13.420
    56.050    28.280      .024   241.900    31.340    13.700
    56.100    28.960      .024   241.400    31.020    14.210
    56.150    29.730      .024   241.100    30.870    14.450
    56.200    30.730      .024   242.100    30.830    14.420
    56.250    31.340      .024   244.900    30.860    14.350
    56.300    31.690      .024   244.600    30.890    14.350
    56.350    31.670      .023   242.400    30.830    14.400
    56.400    31.320      .023   240.000    30.660    14.360
    56.450    30.760      .023   239.600    30.480    13.840
    56.500    29.350      .023   241.900    30.250    12.510
    56.550    28.860      .023   245.100    29.550    12.300
    56.600    28.450      .023   245.000    28.750    12.190
    56.650    28.320      .023   244.100    27.980    12.250
    56.700    28.230      .023   244.200    27.160    12.470
    56.750    28.190      .023   244.200    25.990    12.840
    56.800    28.410      .023   243.100    25.030    13.030
    56.850    29.160      .023   241.800    24.080    13.180
    56.900    29.620      .023   240.900    23.090    13.260
    56.950    30.750      .023   242.000    22.560    13.270
    57.000    32.580      .023   243.200    22.180    13.150
    57.050    33.140      .023   242.800    21.920    12.740
    57.100    33.670      .023   242.300    21.710    12.330
    57.150    34.090      .023   242.200    21.360    12.260
    57.200    34.110      .023   242.300    21.010    12.370
    57.250    33.410      .022   242.700    20.710    12.530
    57.300    31.940      .022   242.900    20.290    12.470
    57.350    29.340      .022   246.400    19.910    12.130
