~Version Information
 VERS.                2.0:  CWLS LOG ASCII STANDARD -VERSION 2.0
 WRAP.                 NO:  ONE LINE PER DEPTH STEP
~WELL INFORMATION BLOCK
#MNEM.UNIT       DATA		            DESCRIPTION OF MNEMONIC
#---------    -------------            ------------------------
 STRT.M      .000                        :START DEPTH
 STOP.M   #######                        :STOP DEPTH
 STEP.M      .050                        :STEP
 NULL.    -999999.0                      :NULL VALUE
 COMP.       SCHIFOOD                    :COMPANY
 WELL.                          B62B0896 :WELL
 FLD .    Hoensbroek                     :FIELD
 CNTY.                                   :COUNTY
 STAT.                                   :STATE
 SRVC.                                   :SERVICE COMPANY
 DATE.     17-JUL-90                     :LOG DATE
 UWI .                                   :UNIQUE WELL ID
 LIC .                                   :LICENSE NUMBER
~Curve Information Block
#MNEM.UNIT      API CODE     Curve Description
#---------    -------------  ------------------------
DEPTH    .M         00 000 00 00          :  1  DEPTH
SN40     .OHM.M     00 000 00 00          :  2  SN40
SP       .V         00 000 00 00          :  3  SP
CAL      .MM        00 000 00 00          :  4  CAL
LN160    .OHM.M     00 000 00 00          :  5  LN160
GAMMA    .CPS       00 000 00 00          :  6  GAMMA
~Parameter Information Block
#MNEM.UNIT   Information     Description
#---------- ---------------  ------------------------
 FILE.                         :File Type
 FIID.                         :File Type Identifier
 VERS.                         :System Version
 SER .                         :System Serial Number
 TRUK.                         :Truck Calibration Number
 TOOL.                         :Tool Serial Number
 TIME.                         :Time    HrHrMinMin
 LAT .                         :Latitude
 LON .                         :Longitude
 LMF .            MV           :LOG Measured FROM
 DMF .                         :Driller Measured From
 PD  .                         :Permanent Data
 PDEV.                         :Elevation Permanent Data
 EKB .M                        :Elevation Kelly Bushing
 ELEV.DF                       :Elevation DF
 EGL .M                        :Elevation Ground Level
 DRDP.                         :Drillers Depth
 CASD.                         :Casing Diameter
 CASB.                         :Casing Bottom
 CASX.                         :Casing Type
 CAST.                         :Casing Thickness
 TNOC.                         :Time Circulation Stopped
 LOGU.                         :Logging Unit
 RECB.            Bergsma      :Recorded By
 OSR1.                         :Other Services
 OSR2.                         :Other Services
 OSR3.                         :Other Services
 BS  .MM                       :Bit Size
 MST .                         :Mean Surface Temperature
 TGRD.                         :Temperature Gradiant
 MAGN.                         :Magnetic Declination
 MDEN.                         :Density Matrix
 MATR.                         :Neutron Matrix
 DTMT.                         :Delta T Matrix
 DTFL.                         :Delta T Fluid
 MUDS.                         :Mud Sample Source
 MRS .            6            :Mud Resistivity
 MTP .            19           :Mud Temperature
 MFRS.                         :Resistivity Mud Filtrate
 MFTP.                         :Temperature Mud Filtrate
 MCRS.                         :Resistivity Mud Cake
 MCTP.                         :Temperature Mud Cake
 FTYP.                         :Fluid Type
 FD  .K/M3                     :Fluid Density
 DFV .S                        :Fluid Viscosity
 FPH .                         :Fuild PH
 ELCO.                         :Electron Cutoff
~Other Information
#MNEM.UNIT  Information      Description
#---------- ---------------  ------------------------
# --------------------------
## COMMENTS    Top_Depth   Bot_Depth  LithCode  Lat    Long   Elev_Gl
##    Type of LithCode   Lithologie - 1970
##                    .00        6.00         .00     
##                   6.05        8.00        2.00     
##                   8.05       11.50       22.00     
##                  11.55       15.20       23.00     
##                  15.25       19.00       22.00     
##                  19.05       20.25       11.00     
##                  20.30       22.10       12.00     
##                  22.15       23.70       11.00     
##                  23.75       25.15       12.00     
##                  25.20       26.10       11.00     
##                  26.15       27.20       12.00     
##                  27.25       35.00       11.00     
##                  35.05       47.55       12.00     
##                  47.60       51.00        7.00     
##                  51.05       52.25       11.00     
##                  52.30       54.00        7.00     
##                  54.05       55.10       11.00     
##                  55.15       58.00       12.00     
##                  58.05       62.60       11.00     
##                  62.65       67.20        8.00     
##                  67.25       70.05        9.00     
##                  70.10       74.00        7.00     
##                  74.05       75.40        8.00     
##                  75.45       80.00        7.00     
##                  80.05       92.40        9.00     
##                  92.45       94.50       10.00     
##                  94.55       96.90        8.00     
##                  96.95       99.30       10.00     
##                  99.35       99.35         .00     
##    last_layer   99.35
# --------------------------
~A DEPTH    SN40     SP       CAL      LN160    GAMMA    
# ...
   112.000    38.550      .075   450.100    64.110    17.660
   112.050    38.710      .075   450.000    63.990    17.570
   112.100    38.810      .075   450.300    63.890    17.560
   112.150    39.030      .075   450.500    63.750    17.560
   112.200    39.200      .075   450.700    63.590    17.580
   112.250    39.570      .075   451.000    63.410    17.600
   112.300    39.950      .074   451.200    63.260    17.580
   112.350    40.330      .074   451.500    63.020    17.500
   112.400    40.710      .074   451.700    62.780    17.380
   112.450    41.100      .074   451.900    62.590    17.240
   112.500    41.520      .074   452.000    62.500    17.130
   112.550    41.950      .073   451.900    62.430    16.990
   112.600    42.370      .073   451.800    62.380    16.940
   112.650    42.700      .073   451.400    62.370    16.960
   112.700    42.920      .072   451.300    62.390    16.990
   112.750    43.140      .072   451.300    62.430    17.040
   112.800    43.330      .072   451.300    62.450    17.100
   112.850    44.140      .071   451.300    62.490    17.180
   112.900    44.950      .071   450.900    62.540    17.250
   112.950    45.890      .070   450.200    62.600    17.330
   113.000    46.160      .070   449.300    62.670    17.430
   113.050    46.470      .070   448.500    62.740    17.520
   113.100    46.630      .070   447.800    62.820    17.580
   113.150    46.810      .070   447.600    62.930    17.600
   113.200    47.250      .070   448.300    63.090    17.530
   113.250    47.680      .070   449.400    63.300    17.280
   113.300    48.120      .069   450.100    63.470    16.990
   113.350    48.550      .069   450.800    64.020    16.680
   113.400    48.990      .069   451.200    64.800    16.320
   113.450    49.550      .069   451.400    65.580    16.090
   113.500    49.580      .069   451.500    66.370    15.870
   113.550    49.550      .068   451.700    67.150    15.850
   113.600    49.320      .067   451.700    68.030    15.850
   113.650    48.910      .066   451.700    68.640    15.920
   113.700    48.340      .064   451.000    69.130    16.000
   113.750    48.070      .063   450.200    69.620    16.040
   113.800    48.010      .063   449.300    70.100    16.040
   113.850    48.030      .063   448.400    70.590    16.030
   113.900    48.240      .063   447.800    71.080    16.020
   113.950    48.680      .063   447.300    71.570    15.990
   114.000    49.200      .063   447.300    71.570    15.890
   114.050    49.570      .063   447.200    71.300    15.810
   114.100    49.790      .063   447.300    71.040    15.770
   114.150    50.050      .063   447.500    70.770    15.780
   114.200    50.210      .063   447.700    70.500    15.700
   114.250    50.480      .063   447.600    70.280    15.630
   114.300    50.560      .063   447.600    69.470    15.600
   114.350    50.630      .063   447.600    68.660    15.690
   114.400    50.740      .064   447.700    67.850    15.890
   114.450    50.960      .064   447.800    67.040    16.030
   114.500    51.210      .064   448.200    66.230    16.090
   114.550    51.360      .065   448.800    65.470    16.090
   114.600    51.500      .065   449.200    64.960    16.050
   114.650    51.620      .066   449.600    64.580    16.010
   114.700    51.660      .066   449.800    64.340    15.980
   114.750    51.620      .067   449.900    64.110    15.960
   114.800    51.530      .067   450.400    63.880    15.940
   114.850    51.320      .068   450.200    63.650    15.930
   114.900    50.620      .068   450.100    63.410    15.860
   114.950    49.720      .068   449.900    63.240    15.770
   115.000    49.090      .068   449.500    62.970    15.600
   115.050    48.670      .069   449.000    62.710    15.470
   115.100    47.880      .069   448.600    62.440    15.450
   115.150    47.780      .069   448.100    62.170    15.490
   115.200    47.640      .069   447.700    61.840    15.560
   115.250    47.460      .068   447.200    61.840    15.640
   115.300    47.300      .068   446.800    61.780    15.740
   115.350    47.130      .068   446.400    61.670    15.940
   115.400    46.940      .067   446.100    61.570    16.100
   115.450    46.610      .066   446.100    61.560    16.140
   115.500    46.350      .065   446.100    61.640    16.130
   115.550    46.140      .065   446.400    61.770    16.080
   115.600    45.850      .064   446.800    62.040    15.980
   115.650    45.620      .065   447.400    62.350    15.940
   115.700    45.370      .065   448.500    62.610    16.000
   115.750    45.150      .065   449.400    62.930    16.050
   115.800    44.850      .065   450.200    63.130    16.060
   115.850    44.600      .065   450.300    63.280    16.060
   115.900    44.410      .065   450.200    63.310    16.030
   115.950    44.160      .066   449.900    63.310    15.990
   116.000    43.890      .066   449.200    63.270    16.000
   116.050    43.670      .066   448.500    63.220    16.010
   116.100    43.300      .066   447.600    63.150    16.000
   116.150    42.980      .066   446.800    63.030    15.930
   116.200    42.680      .066   446.200    62.880    15.870
   116.250    42.200      .066   446.300    62.680    15.710
   116.300    41.940      .066   446.400    62.430    15.530
   116.350    41.850      .066   447.000    62.220    15.330
   116.400    41.520      .066   448.000    61.990    15.120
   116.450    41.230      .066   448.600    61.770    15.020
   116.500    40.970      .067   449.000    61.580    15.000
   116.550    40.490      .067   448.700    61.410    14.990
   116.600    40.300      .067   448.300    61.300    15.010
   116.650    40.040      .067   447.900    61.240    15.080
   116.700    39.810      .067   447.200    61.190    15.170
   116.750    39.790      .067   446.600    61.170    15.200
   116.800    39.840      .067   446.500    61.130    15.200
   116.850    39.940      .067   446.700    61.090    15.150
   116.900    40.190      .067   447.000    61.060    15.080
   116.950    40.300      .067   447.400    61.030    14.970
   117.000    40.340      .067   447.900    61.000    14.840
   117.050    40.310      .067   448.300    60.970    14.760
   117.100    40.260      .067   448.700    60.940    14.730
   117.150    40.210      .066   449.000    60.880    14.760
   117.200    40.250      .066   449.200    60.830    14.830
   117.250    40.340      .066   449.100    60.790    14.920
   117.300    40.420      .066   449.100    60.760    15.030
   117.350    40.570      .066   448.900    60.720    15.160
   117.400    40.710      .066   448.800    60.700    15.300
   117.450    40.860      .066   448.800    60.690    15.440
   117.500    41.010      .065   449.100    60.710    15.580
   117.550    41.100      .065   449.400    60.730    15.760
   117.600    41.140      .065   449.900    60.780    15.900
   117.650    41.140      .065   450.200    60.830    15.980
   117.700    41.120      .065   450.500    60.890    16.010
   117.750    41.100      .065   450.400    60.960    16.050
   117.800    41.060      .065   450.200    61.010    16.080
   117.850    41.010      .064   449.800    61.040    16.120
   117.900    40.960      .064   449.300    61.040    16.150
   117.950    40.910      .064   448.700    61.040    16.170
   118.000    40.850      .064   448.100    61.040    16.210
   118.050    40.790      .064   447.800    61.040    16.320
   118.100    40.710      .064   447.700    61.020    16.500
   118.150    40.660      .064   447.700    60.950    16.700
   118.200    40.610      .064   447.900    60.870    16.700
   118.250    40.580      .064   448.200    60.800    16.590
   118.300    40.640      .064   448.500    60.610    16.370
   118.350    40.720      .064   448.900    60.410    16.080
   118.400    40.830      .064   449.200    60.200    15.890
   118.450    40.920      .064   449.300    59.960    15.860
   118.500    41.030      .064   449.400    59.710    15.860
   118.550    41.080      .064   449.500    59.380    15.820
