~Version Information Block
 VERS.                2.00:     CWLS LOG ASCII STANDARD - VERSION 2.000000
 WRAP.                  NO:     One Line Per Depth Step
#
~Well Information Block
#MNEM.UNIT                     Data                         Information
#----------   ------------------------------------------   ----------------
 STRT.M                                         0.0000:
 STOP.M                                       171.0000:
 STEP.M                                         0.0200:
 NULL.                                       -999.2500:
 COMP.                                                :     COMPANY
 WELL.                                        B62B0838:     WELL
 FLD .                                                :     FIELD
 CNTY.                                                :     COUNTY
 STAT.                                                :     STATE
 CTRY.                                                :     COUNTRY
 SRVC.                                                :     SERVICE COMPANY
 DATE.                                                :     DATE
 API .                                                :     API NUMBER
 UWI .                                                :     UWI NUMBER
#
~Curve Information Block
#MNEM.UNIT       API CODE      Curve Description
#----------    -------------   -------------------
 DEPT.M                    :   Depth in Meters
 SN20.OHM-M                :   SN20
 LN100.OHM-M               :   LN100
 CALI.CM                   :   Calr
 GAM(NAT) .CPS             :   GAM(NAT)
#
~Parameter Information Block
#MNEM.UNIT            Value               Description
#----------    --------------------    -------------------
 PDAT.                            :    Permanent Datum
 EPD .M                     0.0000:    Elevation Of Perm. Datum
 WSTA.                         LOC:    
 E   .M                     0.0000:    E (Stretch Coefficient Of The Cable)
 TD  .M                   171.0000:    Total Depth
#
~Other Information Block
<DescLogPlotStart>   NEURALOG PLOT DEFINITION
PLOTDEFVERSION: 3
LASFILE: V:\a4\j4\p44009\boorgatmetingen\SCANS TE VERWERKEN IN DINO\wlg\B62B083
DEPTHSCALE: 200.000000
RESOLUTION: 600
DEPTHLABELFREQ: 50.000000
HEAVYGRIDFREQ: 50.000000
MEDIUMGRIDFREQ: 25.000000
LIGHTGRIDFREQ: 5.000000
#
#   TRACK 1
#
STARTTRACK: 
 LEFTX: 13.760000 inch
 RIGHTX: 15.010000 inch
 SCALETYPE: LINEAR
 NUMCHARTDIVISIONS: 10
CURVE: CALI  30.000000  50.000000  (0,0,255)      Solid             2     N    
ENDTRACK: 
#
#   TRACK 2
#
STARTTRACK: 
 LEFTX: 16.551667 inch
 RIGHTX: 21.551667 inch
 SCALETYPE: LINEAR
 NUMCHARTDIVISIONS: 10
CURVE: GAM(NAT)   0.000000   50.000000  (0,131,131)    Solid             2     N    
ENDTRACK: 
#
#   TRACK 3
#
STARTTRACK: 
 LEFTX: 15.343333 inch
 RIGHTX: 21.240000 inch
 SCALETYPE: LINEAR
 NUMCHARTDIVISIONS: 10
CURVE: SN20  0.000000   100.000000 (255,0,255)    Solid             2     Y    
CURVE: LN100  0.000000   100.000000 (255,0,0)      Dot               2     Y    
ENDTRACK: 
<DescLogPlotEnd>
~Other Information
#MNEM.UNIT  Information      Description
#---------- ---------------  ------------------------
# --------------------------
## COMMENTS    Top_Depth   Bot_Depth  LithCode  Lat    Long   Elev_Gl 
##	0.0	31.2	0.0
##	31.25	97.0	25.0
##	97.05	97.5	11.0
##	97.55	104.0	12.0
##	104.05	110.1	11.0
##	110.15	111.7	12.0
##	111.75	113.1	11.0
##	113.15	116.6	12.0
##	116.65	124.1	11.0
##	124.15	125.9	12.0
##	125.95	139.0	11.0
##	139.05	140.0	10.0
##	140.05	145.5	11.0
##	145.55	146.3	10.0
##	146.35	148.0	12.0
##	148.05	149.4	10.0
##	149.45	150.0	11.0
##	150.05	151.9	10.0
##	151.95	152.6	11.0
##	152.65	155.0	10.0
##	155.05	160.9	14.0
##	160.95	163.2	11.0
##	163.25	164.0	10.0
##	164.05	167.8	11.0
##	167.85	170.0	10.0
##	170.05	171.95	11.0
# --------------------------
~A  DEPTH         SN20             LN100            CALI             GAM(NAT)  
# ...
     170.000      12.37318662      14.35353505      38.63377580      37.98850779
     170.020      12.31174829      14.34143584      38.63149231      38.12114776
     170.040      12.25030997      14.35274166      38.59517312      38.52417398
     170.060      12.18887165      14.28490673      38.61111111      38.77877254
     170.080      12.12743332      14.28490673      38.61111111      39.04038193
     170.100      12.06599500      14.28490673      38.58465608      39.19966894
     170.120      12.00455667      14.28490673      38.58465608      39.46674854
     170.140      11.94311835      14.28490673      38.58465608      39.63307999
     170.160      11.88168003    -999.25000000      38.61111111      39.81566191
     170.180      11.87676653    -999.25000000      38.61111111      40.02599837
     170.200      11.87676653    -999.25000000      38.64208360      40.20987962
     170.220      11.80893160    -999.25000000      38.66402116      40.47034987
     170.240      11.80893160    -999.25000000      38.67278072      40.70277684
     170.260      11.76293872    -999.25000000      38.70909991      40.75921542
     170.280      11.74109666    -999.25000000      38.71828646      40.77612445
     170.300      11.74109666    -999.25000000      38.76013594      40.76852033
     170.320      11.73206655    -999.25000000      38.76984127      40.85657781
     170.340      11.70523142    -999.25000000      38.82275132      40.98564216
     170.360      11.67839629    -999.25000000      38.86424085      41.12622442
     170.380      11.66195591    -999.25000000      38.90056004      41.21277492
     170.400      11.66195591    -999.25000000      38.92857143      40.88917763
     170.420      11.61674055    -999.25000000      38.97319843      40.84905478
     170.440      11.59412097    -999.25000000      39.00793651      40.80893192
     170.460      11.59412097    -999.25000000      39.00793651      40.76880907
     170.480      11.59412097    -999.25000000      39.00793651      40.74559525
     170.500      11.59412097    -999.25000000    -999.25000000      41.54726519
     170.520    -999.25000000    -999.25000000    -999.25000000      42.04191066
     170.540    -999.25000000    -999.25000000    -999.25000000      42.37734823
     170.560    -999.25000000    -999.25000000    -999.25000000      42.94129699
     170.580    -999.25000000    -999.25000000    -999.25000000      43.43690559
     170.600    -999.25000000    -999.25000000    -999.25000000      44.28750030
     170.620    -999.25000000    -999.25000000    -999.25000000      44.81321159
     170.640    -999.25000000    -999.25000000    -999.25000000      45.25829877
     170.660    -999.25000000    -999.25000000    -999.25000000      45.57719714
     170.680    -999.25000000    -999.25000000    -999.25000000      46.17125979
     170.700    -999.25000000    -999.25000000    -999.25000000      46.87598265
     170.720    -999.25000000    -999.25000000    -999.25000000      46.50828542
     170.740    -999.25000000    -999.25000000    -999.25000000      46.40753727
     170.760    -999.25000000    -999.25000000    -999.25000000      46.24988579
     170.780    -999.25000000    -999.25000000    -999.25000000      45.83561457
     170.800    -999.25000000    -999.25000000    -999.25000000      45.53627333
     170.820    -999.25000000    -999.25000000    -999.25000000      45.38497410
     170.840    -999.25000000    -999.25000000    -999.25000000      45.11011437
     170.860    -999.25000000    -999.25000000    -999.25000000      44.09029422
     170.880    -999.25000000    -999.25000000    -999.25000000      44.09029422
     170.900    -999.25000000    -999.25000000    -999.25000000      44.09029422
     170.920    -999.25000000    -999.25000000    -999.25000000      44.85148928
     170.940    -999.25000000    -999.25000000    -999.25000000      45.21046105
     170.960    -999.25000000    -999.25000000    -999.25000000      46.23774095
     170.980    -999.25000000    -999.25000000    -999.25000000      46.23774095
     171.000    -999.25000000    -999.25000000    -999.25000000      46.23774095
