~Version Information Block
 VERS.                2.00:     CWLS LOG ASCII STANDARD - VERSION 2.000000
 WRAP.                  NO:     One Line Per Depth Step
#
~Well Information Block
#MNEM.UNIT                     Data                         Information
#----------   ------------------------------------------   ----------------
 STRT.M                                         0.0000:
 STOP.M                                       171.0000:
 STEP.M                                         0.0200:
 NULL.                                       -999.2500:
 COMP.                                                :     COMPANY
 WELL.                                        B62B0838:     WELL
 FLD .                                                :     FIELD
 CNTY.                                                :     COUNTY
 STAT.                                                :     STATE
 CTRY.                                                :     COUNTRY
 SRVC.                                                :     SERVICE COMPANY
 DATE.                                                :     DATE
 API .                                                :     API NUMBER
 UWI .                                                :     UWI NUMBER
#
~Curve Information Block
#MNEM.UNIT       API CODE      Curve Description
#----------    -------------   -------------------
 DEPT.M                    :   Depth in Meters
 SN20.OHM-M                :   SN20
 LN100.OHM-M               :   LN100
 CALI.CM                   :   Calr
 GAM(NAT) .CPS             :   GAM(NAT)
#
~Parameter Information Block
#MNEM.UNIT            Value               Description
#----------    --------------------    -------------------
 PDAT.                            :    Permanent Datum
 EPD .M                     0.0000:    Elevation Of Perm. Datum
 WSTA.                         LOC:    
 E   .M                     0.0000:    E (Stretch Coefficient Of The Cable)
 TD  .M                   171.0000:    Total Depth
#
~Other Information Block
<DescLogPlotStart>   NEURALOG PLOT DEFINITION
PLOTDEFVERSION: 3
LASFILE: V:\a4\j4\p44009\boorgatmetingen\SCANS TE VERWERKEN IN DINO\wlg\B62B083
DEPTHSCALE: 200.000000
RESOLUTION: 600
DEPTHLABELFREQ: 50.000000
HEAVYGRIDFREQ: 50.000000
MEDIUMGRIDFREQ: 25.000000
LIGHTGRIDFREQ: 5.000000
#
#   TRACK 1
#
STARTTRACK: 
 LEFTX: 13.760000 inch
 RIGHTX: 15.010000 inch
 SCALETYPE: LINEAR
 NUMCHARTDIVISIONS: 10
CURVE: CALI  30.000000  50.000000  (0,0,255)      Solid             2     N    
ENDTRACK: 
#
#   TRACK 2
#
STARTTRACK: 
 LEFTX: 16.551667 inch
 RIGHTX: 21.551667 inch
 SCALETYPE: LINEAR
 NUMCHARTDIVISIONS: 10
CURVE: GAM(NAT)   0.000000   50.000000  (0,131,131)    Solid             2     N    
ENDTRACK: 
#
#   TRACK 3
#
STARTTRACK: 
 LEFTX: 15.343333 inch
 RIGHTX: 21.240000 inch
 SCALETYPE: LINEAR
 NUMCHARTDIVISIONS: 10
CURVE: SN20  0.000000   100.000000 (255,0,255)    Solid             2     Y    
CURVE: LN100  0.000000   100.000000 (255,0,0)      Dot               2     Y    
ENDTRACK: 
<DescLogPlotEnd>
~Other Information
#MNEM.UNIT  Information      Description
#---------- ---------------  ------------------------
# --------------------------
## COMMENTS    Top_Depth   Bot_Depth  LithCode  Lat    Long   Elev_Gl 
##	0.0	31.2	0.0
##	31.25	97.0	25.0
##	97.05	97.5	11.0
##	97.55	104.0	12.0
##	104.05	110.1	11.0
##	110.15	111.7	12.0
##	111.75	113.1	11.0
##	113.15	116.6	12.0
##	116.65	124.1	11.0
##	124.15	125.9	12.0
##	125.95	139.0	11.0
##	139.05	140.0	10.0
##	140.05	145.5	11.0
##	145.55	146.3	10.0
##	146.35	148.0	12.0
##	148.05	149.4	10.0
##	149.45	150.0	11.0
##	150.05	151.9	10.0
##	151.95	152.6	11.0
##	152.65	155.0	10.0
##	155.05	160.9	14.0
##	160.95	163.2	11.0
##	163.25	164.0	10.0
##	164.05	167.8	11.0
##	167.85	170.0	10.0
##	170.05	171.95	11.0
# --------------------------
~A  DEPTH         SN20             LN100            CALI             GAM(NAT)  
# ...
     114.560      19.34903244      19.60994912      38.08201058      30.65064759
     114.580      19.39418361      19.60994912      38.08201058      30.61379777
     114.600      19.43933479      19.60994912      38.08201058      30.67039852
     114.620      19.48448596      19.60994912      38.07163588      31.01961447
     114.640      19.52963713      19.60994912      38.05555556      31.08327746
     114.660      19.57478830      19.53080837      38.05555556      31.26566755
     114.680      19.61993947      19.53080837      38.05555556      31.37543187
     114.700      19.66509064      19.53080837      38.05555556      31.52688536
     114.720      19.71024181      19.53080837      38.05555556      31.62010454
     114.740      19.75539298      19.53080837      38.05555556      31.74291749
     114.760      19.80054416      19.53080837      38.08201058      31.83143576
     114.780      19.84569533      19.53080837      38.08201058      32.03627432
     114.800      19.89084650      19.53080837      38.10179770      32.26648235
     114.820      19.93599767      19.53080837      38.13492063      32.50091467
     114.840      19.98114884      19.53080837      38.14798106      32.63410640
     114.860      20.02630001      19.46997907      38.16137566      32.77138399
     114.880      20.02826456      19.46297343      38.15504193      32.82888062
     114.900      20.02826456      19.46297343      38.15111854      32.80161852
     114.920      20.02826456      19.46297343      38.16137566      32.76124450
     114.940      20.02826456      19.46297343      38.16137566      32.80111619
     114.960      20.02826456      19.46297343      38.16137566      32.81197159
     114.980      20.02826456      19.39513850      38.16137566      32.81723416
     115.000      20.02826456      19.39513850      38.13492063      33.10511088
     115.020      20.02826456      19.33508673      38.13492063      33.32087998
     115.040      20.02826456      19.32730356      38.10846561      33.41506624
     115.060      20.02826456      19.32730356      38.10846561      33.51530613
     115.080      20.02826456      19.32730356      38.10846561      33.57287792
     115.100      20.02826456      19.32730356      38.09944615      33.50984976
     115.120      20.02826456      19.42947646      38.08201058      33.38448760
     115.140      20.02826456      19.46297343      38.08201058      33.36850411
     115.160      20.02826456      19.46297343      38.08201058      33.35306053
     115.180      19.90971607      19.46297343      38.08201058      33.33898550
     115.200      19.86718634      19.46297343      38.08201058      33.19002189
     115.220      19.82904539      19.46297343      38.08201058      32.95886854
     115.240      19.77966076      19.46297343      38.08201058      32.88847655
     115.260      19.72599050      19.46297343      38.07344287      32.85722253
     115.280      19.67232024      19.46297343      38.05555556      32.84578965
     115.300      19.61864998      19.46297343      38.05555556      33.11942917
     115.320      19.56497972      19.46297343      38.05555556      33.43565966
     115.340      19.51130946      19.47907452      38.03398620      33.68629103
     115.360      19.45763920      19.49959551      38.02910053      33.85933270
     115.380      19.40396894      19.52011649      38.05555556      34.21212822
     115.400      19.35029868      19.54063747      38.05555556      34.24923909
     115.420      19.29662842      19.56115845      38.05555556      34.23886427
     115.440      19.24295816      19.58167943      38.08201058      34.18701980
     115.460      19.18928790      19.60220042      38.08201058      34.14689695
     115.480      19.13561764      19.62272140      38.08201058      34.13087589
     115.500      19.08194738      19.64324238      38.10846561      34.09705783
     115.520      19.02827712      19.66376336      38.10846561      34.15357156
     115.540      18.97460686      19.68428434      38.10846561      34.34595676
     115.560      18.96551724      19.70480532      38.13492063      34.53247424
     115.580      18.96551724      19.72532631      38.13492063      34.80770973
     115.600      18.91676336      19.74584729      38.13492063      35.28390359
     115.620      18.89872562      19.76636827      38.13492063      35.38214406
     115.640      18.90898813      19.78688925      38.16137566      35.38214406
     115.660      18.77331826      19.80741023      38.18204152      35.46139698
     115.680      18.77331826      19.82793122      38.18783069      35.48359824
     115.700      18.68710971      19.84845220      38.18783069      35.48359824
     115.720      18.62634257      19.86897318      38.18783069      34.05346615
     115.740      18.62634257      19.88949416      38.18783069      33.99866508
     115.760      18.55850763      19.89428822      38.18783069      34.13579632
     115.780      18.55850763      19.86202897      38.16137566      34.21573153
     115.800      18.55850763      19.82976972      38.15102571      34.23233006
     115.820      18.55850763      19.79751047      38.13492063      34.09914031
     115.840      18.55850763      19.76525122      38.10846561      33.96016786
     115.860      18.56489540      19.73299196      38.10846561      33.75854499
     115.880      18.59125974      19.70073271      38.10846561      33.72505918
     115.900      18.61762408      19.66847346      38.10846561      33.74234397
     115.920      18.64398842      19.63621421      38.09184071      33.97675453
     115.940      18.67035276      19.60395496      38.08204462      34.09707958
     115.960      18.69671710      19.57169570      38.10846561      34.11396686
     115.980      18.72308143      19.53943645      38.10846561      34.23233006
     116.000      18.74944577      19.50717720      38.10846561      34.11193975
     116.020      18.77581011      19.47491795      38.10846561      34.02966694
     116.040      18.80217445      19.44265870      38.10846561      33.73541819
     116.060      18.82853879      19.41039944      38.11477459      33.56884546
     116.080      18.85490312      19.37814019      38.13492063      33.42350296
     116.100      18.88126746      19.34588094      38.16095795      33.40378762
     116.120      18.90763180      19.31362169      38.16137566      33.44968130
     116.140      18.93399614      19.28136244      38.20714131      33.59756312
     116.160      18.96036048      19.24910318      38.21428571      33.91453524
     116.180      18.98672482      19.21684393      38.24074074      34.08736925
     116.200      19.01308915      19.18458468      38.28964386      34.19082878
     116.220      19.03945349      19.15232543      38.32010582      34.20793360
     116.240      19.06581783      19.12006618      38.36228225      34.16469395
     116.260      19.09218217      19.08780692      38.37301587      34.09816928
     116.280      19.11854651      19.05554767      38.37301587      34.04633074
     116.300      19.14491085      19.02328842      38.38061202      34.04633074
     116.320      19.17127518      18.99102917      38.37301587      33.81781559
     116.340      19.19163369      18.95876991      38.37301587      33.70815015
     116.360      19.19163369      18.92651066      38.34656085      33.70815015
     116.380      19.21115905      18.89425141      38.34656085      33.69469610
     116.400      19.27825216      18.86199216      38.33129119      33.79076708
     116.420      19.30508729      18.82973291      38.32010582      33.90936958
     116.440      19.33192242      18.79747365      38.32010582      34.10199012
     116.460      19.33860938      18.76521440      38.32010582      34.22204225
     116.480      19.33860938      18.73295515      38.34656085      34.28770071
     116.500      19.33860938      18.70069590      38.35824128      34.44072644
     116.520      19.33860938      18.66843665      38.39456048      34.59926787
