~Version Information
 VERS.                2.0:  CWLS LOG ASCII STANDARD -VERSION 2.0
 WRAP.                 NO:  ONE LINE PER DEPTH STEP
~WELL INFORMATION BLOCK
#MNEM.UNIT       DATA		            DESCRIPTION OF MNEMONIC
#---------    -------------            ------------------------
 STRT.M      .450                        :START DEPTH
 STOP.M   #######                        :STOP DEPTH
 STEP.M      .050                        :STEP
 NULL.    -999999.0                      :NULL VALUE
 COMP.       SCHIFOOD                    :COMPANY
 WELL.                          B62B0899 :WELL
 FLD .    Heerlen                        :FIELD
 CNTY.                                   :COUNTY
 STAT.                                   :STATE
 SRVC.                                   :SERVICE COMPANY
 DATE.     23-JAN-91                     :LOG DATE
 UWI .                                   :UNIQUE WELL ID
 LIC .                                   :LICENSE NUMBER
~Curve Information Block
#MNEM.UNIT      API CODE     Curve Description
#---------    -------------  ------------------------
DEPTH    .M         00 000 00 00          :  1  DEPTH
SN40     .OHM.M     00 000 00 00          :  2  SN40
SP       .V         00 000 00 00          :  3  SP
CAL      .MM        00 000 00 00          :  4  CAL
LN160    .OHM.M     00 000 00 00          :  5  LN160
GAMMA    .CPS       00 000 00 00          :  6  GAMMA
~Parameter Information Block
#MNEM.UNIT   Information     Description
#---------- ---------------  ------------------------
 FILE.                         :File Type
 FIID.                         :File Type Identifier
 VERS.                         :System Version
 SER .                         :System Serial Number
 TRUK.                         :Truck Calibration Number
 TOOL.                         :Tool Serial Number
 TIME.                         :Time    HrHrMinMin
 LAT .                         :Latitude
 LON .                         :Longitude
 LMF .            MV           :LOG Measured FROM
 DMF .                         :Driller Measured From
 PD  .                         :Permanent Data
 PDEV.                         :Elevation Permanent Data
 EKB .M                        :Elevation Kelly Bushing
 ELEV.DF                       :Elevation DF
 EGL .M                        :Elevation Ground Level
 DRDP.                         :Drillers Depth
 CASD.                         :Casing Diameter
 CASB.                         :Casing Bottom
 CASX.                         :Casing Type
 CAST.                         :Casing Thickness
 TNOC.                         :Time Circulation Stopped
 LOGU.                         :Logging Unit
 RECB.            Veenendaal   :Recorded By
 OSR1.                         :Other Services
 OSR2.                         :Other Services
 OSR3.                         :Other Services
 BS  .MM                       :Bit Size
 MST .                         :Mean Surface Temperature
 TGRD.                         :Temperature Gradiant
 MAGN.                         :Magnetic Declination
 MDEN.                         :Density Matrix
 MATR.                         :Neutron Matrix
 DTMT.                         :Delta T Matrix
 DTFL.                         :Delta T Fluid
 MUDS.                         :Mud Sample Source
 MRS .                         :Mud Resistivity
 MTP .                         :Mud Temperature
 MFRS.                         :Resistivity Mud Filtrate
 MFTP.                         :Temperature Mud Filtrate
 MCRS.                         :Resistivity Mud Cake
 MCTP.                         :Temperature Mud Cake
 FTYP.                         :Fluid Type
 FD  .K/M3                     :Fluid Density
 DFV .S                        :Fluid Viscosity
 FPH .                         :Fuild PH
 ELCO.                         :Electron Cutoff
~Other Information
#MNEM.UNIT  Information      Description
#---------- ---------------  ------------------------
# --------------------------
## COMMENTS    Top_Depth   Bot_Depth  LithCode  Lat    Long   Elev_Gl
##    Type of LithCode   Lithologie - 1970
##                    .00         .00         .00     
##                    .45        5.75         .00     
##                   5.80        7.15       13.00     
##                   7.20        8.50        2.00     
##                   8.55       10.20       23.00     
##                  10.25       11.30       11.00     
##                  11.35       15.15       23.00     
##                  15.20       18.40       21.00     
##                  18.45       27.30       12.00     
##                  27.35       39.00       11.00     
##                  39.05       47.15       12.00     
##                  47.20       49.00       10.00     
##                  49.05       51.00        7.00     
##                  51.05       54.00       10.00     
##                  54.05       55.80        9.00     
##                  55.85       57.00       20.00     
##                  57.05       58.00        9.00     
##                  58.05       60.00       20.00     
##                  60.05       63.20       11.00     
##                  63.25       67.00        8.00     
##                  67.05       70.20        9.00     
##                  70.25       74.00        7.00     
##                  74.05       75.70        9.00     
##                  75.75       78.00        7.00     
##                  78.05       84.00        8.00     
##                  84.05       92.00        9.00     
##                  92.05       94.10       10.00     
##                  94.15       97.50        9.00     
##                  97.55      100.55       10.00     
##                 100.60      100.60         .00     
##                 100.65      126.40     #######     
##    last_layer   126.4
# --------------------------
~A DEPTH    SN40     SP       CAL      LN160    GAMMA    
# ...
    52.900    21.270      .058   538.500    32.050     9.390
    52.950    21.460      .058   537.400    32.130     9.540
    53.000    21.730      .057   542.700    32.200     9.680
    53.050    22.050      .057   548.000    32.260     9.620
    53.100    22.310      .056   548.400    32.360     9.570
    53.150    22.780      .056   549.900    32.480     9.390
    53.200    23.380      .056   552.300    32.650     9.200
    53.250    23.930      .055   553.400    32.820     9.100
    53.300    24.340      .054   553.900    33.010     9.040
    53.350    24.650      .054   554.900    33.220     9.160
    53.400    24.960      .053   555.100    33.460     9.210
    53.450    25.310      .053   554.800    33.730     9.180
    53.500    25.620      .052   553.300    34.030     9.160
    53.550    25.940      .052   550.100    34.340     9.230
    53.600    26.300      .052   549.700    34.730     9.360
    53.650    26.720      .052   548.900    35.100     9.320
    53.700    27.130      .052   547.300    35.350     9.080
    53.750    27.540      .051   545.800    35.650     8.890
    53.800    28.050      .051   545.400    35.920     9.070
    53.850    28.420      .051   544.900    36.170     9.260
    53.900    28.830      .051   541.900    36.370     9.450
    53.950    29.210      .051   540.400    36.510     9.250
    54.000    29.500      .051   538.800    36.600     8.810
    54.050    29.810      .051   537.200    36.640     8.380
    54.100    30.060      .051   534.800    36.640     7.940
    54.150    30.360      .051   533.300    36.560     8.270
    54.200    30.670      .051   533.200    36.430     8.600
    54.250    31.150      .051   532.600    36.330     8.770
    54.300    31.570      .051   529.300    36.280     8.740
    54.350    31.970      .051   523.900    36.270     8.730
    54.400    32.310      .050   518.800    36.290     8.710
    54.450    32.750      .050   523.300    36.300     8.640
    54.500    33.090      .050   527.900    36.280     8.250
    54.550    33.320      .050   532.400    36.240     8.190
    54.600    33.460      .050   534.800    36.220     8.160
    54.650    33.580      .050   531.100    36.170     8.110
    54.700    33.650      .050   529.600    36.080     8.060
    54.750    33.650      .050   529.500    35.940     7.940
    54.800    33.630      .050   529.200    35.710     6.270
    54.850    33.590      .050   523.300    35.440     6.100
    54.900    33.540      .050   514.900    35.080     6.080
    54.950    33.490      .050   508.800    34.720     6.150
    55.000    33.460      .050   507.500    34.310     6.210
    55.050    33.500      .050   508.400    33.830     6.240
    55.100    33.600      .050   514.500    33.290     6.250
    55.150    33.730      .050   520.600    32.270     6.190
    55.200    33.800      .050   526.700    31.670     6.090
    55.250    33.780      .050   532.700    31.060     5.940
    55.300    33.620      .050   536.600    30.730     5.950
    55.350    33.450      .050   535.100    30.540     5.960
    55.400    33.250      .050   535.000    30.420     5.910
    55.450    32.980      .050   534.700    30.360     5.610
    55.500    32.580      .050   532.600    30.340     5.280
    55.550    32.190      .050   530.200    30.380     4.950
    55.600    30.660      .050   529.400    30.450     4.620
    55.650    29.140      .050   528.600    30.570     4.290
    55.700    27.610      .050   524.300    30.720     3.990
    55.750    25.850      .050   520.100    30.880     4.030
    55.800    24.780      .050   515.800    31.060     4.360
    55.850    23.720      .050   511.500    31.180     4.550
    55.900    22.640      .049   511.700    31.260     4.750
    55.950    22.040      .049   518.700    31.290     4.600
    56.000    21.440      .049   525.700    31.250     4.550
    56.050    21.090      .049   530.000    31.180     4.570
    56.100    20.750      .049   531.800    30.950     4.610
    56.150    20.640      .049   536.200    30.760     4.690
    56.200    20.640      .049   540.600    30.470     4.870
    56.250    20.740      .048   539.900    30.020     5.190
    56.300    20.910      .048   533.600    29.560     5.770
    56.350    21.130      .048   536.800    29.100     6.150
    56.400    21.550      .047   540.100    28.640     6.410
    56.450    21.870      .047   543.300    28.180     6.550
    56.500    22.350      .047   546.000    27.730     6.570
    56.550    23.110      .046   546.500    27.270     6.620
    56.600    23.770      .046   545.800    26.810     6.930
    56.650    25.030      .046   535.500    26.350     7.200
    56.700    25.640      .046   535.000    25.890     7.470
    56.750    26.650      .045   537.000    25.440     7.680
    56.800    27.330      .045   538.100    24.980     7.260
    56.850    28.130      .045   537.700    24.520     7.140
    56.900    28.650      .045   534.500    23.660     7.060
    56.950    28.990      .045   532.900    23.000     6.330
    57.000    29.130      .045   532.800    22.740     5.960
    57.050    29.090      .045   535.000    22.470     5.780
    57.100    28.950      .045   535.700    22.300     6.040
    57.150    28.690      .045   535.200    22.210     6.070
    57.200    28.320      .045   533.800    22.170     6.040
    57.250    27.920      .045   533.100    22.160     5.970
    57.300    27.490      .045   532.900    22.170     5.840
    57.350    27.160      .045   533.200    22.200     5.820
    57.400    26.820      .045   534.700    22.240     5.950
    57.450    26.460      .043   536.200    22.290     6.120
    57.500    26.060      .041   536.800    22.350     6.100
    57.550    25.660      .040   537.000    22.420     5.940
    57.600    24.970      .038   536.600    22.460     5.660
    57.650    24.370      .037   532.200    22.500     5.430
    57.700    23.830      .035   531.800    22.530     5.190
    57.750    23.180      .034   532.100    22.520     5.250
    57.800    22.680      .030   533.400    22.500     5.430
    57.850    21.950      .027   535.400    22.470     5.640
    57.900    21.360      .023   535.700    22.430     6.010
    57.950    20.960      .022   533.700    22.370     6.220
    58.000    20.220      .022   532.800    22.320     6.500
    58.050    19.620      .022   532.900    22.210     6.560
    58.100    19.210      .022   536.000    22.120     6.550
    58.150    18.650      .022   540.400    21.960     6.610
    58.200    18.430      .022   544.700    21.640     6.750
    58.250    18.070      .022   546.200    21.340     6.830
    58.300    17.800      .022   545.900    20.940     6.870
    58.350    17.620      .022   547.100    20.580     6.910
    58.400    17.470      .022   550.900    20.190     7.020
    58.450    17.350      .022   549.600    19.810     7.410
    58.500    17.270      .022   547.600    19.440     7.790
    58.550    17.210      .022   547.900    18.990     7.890
    58.600    17.180      .022   548.800    18.420     7.760
    58.650    17.150      .022   549.400    17.970     7.730
    58.700    17.130      .022   550.500    17.380     7.800
    58.750    17.140      .022   550.800    16.750     8.090
    58.800    17.160      .022   545.100    16.470     8.370
    58.850    17.180      .022   542.100    16.080     8.420
    58.900    17.200      .022   543.100    15.910     8.060
    58.950    17.200      .021   544.100    15.770     7.770
    59.000    17.200      .021   542.100    15.690     7.450
    59.050    17.180      .021   534.700    15.660     7.260
    59.100    17.110      .020   528.200    15.640     7.120
    59.150    16.940      .020   532.600    15.630     7.090
    59.200    16.670      .019   537.000    15.650     6.910
    59.250    15.890      .019   541.300    15.670     6.860
    59.300    15.080      .019   542.700    15.690     7.000
    59.350    14.270      .019   542.800    15.690     7.200
    59.400    13.470      .019   543.500    15.680     7.450
    59.450    12.650      .019   543.200    15.660     7.540
