~Version Information Block
 VERS.                2.00:     CWLS LOG ASCII STANDARD - VERSION 2.000000
 WRAP.                  NO:     One Line Per Depth Step
#
~Well Information Block
#MNEM.UNIT                     Data                         Information
#----------   ------------------------------------------   ----------------
 STRT.M                                         0.0000:
 STOP.M                                       171.0000:
 STEP.M                                         0.0200:
 NULL.                                       -999.2500:
 COMP.                                                :     COMPANY
 WELL.                                        B62B0838:     WELL
 FLD .                                                :     FIELD
 CNTY.                                                :     COUNTY
 STAT.                                                :     STATE
 CTRY.                                                :     COUNTRY
 SRVC.                                                :     SERVICE COMPANY
 DATE.                                                :     DATE
 API .                                                :     API NUMBER
 UWI .                                                :     UWI NUMBER
#
~Curve Information Block
#MNEM.UNIT       API CODE      Curve Description
#----------    -------------   -------------------
 DEPT.M                    :   Depth in Meters
 SN20.OHM-M                :   SN20
 LN100.OHM-M               :   LN100
 CALI.CM                   :   Calr
 GAM(NAT) .CPS             :   GAM(NAT)
#
~Parameter Information Block
#MNEM.UNIT            Value               Description
#----------    --------------------    -------------------
 PDAT.                            :    Permanent Datum
 EPD .M                     0.0000:    Elevation Of Perm. Datum
 WSTA.                         LOC:    
 E   .M                     0.0000:    E (Stretch Coefficient Of The Cable)
 TD  .M                   171.0000:    Total Depth
#
~Other Information Block
<DescLogPlotStart>   NEURALOG PLOT DEFINITION
PLOTDEFVERSION: 3
LASFILE: V:\a4\j4\p44009\boorgatmetingen\SCANS TE VERWERKEN IN DINO\wlg\B62B083
DEPTHSCALE: 200.000000
RESOLUTION: 600
DEPTHLABELFREQ: 50.000000
HEAVYGRIDFREQ: 50.000000
MEDIUMGRIDFREQ: 25.000000
LIGHTGRIDFREQ: 5.000000
#
#   TRACK 1
#
STARTTRACK: 
 LEFTX: 13.760000 inch
 RIGHTX: 15.010000 inch
 SCALETYPE: LINEAR
 NUMCHARTDIVISIONS: 10
CURVE: CALI  30.000000  50.000000  (0,0,255)      Solid             2     N    
ENDTRACK: 
#
#   TRACK 2
#
STARTTRACK: 
 LEFTX: 16.551667 inch
 RIGHTX: 21.551667 inch
 SCALETYPE: LINEAR
 NUMCHARTDIVISIONS: 10
CURVE: GAM(NAT)   0.000000   50.000000  (0,131,131)    Solid             2     N    
ENDTRACK: 
#
#   TRACK 3
#
STARTTRACK: 
 LEFTX: 15.343333 inch
 RIGHTX: 21.240000 inch
 SCALETYPE: LINEAR
 NUMCHARTDIVISIONS: 10
CURVE: SN20  0.000000   100.000000 (255,0,255)    Solid             2     Y    
CURVE: LN100  0.000000   100.000000 (255,0,0)      Dot               2     Y    
ENDTRACK: 
<DescLogPlotEnd>
~Other Information
#MNEM.UNIT  Information      Description
#---------- ---------------  ------------------------
# --------------------------
## COMMENTS    Top_Depth   Bot_Depth  LithCode  Lat    Long   Elev_Gl 
##	0.0	31.2	0.0
##	31.25	97.0	25.0
##	97.05	97.5	11.0
##	97.55	104.0	12.0
##	104.05	110.1	11.0
##	110.15	111.7	12.0
##	111.75	113.1	11.0
##	113.15	116.6	12.0
##	116.65	124.1	11.0
##	124.15	125.9	12.0
##	125.95	139.0	11.0
##	139.05	140.0	10.0
##	140.05	145.5	11.0
##	145.55	146.3	10.0
##	146.35	148.0	12.0
##	148.05	149.4	10.0
##	149.45	150.0	11.0
##	150.05	151.9	10.0
##	151.95	152.6	11.0
##	152.65	155.0	10.0
##	155.05	160.9	14.0
##	160.95	163.2	11.0
##	163.25	164.0	10.0
##	164.05	167.8	11.0
##	167.85	170.0	10.0
##	170.05	171.95	11.0
# --------------------------
~A  DEPTH         SN20             LN100            CALI             GAM(NAT)  
# ...
     148.220      25.64583036      25.75413935      37.87037037      22.75817715
     148.240      25.80884750      25.82468978      37.87037037      22.90756595
     148.260      25.97186465      25.89524020      37.87037037      23.10036844
     148.280      26.13488179      25.96579062      37.87037037      23.30528214
     148.300      26.29789894      26.03634104      37.87037037      23.38679949
     148.320      26.46091608      26.10689147      37.87037037      23.41055123
     148.340      26.62393323      26.17744189      37.89682540      23.39364220
     148.360      26.78695037      26.24799231      37.92328042      23.28514952
     148.380      26.94996752      26.31854273      37.92328042      23.27527900
     148.400      27.11298466      26.38909316      37.94973545      23.16012950
     148.420      27.27600181      26.45964358      37.94973545      23.02597266
     148.440      27.43901895      26.53019400      37.92328042      22.83876499
     148.460      27.60203610      26.60074442      37.92328042      22.61704114
     148.480      27.73304977      26.67129485      37.92328042      22.27831669
     148.500      27.85529870      26.74184527      37.92328042      22.09120197
     148.520      27.97754762      26.81239569      37.92328042      22.11189624
     148.540      28.09979655      26.88294611      37.92328042      22.45033788
     148.560      28.22204547      26.95349654      37.92328042      22.77780942
     148.580      28.34429440      27.02404696      37.92328042      22.87006350
     148.600      28.46654332      27.09459738      37.92328042      22.94661098
     148.620      28.57519074      27.16715361      37.94973545      23.09099431
     148.640      28.62993441      27.23635318      37.94973545      22.86177511
     148.660      28.68467807      27.31431046      37.94973545      22.59782417
     148.680      28.73942174      27.58055399      37.94973545      22.38460032
     148.700      28.79416540      27.58055399      37.94973545      22.01885901
     148.720      28.84890907      27.58055399      37.92328042      21.72142621
     148.740      28.90365273      27.65832218      37.92328042      21.58437606
     148.760      28.95839640      27.77696852      37.92328042      21.26524235
     148.780      29.01314006      27.86319955      37.91676104      21.22928644
     148.800      29.06788373      27.86319955      37.89682540      21.20190568
     148.820      29.12262739      27.87073417      37.87037037      22.15915055
     148.840      29.14075749      27.95433592      37.87037037      22.15311077
     148.860      29.14075749      28.03793767      37.87037037      22.03287471
     148.880      29.14075749      28.12153942      37.87037037      21.95450186
     148.900      29.14075749      28.20514117      37.87037037      21.94764332
     148.920      29.14075749      28.28874293      37.87037037      22.03606666
     148.940      29.14075749      28.37234468      37.84391534      22.14206353
     148.960      29.14075749      28.45594643      37.84391534      22.45038139
     148.980      29.11100136      28.53954818      37.79100529      24.34054785
     149.000      28.99378180      28.62314993      37.79100529      24.34054785
     149.020      28.99378180      28.70675168      37.79100529      24.34054785
     149.040      28.99378180      28.77897117      37.79100529      23.65626613
     149.060      28.99378180      28.77897117      37.79100529      23.49060115
     149.080      28.99378180      28.77897117      37.79100529      23.18468615
     149.100      28.95082385      28.78900757      37.79100529      22.62451869
     149.120      28.88020508      28.85191951      37.79100529      22.47767514
     149.140      28.80958632      28.93356606      37.79100529      22.36432135
     149.160      28.73896756      29.06161673      37.76455026      22.39588488
     149.180      28.66834879      29.06161673      37.74593273      22.62271703
     149.200      28.59773003      29.27642736      37.73809524      22.77448497
     149.220      28.52711127      29.27642736      37.73809524      22.89226278
     149.240      28.45649251      29.28041812      37.73809524      23.10507330
     149.260      28.38587374      29.35556812      37.76455026      23.17052410
     149.280      28.31525498      29.36687394      37.76455026      23.20994488
     149.300      28.24463622      29.38020952      37.78944274      23.40356019
     149.320      28.17401745      29.39573883      37.79100529      23.76564085
     149.340      28.10339869      29.41126814      37.79100529      24.14293766
     149.360      28.03277993      29.84171849      37.79100529      24.10281481
     149.380      27.96216116      29.84171849      37.79100529      23.96764344
     149.400      27.89154240      29.84171849      37.79100529      23.83327697
     149.420      27.71861593      29.88991302      37.79100529      23.83327697
     149.440      27.47709976      29.98172424      37.79100529      24.30843256
     149.460      27.23558359      30.97610108      37.81544602      25.53207673
     149.480      26.99406742      31.02977134      37.81746032      25.72337421
     149.500      26.75255125      31.07213578      37.81746032      25.70297312
     149.520      26.51103508      31.12254123      37.81746032      25.63233837
     149.540      26.26951891      31.14937636      37.79100529      28.28035171
     149.560      26.02800274      31.18108291      37.81185680      28.28035171
     149.580      25.78648657      31.33871649      37.84817600      28.28035171
     149.600      25.54497040      31.37685744      37.87037037      28.28035171
     149.620      25.31938949      31.47152751      37.87037037      28.28035171
     149.640      25.31938949      31.49836264      37.89682540      28.30872328
     149.660      25.31938949      31.52519777      37.89682540      28.38180588
     149.680      25.18371962      32.10288298      37.87037037      28.38180588
     149.700      25.18371962      32.10288298      37.87037037      28.09358675
     149.720      25.18178506      32.10979210      37.82351558      27.60447007
     149.740      25.10457886      32.38552855      37.81746032      27.11535339
     149.760      25.10457886      32.38552855      37.81746032      26.62623671
     149.780      25.10457886      32.45500448      37.79100529      26.13712003
     149.800      25.10457886      32.48770409      37.75760389      25.64800335
     149.820      25.10457886      32.51998056      37.71164021      25.15888668
     149.840      25.10457886      32.56112714      37.68518519      24.66977000
     149.860      25.10457886      32.61479740      37.64864631      24.18065332
     149.880      25.10457886      32.66817411      37.59237910      24.02343532
     149.900      25.10457886      32.66817411      37.52645503      23.96640344
     149.920      25.10457886      32.66817411      37.51323370      22.78491715
     149.940      25.21603305      32.81514980      37.45382902      22.78491715
     149.960      25.44938201      32.81514980      37.53025651      22.75585932
     149.980      25.68273097      32.81514980      37.61814041      22.66655394
     150.000      25.91607992      32.82933167      37.63227513      22.66655394
     150.020      26.14942888      32.85616680      37.63227513      22.66655394
     150.040      26.38277784      33.09779536      37.63227513      22.66655394
     150.060      26.61612679      33.09779536      37.63227513      22.66655394
     150.080      26.84947575      33.09779536      37.63227513      22.66655394
     150.100      27.08282471      33.00596696      37.63227513      22.66655394
     150.120      27.31617366      32.98473714      37.63227513      22.83649858
     150.140      27.54952262      32.96360252      37.63227513      23.41055123
     150.160      27.78287158      32.88298474      37.63227513      23.41055123
     150.180      28.01622054      32.88298474      37.63227513      23.40468350
