~Version Information
 VERS.                2.0:  CWLS LOG ASCII STANDARD -VERSION 2.0
 WRAP.                 NO:  ONE LINE PER DEPTH STEP
~WELL INFORMATION BLOCK
#MNEM.UNIT       DATA		            DESCRIPTION OF MNEMONIC
#---------    -------------            ------------------------
 STRT.M      .450                        :START DEPTH
 STOP.M   #######                        :STOP DEPTH
 STEP.M      .050                        :STEP
 NULL.    -999999.0                      :NULL VALUE
 COMP.       SCHIFOOD                    :COMPANY
 WELL.                          B62B0897 :WELL
 FLD .    Heerlen                        :FIELD
 CNTY.                                   :COUNTY
 STAT.                                   :STATE
 SRVC.                                   :SERVICE COMPANY
 DATE.     10-DEC-90                     :LOG DATE
 UWI .                                   :UNIQUE WELL ID
 LIC .                                   :LICENSE NUMBER
~Curve Information Block
#MNEM.UNIT      API CODE     Curve Description
#---------    -------------  ------------------------
DEPTH    .M         00 000 00 00          :  1  DEPTH
SN40     .OHM.M     00 000 00 00          :  2  SN40
SP       .V         00 000 00 00          :  3  SP
CAL      .MM        00 000 00 00          :  4  CAL
LN160    .OHM.M     00 000 00 00          :  5  LN160
GAMMA    .CPS       00 000 00 00          :  6  GAMMA
~Parameter Information Block
#MNEM.UNIT   Information     Description
#---------- ---------------  ------------------------
 FILE.                         :File Type
 FIID.                         :File Type Identifier
 VERS.                         :System Version
 SER .                         :System Serial Number
 TRUK.                         :Truck Calibration Number
 TOOL.                         :Tool Serial Number
 TIME.                         :Time    HrHrMinMin
 LAT .                         :Latitude
 LON .                         :Longitude
 LMF .            MV           :LOG Measured FROM
 DMF .                         :Driller Measured From
 PD  .                         :Permanent Data
 PDEV.                         :Elevation Permanent Data
 EKB .M                        :Elevation Kelly Bushing
 ELEV.DF                       :Elevation DF
 EGL .M                        :Elevation Ground Level
 DRDP.                         :Drillers Depth
 CASD.                         :Casing Diameter
 CASB.                         :Casing Bottom
 CASX.                         :Casing Type
 CAST.                         :Casing Thickness
 TNOC.                         :Time Circulation Stopped
 LOGU.                         :Logging Unit
 RECB.            Bergsma      :Recorded By
 OSR1.                         :Other Services
 OSR2.                         :Other Services
 OSR3.                         :Other Services
 BS  .MM                       :Bit Size
 MST .                         :Mean Surface Temperature
 TGRD.                         :Temperature Gradiant
 MAGN.                         :Magnetic Declination
 MDEN.                         :Density Matrix
 MATR.                         :Neutron Matrix
 DTMT.                         :Delta T Matrix
 DTFL.                         :Delta T Fluid
 MUDS.                         :Mud Sample Source
 MRS .                         :Mud Resistivity
 MTP .                         :Mud Temperature
 MFRS.                         :Resistivity Mud Filtrate
 MFTP.                         :Temperature Mud Filtrate
 MCRS.                         :Resistivity Mud Cake
 MCTP.                         :Temperature Mud Cake
 FTYP.                         :Fluid Type
 FD  .K/M3                     :Fluid Density
 DFV .S                        :Fluid Viscosity
 FPH .                         :Fuild PH
 ELCO.                         :Electron Cutoff
~Other Information
#MNEM.UNIT  Information      Description
#---------- ---------------  ------------------------
# --------------------------
## COMMENTS    Top_Depth   Bot_Depth  LithCode  Lat    Long   Elev_Gl
##    Type of LithCode   Lithologie - 1970
##                    .00         .00         .00     
##                    .45        6.00         .00     
##                   6.05        8.10        2.00     
##                   8.15       15.30       23.00     
##                  15.35       18.50       22.00     
##                  18.55       20.80       11.00     
##                  20.85       22.35       12.00     
##                  22.40       23.40       11.00     
##                  23.45       25.30       12.00     
##                  25.35       26.25       11.00     
##                  26.30       27.80       12.00     
##                  27.85       35.10       11.00     
##                  35.15       47.80       12.00     
##                  47.85       50.40        6.00     
##                  50.45       52.00       23.00     
##                  52.05       53.20       11.00     
##                  53.25       54.60       12.00     
##                  54.65       55.50       11.00     
##                  55.55       56.50       12.00     
##                  56.55       57.25       11.00     
##                  57.30       58.60       12.00     
##                  58.65       64.40       11.00     
##                  64.45       71.10        9.00     
##                  71.15       74.20        7.00     
##                  74.25       75.90        9.00     
##                  75.95       78.90        7.00     
##                  78.95       93.30        9.00     
##                  93.35       95.20       10.00     
##                  95.25       97.60        9.00     
##                  97.65       99.95       10.00     
##                 100.00      100.00         .00     
##                 100.05      126.75     #######     
##    last_layer   126.75
# --------------------------
~A DEPTH    SN40     SP       CAL      LN160    GAMMA    
# ...
     6.700    21.430 -999999.0    558.700    21.200     7.970
     6.750    23.770 -999999.0    555.500    21.210     8.030
     6.800    26.110 -999999.0    558.600    21.320     7.970
     6.850    28.370 -999999.0    561.900    21.570     7.800
     6.900    30.410 -999999.0    565.200    22.050     7.700
     6.950    32.440 -999999.0    568.500    22.570     7.700
     7.000    33.980 -999999.0    566.500    24.290     8.000
     7.050    35.590 -999999.0    561.200    25.830     8.190
     7.100    37.120 -999999.0    560.700    27.370     8.240
     7.150    38.350 -999999.0    561.400    28.920     8.300
     7.200    39.580 -999999.0    563.900    30.800     8.410
     7.250    40.490 -999999.0    566.200    32.350     8.660
     7.300    41.240 -999999.0    565.100    33.890     8.830
     7.350    42.080 -999999.0    564.500    35.440     8.970
     7.400    42.820 -999999.0    566.300    36.710     9.160
     7.450    43.320 -999999.0    570.300    37.690     9.490
     7.500    43.550 -999999.0    574.300    38.670    10.050
     7.550    43.640 -999999.0    578.900    39.640    10.540
     7.600    43.650 -999999.0    573.300    40.620    11.140
     7.650    43.580 -999999.0    574.600    41.240    11.720
     7.700    43.360 -999999.0    574.600    42.300    12.310
     7.750    43.010 -999999.0    561.600    43.050    12.900
     7.800    42.680 -999999.0    563.400    43.430    13.410
     7.850    42.240 -999999.0    565.300    44.350    13.730
     7.900    41.790 -999999.0    564.700    44.840    13.920
     7.950    41.280 -999999.0    564.900    45.420    14.110
     8.000    40.680      .098   565.000    45.840    14.440
     8.050    39.930      .097   547.200    46.320    14.630
     8.100    39.080      .096   546.100    46.710    14.610
     8.150    38.090      .095   545.700    47.040    14.480
     8.200    37.270      .094   542.500    47.370    14.510
     8.250    36.750      .092   537.000    47.430    14.600
     8.300    36.270      .090   533.800    47.490    14.690
     8.350    35.800      .090   530.000    47.530    14.810
     8.400    35.320      .089   529.300    47.560    14.880
     8.450    34.930      .089   531.600    47.510    14.920
     8.500    34.530      .088   532.700    47.450    14.850
     8.550    34.180      .087   533.500    47.390    14.720
     8.600    33.830      .087   534.600    47.330    14.200
     8.650    33.460      .086   536.700    47.220    13.840
     8.700    33.180      .086   538.900    47.130    13.560
     8.750    32.940      .085   539.600    47.010    13.250
     8.800    32.800      .084   539.900    46.870    13.040
     8.850    32.640      .084   539.800    46.720    13.000
     8.900    32.420      .084   538.700    46.560    13.010
     8.950    32.240      .083   536.500    46.360    13.160
     9.000    32.130      .083   535.800    46.190    13.340
     9.050    32.020      .083   535.500    45.920    12.910
     9.100    31.940      .082   535.400    45.630    12.690
     9.150    31.940      .082   535.700    45.300    12.670
     9.200    31.940      .082   536.000    45.050    12.630
     9.250    31.910      .081   536.300    44.810    12.530
     9.300    31.880      .081   536.500    44.570    12.520
     9.350    31.860      .081   536.500    44.310    12.610
     9.400    31.830      .080   536.600    44.090    12.680
     9.450    31.820      .080   536.900    43.880    12.680
     9.500    31.800      .080   537.200    43.610    12.630
     9.550    31.790      .080   537.200    43.400    12.470
     9.600    31.800      .079   537.200    43.170    12.360
     9.650    31.800      .079   537.300    43.060    12.280
     9.700    31.810      .079   537.300    42.940    12.170
     9.750    31.810      .078   537.300    42.820    11.960
     9.800    31.800      .078   537.300    42.710    11.840
     9.850    31.790      .078   537.300    42.610    11.750
     9.900    31.770      .078   537.300    42.530    11.710
     9.950    31.730      .078   537.400    42.440    11.670
    10.000    31.690      .078   537.500    42.350    11.680
    10.050    31.620      .078   537.500    42.290    11.810
    10.100    31.560      .078   537.600    42.240    12.000
    10.150    31.480      .078   537.700    42.190    11.950
    10.200    31.380      .078   537.700    42.130    11.580
    10.250    31.270      .078   537.800    42.050    11.190
    10.300    31.160      .078   537.800    41.990    10.810
    10.350    31.060      .078   537.800    41.960    10.380
    10.400    30.960      .078   537.800    41.920    10.620
    10.450    30.850      .078   537.800    41.890    10.830
    10.500    30.730      .078   537.700    41.830    11.080
    10.550    30.690      .078   537.600    41.770    10.930
    10.600    30.650      .078   537.600    41.700    10.810
    10.650    30.620      .078   537.500    41.610    10.820
    10.700    30.580      .078   537.500    41.510    10.850
    10.750    30.570      .078   537.500    41.400    10.840
    10.800    30.560      .078   537.500    41.290    10.850
    10.850    30.560      .077   537.500    41.170    10.870
    10.900    30.570      .077   537.600    41.060    10.950
    10.950    30.580      .077   537.600    40.970    11.030
    11.000    30.590      .077   537.700    40.840    11.180
    11.050    30.580      .077   537.700    40.730    11.350
    11.100    30.570      .077   537.800    40.630    11.470
    11.150    30.550      .077   538.200    40.570    11.550
    11.200    30.530      .077   538.600    40.490    11.550
    11.250    30.500      .077   540.800    40.380    11.520
    11.300    30.450      .077   541.300    40.300    11.500
    11.350    30.410      .077   540.500    40.210    11.550
    11.400    30.360      .077   539.500    40.140    11.690
    11.450    30.300      .077   539.700    40.070    11.810
    11.500    30.240      .077   540.500    40.010    11.950
    11.550    30.160      .077   542.400    39.940    12.280
    11.600    30.080      .078   544.700    39.880    12.390
    11.650    30.000      .078   546.100    39.830    11.900
    11.700    29.890      .078   545.500    39.810    11.630
    11.750    29.760      .078   543.900    39.780    11.540
    11.800    29.630      .078   542.900    39.750    11.520
    11.850    29.530      .078   542.400    39.730    11.490
    11.900    29.330      .078   542.100    39.700    11.410
    11.950    29.190      .079   542.100    39.680    11.350
    12.000    29.090      .079   542.000    39.670    11.380
    12.050    28.960      .079   541.700    39.670    11.760
    12.100    28.860      .079   541.500    39.670    11.760
    12.150    28.720      .079   541.600    39.680    11.770
    12.200    28.670      .079   541.800    39.680    11.820
    12.250    28.590      .079   541.900    39.690    11.930
    12.300    28.510      .078   541.800    39.700    11.900
    12.350    28.450      .078   541.700    39.700    11.660
    12.400    28.380      .078   541.600    39.710    11.470
    12.450    28.320      .078   541.600    39.720    11.280
    12.500    28.270      .078   541.600    39.730    11.100
    12.550    28.240      .078   541.600    39.740    10.900
    12.600    28.210      .078   541.600    39.730    11.270
    12.650    28.190      .078   541.700    39.730    11.630
    12.700    28.160      .078   541.300    39.730    12.000
    12.750    28.140      .078   541.000    39.730    12.410
    12.800    28.130      .077   540.500    39.730    12.400
    12.850    28.130      .077   540.300    39.730    12.430
    12.900    28.140      .077   540.300    39.730    12.500
    12.950    28.150      .077   540.900    39.720    12.630
    13.000    28.170      .077   541.500    39.720    12.660
    13.050    28.190      .076   542.300    39.730    12.530
    13.100    28.210      .076   542.800    39.730    12.420
    13.150    28.240      .076   542.800    39.740    12.190
    13.200    28.280      .076   542.700    39.770    11.800
