~Version Information
 VERS.                2.0:  CWLS LOG ASCII STANDARD -VERSION 2.0
 WRAP.                 NO:  ONE LINE PER DEPTH STEP
~WELL INFORMATION BLOCK
#MNEM.UNIT       DATA		            DESCRIPTION OF MNEMONIC
#---------    -------------            ------------------------
 STRT.M      .450                        :START DEPTH
 STOP.M   #######                        :STOP DEPTH
 STEP.M      .050                        :STEP
 NULL.    -999999.0                      :NULL VALUE
 COMP.       SCHIFOOD                    :COMPANY
 WELL.                          B62B0899 :WELL
 FLD .    Heerlen                        :FIELD
 CNTY.                                   :COUNTY
 STAT.                                   :STATE
 SRVC.                                   :SERVICE COMPANY
 DATE.     23-JAN-91                     :LOG DATE
 UWI .                                   :UNIQUE WELL ID
 LIC .                                   :LICENSE NUMBER
~Curve Information Block
#MNEM.UNIT      API CODE     Curve Description
#---------    -------------  ------------------------
DEPTH    .M         00 000 00 00          :  1  DEPTH
SN40     .OHM.M     00 000 00 00          :  2  SN40
SP       .V         00 000 00 00          :  3  SP
CAL      .MM        00 000 00 00          :  4  CAL
LN160    .OHM.M     00 000 00 00          :  5  LN160
GAMMA    .CPS       00 000 00 00          :  6  GAMMA
~Parameter Information Block
#MNEM.UNIT   Information     Description
#---------- ---------------  ------------------------
 FILE.                         :File Type
 FIID.                         :File Type Identifier
 VERS.                         :System Version
 SER .                         :System Serial Number
 TRUK.                         :Truck Calibration Number
 TOOL.                         :Tool Serial Number
 TIME.                         :Time    HrHrMinMin
 LAT .                         :Latitude
 LON .                         :Longitude
 LMF .            MV           :LOG Measured FROM
 DMF .                         :Driller Measured From
 PD  .                         :Permanent Data
 PDEV.                         :Elevation Permanent Data
 EKB .M                        :Elevation Kelly Bushing
 ELEV.DF                       :Elevation DF
 EGL .M                        :Elevation Ground Level
 DRDP.                         :Drillers Depth
 CASD.                         :Casing Diameter
 CASB.                         :Casing Bottom
 CASX.                         :Casing Type
 CAST.                         :Casing Thickness
 TNOC.                         :Time Circulation Stopped
 LOGU.                         :Logging Unit
 RECB.            Veenendaal   :Recorded By
 OSR1.                         :Other Services
 OSR2.                         :Other Services
 OSR3.                         :Other Services
 BS  .MM                       :Bit Size
 MST .                         :Mean Surface Temperature
 TGRD.                         :Temperature Gradiant
 MAGN.                         :Magnetic Declination
 MDEN.                         :Density Matrix
 MATR.                         :Neutron Matrix
 DTMT.                         :Delta T Matrix
 DTFL.                         :Delta T Fluid
 MUDS.                         :Mud Sample Source
 MRS .                         :Mud Resistivity
 MTP .                         :Mud Temperature
 MFRS.                         :Resistivity Mud Filtrate
 MFTP.                         :Temperature Mud Filtrate
 MCRS.                         :Resistivity Mud Cake
 MCTP.                         :Temperature Mud Cake
 FTYP.                         :Fluid Type
 FD  .K/M3                     :Fluid Density
 DFV .S                        :Fluid Viscosity
 FPH .                         :Fuild PH
 ELCO.                         :Electron Cutoff
~Other Information
#MNEM.UNIT  Information      Description
#---------- ---------------  ------------------------
# --------------------------
## COMMENTS    Top_Depth   Bot_Depth  LithCode  Lat    Long   Elev_Gl
##    Type of LithCode   Lithologie - 1970
##                    .00         .00         .00     
##                    .45        5.75         .00     
##                   5.80        7.15       13.00     
##                   7.20        8.50        2.00     
##                   8.55       10.20       23.00     
##                  10.25       11.30       11.00     
##                  11.35       15.15       23.00     
##                  15.20       18.40       21.00     
##                  18.45       27.30       12.00     
##                  27.35       39.00       11.00     
##                  39.05       47.15       12.00     
##                  47.20       49.00       10.00     
##                  49.05       51.00        7.00     
##                  51.05       54.00       10.00     
##                  54.05       55.80        9.00     
##                  55.85       57.00       20.00     
##                  57.05       58.00        9.00     
##                  58.05       60.00       20.00     
##                  60.05       63.20       11.00     
##                  63.25       67.00        8.00     
##                  67.05       70.20        9.00     
##                  70.25       74.00        7.00     
##                  74.05       75.70        9.00     
##                  75.75       78.00        7.00     
##                  78.05       84.00        8.00     
##                  84.05       92.00        9.00     
##                  92.05       94.10       10.00     
##                  94.15       97.50        9.00     
##                  97.55      100.55       10.00     
##                 100.60      100.60         .00     
##                 100.65      126.40     #######     
##    last_layer   126.4
# --------------------------
~A DEPTH    SN40     SP       CAL      LN160    GAMMA    
# ...
     6.750    41.610 -999999.0    541.300    37.800     9.410
     6.800    42.760 -999999.0    545.300    39.360     8.940
     6.850    43.810 -999999.0    549.300    40.920     8.460
     6.900    45.020 -999999.0    553.300    42.480     8.200
     6.950    46.220 -999999.0    553.000    43.810     8.110
     7.000    47.250 -999999.0    546.700    44.530     8.170
     7.050    47.650 -999999.0    549.400    45.250     8.150
     7.100    47.720 -999999.0    552.100    45.970     7.590
     7.150    47.600 -999999.0    554.800    46.690     7.040
     7.200    47.480 -999999.0    556.900    47.410     6.550
     7.250    47.100 -999999.0    556.500    48.130     5.910
     7.300    46.840 -999999.0    551.000    48.840     5.600
     7.350    46.140      .098   539.900    49.560     5.570
     7.400    45.750      .098   526.500    50.430     5.630
     7.450    44.980      .097   527.800    51.060     5.890
     7.500    44.010      .097   529.300    51.680     6.430
     7.550    43.330      .096   526.300    52.310     6.980
     7.600    42.940      .096   524.200    52.930     7.340
     7.650    41.990      .095   523.600    53.760     7.690
     7.700    41.440      .095   524.400    54.400     7.860
     7.750    40.880      .095   525.100    54.910     7.820
     7.800    40.540      .094   525.400    55.550     7.780
     7.850    40.280      .094   525.100    55.990     7.950
     7.900    39.910      .093   524.400    56.220     7.970
     7.950    39.450      .093   523.300    56.340     7.910
     8.000    39.110      .092   522.600    56.400     8.030
     8.050    38.420      .092   522.300    56.400     8.270
     8.100    38.080      .091   523.800    56.370     8.500
     8.150    37.690      .091   526.000    56.300     8.650
     8.200    37.450      .091   526.100    56.160     8.860
     8.250    37.010      .091   524.100    56.000     8.940
     8.300    36.840      .091   523.700    55.840     9.060
     8.350    36.610      .090   524.000    55.600     9.200
     8.400    36.410      .090   525.800    55.430     9.460
     8.450    36.250      .090   526.300    55.130     9.700
     8.500    36.130      .090   525.500    54.850     9.840
     8.550    36.030      .090   524.700    54.510     9.710
     8.600    35.910      .089   523.800    54.180     9.600
     8.650    35.820      .089   523.400    53.780     9.570
     8.700    35.730      .089   523.200    53.520     9.540
     8.750    35.650      .089   523.200    53.090     9.190
     8.800    35.570      .089   523.300    52.670     8.750
     8.850    35.500      .089   523.700    52.290     8.600
     8.900    35.430      .088   524.700    51.890     8.650
     8.950    35.360      .088   525.700    51.460     8.760
     9.000    35.280      .088   526.300    51.070     8.910
     9.050    35.220      .088   527.400    50.680     9.160
     9.100    35.150      .088   528.100    50.370     9.330
     9.150    35.070      .088   528.400    49.980     9.490
     9.200    35.000      .088   528.300    49.550     9.490
     9.250    34.900      .088   527.500    49.240     9.450
     9.300    34.780      .088   527.000    48.940     9.510
     9.350    34.690      .088   526.700    48.680     9.890
     9.400    34.560      .087   526.900    48.360    10.120
     9.450    34.430      .087   527.200    48.100    10.150
     9.500    34.270      .087   527.700    47.890    10.230
     9.550    34.150      .087   528.000    47.720    10.340
     9.600    34.020      .087   528.200    47.530    10.210
     9.650    33.840      .087   528.500    47.360     9.970
     9.700    33.690      .087   528.700    47.180     9.930
     9.750    33.520      .087   528.700    47.020     9.950
     9.800    33.330      .086   528.600    46.900    10.020
     9.850    33.130      .086   528.500    46.770    10.190
     9.900    32.900      .086   528.600    46.650    10.320
     9.950    32.600      .086   528.700    46.530    10.650
    10.000    32.320      .086   528.900    46.410    10.800
    10.050    32.120      .086   529.100    46.300    11.330
    10.100    31.900      .086   530.100    46.160    11.630
    10.150    31.700      .086   530.700    46.040    11.930
    10.200    31.520      .086   531.500    45.850    12.240
    10.250    31.360      .086   532.100    45.650    12.540
    10.300    31.220      .086   532.100    45.410    12.840
    10.350    31.110      .086   531.900    45.210    13.150
    10.400    31.010      .086   531.400    44.970    13.100
    10.450    30.930      .086   531.000    44.740    13.200
    10.500    30.870      .086   530.600    44.540    13.390
    10.550    30.840      .086   530.600    44.280    13.430
    10.600    30.830      .086   530.700    44.040    13.520
    10.650    30.820      .085   530.800    43.790    13.730
    10.700    30.810      .085   530.900    43.600    13.460
    10.750    30.810      .085   531.100    43.320    12.980
    10.800    30.810      .085   530.900    43.020    12.920
    10.850    30.810      .085   530.700    42.810    12.270
    10.900    30.810      .085   530.400    42.600    11.480
    10.950    30.810      .085   529.000    42.320    11.440
    11.000    30.820      .085   528.300    42.140    11.600
    11.050    30.800      .085   528.000    41.970    11.530
    11.100    30.780      .086   527.600    41.750    11.140
    11.150    30.710      .086   527.400    41.560    10.870
    11.200    30.610      .086   527.400    41.410    10.440
    11.250    30.470      .086   527.600    41.270    10.240
    11.300    30.320      .086   528.200    41.170    10.060
    11.350    30.140      .086   531.300    41.090     9.230
    11.400    29.790      .086   535.000    41.030     9.090
    11.450    29.610      .086   538.800    40.980     9.170
    11.500    29.440      .086   549.100    40.930     9.170
    11.550    29.240      .086   550.200    40.880     8.940
    11.600    29.010      .086   551.600    40.830     8.760
    11.650    28.780      .086   555.600    40.780     8.650
    11.700    28.620      .086   557.500    40.740     8.660
    11.750    28.380      .086   553.700    40.700     8.940
    11.800    28.200      .086   550.400    40.620     9.230
    11.850    28.060      .086   557.700    40.560     9.540
    11.900    27.840      .086   555.500    40.490     9.300
    11.950    27.660      .086   555.400    40.410     9.060
    12.000    27.490      .086   564.600    40.340     8.930
    12.050    27.360      .086   566.100    40.270     8.690
    12.100    27.230      .086   565.500    40.200     8.580
    12.150    27.130      .086   564.900    40.120     8.920
    12.200    27.020      .086   564.400    40.030     9.260
    12.250    26.940      .086   564.600    39.920     9.600
    12.300    26.840      .086   564.800    39.830     9.930
    12.350    26.740      .086   565.100    39.730     8.880
    12.400    26.680      .086   565.300    39.680     8.870
    12.450    26.630      .086   565.300    39.630     8.780
    12.500    26.600      .086   564.300    39.580     8.460
    12.550    26.590      .086   562.500    39.540     8.330
    12.600    26.580      .086   560.500    39.500     8.100
    12.650    26.570      .086   559.800    39.470     8.080
    12.700    26.580      .086   559.700    39.450     8.250
    12.750    26.590      .086   560.200    39.430     8.400
    12.800    26.590      .086   560.900    39.430     8.530
    12.850    26.580      .086   561.500    39.430     9.020
    12.900    26.570      .086   562.100    39.420     9.290
    12.950    26.580      .086   564.900    39.420     9.490
    13.000    26.600      .086   566.200    39.440     9.520
    13.050    26.610      .086   567.600    39.450     9.450
    13.100    26.610      .086   567.700    39.470     9.510
    13.150    26.640      .086   567.200    39.500     9.630
    13.200    26.680      .086   566.300    39.540     9.610
    13.250    26.710      .086   566.000    39.570     9.570
