~Version Information
 VERS.                2.0:  CWLS LOG ASCII STANDARD -VERSION 2.0
 WRAP.                 NO:  ONE LINE PER DEPTH STEP
~WELL INFORMATION BLOCK
#MNEM.UNIT       DATA		            DESCRIPTION OF MNEMONIC
#---------    -------------            ------------------------
 STRT.M      .450                        :START DEPTH
 STOP.M   #######                        :STOP DEPTH
 STEP.M      .050                        :STEP
 NULL.    -999999.0                      :NULL VALUE
 COMP.       SCHIFOOD                    :COMPANY
 WELL.                          B62B0899 :WELL
 FLD .    Heerlen                        :FIELD
 CNTY.                                   :COUNTY
 STAT.                                   :STATE
 SRVC.                                   :SERVICE COMPANY
 DATE.     23-JAN-91                     :LOG DATE
 UWI .                                   :UNIQUE WELL ID
 LIC .                                   :LICENSE NUMBER
~Curve Information Block
#MNEM.UNIT      API CODE     Curve Description
#---------    -------------  ------------------------
DEPTH    .M         00 000 00 00          :  1  DEPTH
SN40     .OHM.M     00 000 00 00          :  2  SN40
SP       .V         00 000 00 00          :  3  SP
CAL      .MM        00 000 00 00          :  4  CAL
LN160    .OHM.M     00 000 00 00          :  5  LN160
GAMMA    .CPS       00 000 00 00          :  6  GAMMA
~Parameter Information Block
#MNEM.UNIT   Information     Description
#---------- ---------------  ------------------------
 FILE.                         :File Type
 FIID.                         :File Type Identifier
 VERS.                         :System Version
 SER .                         :System Serial Number
 TRUK.                         :Truck Calibration Number
 TOOL.                         :Tool Serial Number
 TIME.                         :Time    HrHrMinMin
 LAT .                         :Latitude
 LON .                         :Longitude
 LMF .            MV           :LOG Measured FROM
 DMF .                         :Driller Measured From
 PD  .                         :Permanent Data
 PDEV.                         :Elevation Permanent Data
 EKB .M                        :Elevation Kelly Bushing
 ELEV.DF                       :Elevation DF
 EGL .M                        :Elevation Ground Level
 DRDP.                         :Drillers Depth
 CASD.                         :Casing Diameter
 CASB.                         :Casing Bottom
 CASX.                         :Casing Type
 CAST.                         :Casing Thickness
 TNOC.                         :Time Circulation Stopped
 LOGU.                         :Logging Unit
 RECB.            Veenendaal   :Recorded By
 OSR1.                         :Other Services
 OSR2.                         :Other Services
 OSR3.                         :Other Services
 BS  .MM                       :Bit Size
 MST .                         :Mean Surface Temperature
 TGRD.                         :Temperature Gradiant
 MAGN.                         :Magnetic Declination
 MDEN.                         :Density Matrix
 MATR.                         :Neutron Matrix
 DTMT.                         :Delta T Matrix
 DTFL.                         :Delta T Fluid
 MUDS.                         :Mud Sample Source
 MRS .                         :Mud Resistivity
 MTP .                         :Mud Temperature
 MFRS.                         :Resistivity Mud Filtrate
 MFTP.                         :Temperature Mud Filtrate
 MCRS.                         :Resistivity Mud Cake
 MCTP.                         :Temperature Mud Cake
 FTYP.                         :Fluid Type
 FD  .K/M3                     :Fluid Density
 DFV .S                        :Fluid Viscosity
 FPH .                         :Fuild PH
 ELCO.                         :Electron Cutoff
~Other Information
#MNEM.UNIT  Information      Description
#---------- ---------------  ------------------------
# --------------------------
## COMMENTS    Top_Depth   Bot_Depth  LithCode  Lat    Long   Elev_Gl
##    Type of LithCode   Lithologie - 1970
##                    .00         .00         .00     
##                    .45        5.75         .00     
##                   5.80        7.15       13.00     
##                   7.20        8.50        2.00     
##                   8.55       10.20       23.00     
##                  10.25       11.30       11.00     
##                  11.35       15.15       23.00     
##                  15.20       18.40       21.00     
##                  18.45       27.30       12.00     
##                  27.35       39.00       11.00     
##                  39.05       47.15       12.00     
##                  47.20       49.00       10.00     
##                  49.05       51.00        7.00     
##                  51.05       54.00       10.00     
##                  54.05       55.80        9.00     
##                  55.85       57.00       20.00     
##                  57.05       58.00        9.00     
##                  58.05       60.00       20.00     
##                  60.05       63.20       11.00     
##                  63.25       67.00        8.00     
##                  67.05       70.20        9.00     
##                  70.25       74.00        7.00     
##                  74.05       75.70        9.00     
##                  75.75       78.00        7.00     
##                  78.05       84.00        8.00     
##                  84.05       92.00        9.00     
##                  92.05       94.10       10.00     
##                  94.15       97.50        9.00     
##                  97.55      100.55       10.00     
##                 100.60      100.60         .00     
##                 100.65      126.40     #######     
##    last_layer   126.4
# --------------------------
~A DEPTH    SN40     SP       CAL      LN160    GAMMA    
# ...
    46.300    22.800      .076   566.900    29.140    11.780
    46.350    23.030      .076   567.800    29.240    11.730
    46.400    23.240      .075   569.600    29.320    11.710
    46.450    23.460      .075   572.800    29.390    11.650
    46.500    23.660      .075   572.900    29.480    11.440
    46.550    23.840      .075   572.300    29.560    11.050
    46.600    24.000      .074   572.300    29.680    10.580
    46.650    24.160      .074   572.300    29.820    10.290
    46.700    24.290      .074   572.200    30.030    10.160
    46.750    24.440      .074   571.900    30.180    10.140
    46.800    24.510      .074   571.300    30.300    10.450
    46.850    24.570      .074   570.700    30.520    10.760
    46.900    24.610      .074   569.700    30.700    11.070
    46.950    24.650      .074   567.800    30.890    10.990
    47.000    24.680      .074   565.900    31.080    10.060
    47.050    24.690      .074   565.200    31.300     9.370
    47.100    24.690      .074   566.000    31.520     8.950
    47.150    24.680      .074   568.000    31.740     8.450
    47.200    24.670      .074   570.200    31.960     8.040
    47.250    24.670      .074   569.500    32.260     7.980
    47.300    24.670      .074   566.500    32.440     7.910
    47.350    24.650      .074   565.300    32.560     7.770
    47.400    24.650      .074   565.300    32.980     7.640
    47.450    24.640      .074   565.400    33.320     7.580
    47.500    24.680      .075   564.900    33.610     7.590
    47.550    24.740      .075   561.300    33.970     7.670
    47.600    24.820      .075   557.300    34.310     7.790
    47.650    24.910      .075   553.300    34.630     7.870
    47.700    25.030      .075   549.200    34.880     7.870
    47.750    25.150      .075   548.600    35.120     7.860
    47.800    25.300      .074   552.000    35.390     7.890
    47.850    25.470      .074   555.000    35.510     8.000
    47.900    25.690      .074   553.100    35.620     8.060
    47.950    25.960      .074   555.800    35.810     8.050
    48.000    26.190      .074   558.400    36.000     7.940
    48.050    26.680      .074   561.300    36.180     7.890
    48.100    27.080      .074   562.500    36.360     7.860
    48.150    27.470      .074   562.400    36.520     7.860
    48.200    27.800      .073   562.100    36.670     7.860
    48.250    28.120      .073   555.800    36.800     7.800
    48.300    28.370      .073   555.000    36.900     7.740
    48.350    28.730      .073   548.100    36.990     7.620
    48.400    29.100      .073   537.200    37.100     7.540
    48.450    29.590      .073   534.400    37.240     7.550
    48.500    29.930      .073   536.100    37.450     7.650
    48.550    30.490      .073   537.600    37.620     7.700
    48.600    30.850      .073   537.900    37.840     7.670
    48.650    31.240      .073   538.000    38.150     7.710
    48.700    31.720      .073   536.700    38.380     7.840
    48.750    32.130      .073   536.300    38.670     8.150
    48.800    32.490      .073   536.400    38.870     8.030
    48.850    32.890      .073   537.000    39.000     7.650
    48.900    33.250      .072   538.400    39.150     7.620
    48.950    33.570      .072   539.500    39.340     7.500
    49.000    33.890      .072   539.700    39.500     7.330
    49.050    34.210      .072   535.200    39.690     7.280
    49.100    34.530      .071   528.100    40.020     7.280
    49.150    34.780      .071   521.100    40.280     7.300
    49.200    35.120      .070   515.100    40.540     7.300
    49.250    35.350      .069   514.300    40.760     7.060
    49.300    35.580      .068   514.400    40.930     6.740
    49.350    35.730      .066   520.400    41.090     6.410
    49.400    35.820      .064   526.700    41.220     6.080
    49.450    35.840      .062   533.000    41.330     5.710
    49.500    35.820      .059   540.600    41.360     5.400
    49.550    35.780      .057   542.300    41.350     5.270
    49.600    35.750      .056   543.500    41.340     5.250
    49.650    35.720      .055   543.700    41.320     5.350
    49.700    35.670      .055   543.200    41.280     5.560
    49.750    35.640      .055   536.800    41.220     5.760
    49.800    35.550      .055   528.100    41.150     5.930
    49.850    35.430      .055   519.400    41.040     6.030
    49.900    35.270      .055   515.500    40.900     6.050
    49.950    35.090      .055   514.500    40.760     6.060
    50.000    34.660      .055   514.700    40.600     6.110
    50.050    34.340      .055   517.800    40.450     6.180
    50.100    34.040      .055   525.100    40.280     6.370
    50.150    33.750      .055   532.400    40.100     6.590
    50.200    33.500      .055   539.700    39.940     6.700
    50.250    33.270      .055   543.500    39.640     6.700
    50.300    33.090      .055   543.200    39.350     6.580
    50.350    32.870      .055   539.200    39.060     6.460
    50.400    32.640      .055   532.300    38.830     6.490
    50.450    32.410      .055   538.000    38.500     6.650
    50.500    32.180      .055   543.600    38.250     6.660
    50.550    31.830      .055   549.200    37.940     6.670
    50.600    31.300      .055   551.600    37.680     6.720
    50.650    30.770      .055   548.400    37.310     7.050
    50.700    30.240      .055   546.200    36.950     7.120
    50.750    29.850      .055   547.800    36.660     7.160
    50.800    29.610      .056   555.200    36.360     7.250
    50.850    29.280      .056   558.500    36.050     7.240
    50.900    28.960      .056   557.800    35.740     7.160
    50.950    28.650      .056   558.200    35.440     7.090
    51.000    28.350      .056   558.600    35.120     7.030
    51.050    28.010      .056   558.200    34.850     6.800
    51.100    27.770      .056   556.900    34.460     6.610
    51.150    26.930      .056   555.900    34.150     6.560
    51.200    26.220      .056   556.000    33.890     6.800
    51.250    25.790      .056   557.600    33.690     7.110
    51.300    25.040      .056   559.000    33.280     7.250
    51.350    24.410      .056   560.100    33.080     7.330
    51.400    23.890      .056   563.300    32.940     7.510
    51.450    23.650      .056   565.400    32.820     7.500
    51.500    23.250      .057   565.600    32.710     7.320
    51.550    22.690      .057   565.300    32.600     7.140
    51.600    22.300      .057   564.300    32.470     7.210
    51.650    22.080      .057   561.300    32.350     7.410
    51.700    21.700      .057   557.800    32.130     7.610
    51.750    21.520      .057   554.900    31.980     8.000
    51.800    21.270      .057   551.900    31.860     8.000
    51.850    21.060      .058   549.800    31.760     7.890
    51.900    20.900      .058   547.800    31.670     7.930
    51.950    20.750      .058   545.500    31.610     8.050
    52.000    20.620      .058   546.100    31.560     8.510
    52.050    20.560      .058   547.100    31.530     8.940
    52.100    20.500      .058   548.700    31.510     9.360
    52.150    20.470      .058   552.000    31.510     9.510
    52.200    20.450      .058   552.100    31.510     9.560
    52.250    20.420      .058   551.200    31.510     9.610
    52.300    20.400      .058   551.400    31.520     9.950
    52.350    20.390      .058   552.300    31.520    10.050
    52.400    20.400      .058   552.600    31.550    10.150
    52.450    20.410      .058   552.800    31.580    10.630
    52.500    20.450      .058   553.400    31.620    11.100
    52.550    20.500      .058   552.600    31.660    11.260
    52.600    20.550      .058   550.400    31.700    10.690
    52.650    20.610      .058   548.200    31.760    10.360
    52.700    20.720      .058   546.800    31.810     9.960
    52.750    20.820      .058   542.500    31.870     9.710
    52.800    20.940      .058   544.700    31.920     9.600
    52.850    21.080      .058   544.400    31.980     9.340
