~Version Information
 VERS.                2.0:  CWLS LOG ASCII STANDARD -VERSION 2.0
 WRAP.                 NO:  ONE LINE PER DEPTH STEP
~WELL INFORMATION BLOCK
#MNEM.UNIT       DATA		            DESCRIPTION OF MNEMONIC
#---------    -------------            ------------------------
 STRT.M      .150                        :START DEPTH
 STOP.M   #######                        :STOP DEPTH
 STEP.M      .050                        :STEP
 NULL.    -999999.0                      :NULL VALUE
 COMP.       SOFTDR                      :COMPANY
 WELL.                          B62B0927 :WELL
 FLD .    Heerlen                        :FIELD
 CNTY.                                   :COUNTY
 STAT.                                   :STATE
 SRVC.                                   :SERVICE COMPANY
 DATE.     29-MAY-97                     :LOG DATE
 UWI .                                   :UNIQUE WELL ID
 LIC .                                   :LICENSE NUMBER
~Curve Information Block
#MNEM.UNIT      API CODE     Curve Description
#---------    -------------  ------------------------
DEPTH    .M         00 000 00 00          :  1  DEPTH
GAM(NAT) .CPS       00 000 00 00          :  2  GAM(NAT)
SP       .V         00 000 00 00          :  3  SP
RES(16N) .OHM.M     00 000 00 00          :  4  RES(16N)
RES(64N) .OHM.M     00 000 00 00          :  5  RES(64N)
RES      .OHM       00 000 00 00          :  6  RES
~Parameter Information Block
#MNEM.UNIT   Information     Description
#---------- ---------------  ------------------------
 FILE.                         :File Type
 FIID.                         :File Type Identifier
 VERS.                         :System Version
 SER .                         :System Serial Number
 TRUK.                         :Truck Calibration Number
 TOOL.                         :Tool Serial Number
 TIME.                         :Time    HrHrMinMin
 LAT .                         :Latitude
 LON .                         :Longitude
 LMF .            MV           :LOG Measured FROM
 DMF .                         :Driller Measured From
 PD  .                         :Permanent Data
 PDEV.                         :Elevation Permanent Data
 EKB .M                        :Elevation Kelly Bushing
 ELEV.DF                       :Elevation DF
 EGL .M                        :Elevation Ground Level
 DRDP.                         :Drillers Depth
 CASD.                         :Casing Diameter
 CASB.                         :Casing Bottom
 CASX.                         :Casing Type
 CAST.                         :Casing Thickness
 TNOC.                         :Time Circulation Stopped
 LOGU.                         :Logging Unit
 RECB.            Bergsma      :Recorded By
 OSR1.                         :Other Services
 OSR2.                         :Other Services
 OSR3.                         :Other Services
 BS  .MM                       :Bit Size
 MST .                         :Mean Surface Temperature
 TGRD.                         :Temperature Gradiant
 MAGN.                         :Magnetic Declination
 MDEN.                         :Density Matrix
 MATR.                         :Neutron Matrix
 DTMT.                         :Delta T Matrix
 DTFL.                         :Delta T Fluid
 MUDS.                         :Mud Sample Source
 MRS .                         :Mud Resistivity
 MTP .                         :Mud Temperature
 MFRS.                         :Resistivity Mud Filtrate
 MFTP.                         :Temperature Mud Filtrate
 MCRS.                         :Resistivity Mud Cake
 MCTP.                         :Temperature Mud Cake
 FTYP.                         :Fluid Type
 FD  .K/M3                     :Fluid Density
 DFV .S                        :Fluid Viscosity
 FPH .                         :Fuild PH
 ELCO.                         :Electron Cutoff
~Other Information
#MNEM.UNIT  Information      Description
#---------- ---------------  ------------------------
# --------------------------
## COMMENTS    Top_Depth   Bot_Depth  LithCode  Lat    Long   Elev_Gl
##    Type of LithCode   Lithologie - 1970
##                    .15        3.55       62.00     
##                   3.55        5.50        2.00     
##                   5.50        8.70       26.00     
##                   8.70       15.10       63.00     
##                  15.10       19.15       26.00     
##                  19.15       20.70       43.00     
##                  20.70       22.60       26.00     
##                  22.60       30.05       63.00     
##                  30.05       30.85       26.00     
##                  30.85       52.70       63.00     
##                  52.70       54.00       26.00     
##                  54.00       58.15       63.00     
##                  58.15       59.85       26.00     
##                  59.85       66.75       63.00     
##                  66.75       70.35       26.00     
##                  70.35       72.25       63.00     
##                  72.25       73.10       26.00     
##                  73.10       74.40       63.00     
##                  74.40       75.15       26.00     
##                  75.15       75.95       63.00     
##                  75.95       76.75       26.00     
##                  76.75       77.40       63.00     
##                  77.40       78.20       26.00     
##                  78.20       79.70       63.00     
##                  79.70       80.75       26.00     
##                  80.75       81.70       58.00     
##                  81.70       83.15       26.00     
##                  83.15       84.95       58.00     
##                  84.95       87.35       22.00     
##                  87.35       88.60       23.00     
##                  88.60       89.30       58.00     
##                  89.30       91.10       23.00     
##                  91.10       92.35       58.00     
##                  92.35       94.30       23.00     
##                  94.30       99.05       26.00     
##                  99.05      100.50       23.00     
##                 100.50      103.10       26.00     
##                 103.10      105.80       40.00     
##                 105.80      107.05       43.00     
##                 107.05      110.35       57.00     
##                 110.35      112.35       15.00     
##                 112.35      116.10       63.00     
##                 116.10      120.45       32.00     
##                 120.45      121.95       63.00     
##                 121.95      122.70       12.00     
##                 122.70      124.70       15.00     
##                 124.70      127.95       19.00     
##                 127.95      129.55       58.00     
##                 129.55      130.60       38.00     
##                 130.60      132.70       57.00     
##                 132.70      133.60       59.00     
##                 133.60      135.20       57.00     
##                 135.20      135.85       59.00     
##                 135.85      136.50       57.00     
##                 136.50      137.30       58.00     
##    last_layer   137.3
##    Type of LithCode   Lithologie - 1970
##                   1.90        2.15       87.00     
##                   2.15        3.90       84.00     
##                   3.90        4.25       85.00     
##                   4.25       21.95         .00     
##                  21.95       22.35       87.00     
##                  22.35       24.95       84.00     
##                  24.95       25.30       85.00     
##                  25.30       37.95         .00     
##                  37.95       38.25       87.00     
##                  38.25       40.95       84.00     
##                  40.95       41.20       85.00     
##                  41.20       42.00         .00     
##                  42.00       44.95       74.00     
##                  44.95       46.95         .00     
##                  46.95       47.25       87.00     
##                  47.25       50.90       84.00     
##                  50.90       51.20       85.00     
##                  51.20       59.95         .00     
##                  59.95       60.35       87.00     
##                  60.35       62.95       84.00     
##                  62.95       63.25       85.00     
##                  63.25       76.90         .00     
##                  76.90       77.15       87.00     
##                  77.15       80.00       84.00     
##                  80.00       80.35       85.00     
##                  80.35      106.95         .00     
##                 106.95      107.25       87.00     
##                 107.25      115.45       84.00     
##                 115.45      115.80       85.00     
##                 115.80      116.40         .00     
##                 116.40      117.40       77.00     
##                 117.40      119.40       80.00     
##                 119.40      120.45       77.00     
##                 120.45      121.90         .00     
##                 121.90      122.35       87.00     
##                 122.35      127.90       84.00     
##                 127.90      128.30       85.00     
##                 128.30      130.95         .00     
##                 130.95      131.25       87.00     
##                 131.25      133.95       84.00     
##                 133.95      134.15       85.00     
##    last_layer   134.15
# --------------------------
~A DEPTH    GAM(NAT) SP       RES(16N) RES(64N) RES      
# ...
    19.850    34.500      .025    54.900    42.200   258.500
    19.900    65.800      .025    54.500    42.100   258.600
    19.950    66.100      .025    54.100    42.000   258.200
    20.000    35.700      .025    53.700    42.100   258.000
    20.050    41.900      .025    53.400    42.100   257.600
    20.100    40.700      .025    53.000    42.200   257.000
    20.150    40.700      .025    52.600    42.200   256.500
    20.200    54.500      .026    52.300    42.300   255.600
    20.250    46.700      .026    52.000    42.400   254.600
    20.300    61.300      .026    51.500    42.400   253.100
    20.350    44.300      .026    50.700    42.400   252.100
    20.400    29.200      .027    50.000    42.400   251.800
    20.450    56.200      .027    49.300    42.400   251.200
    20.500    47.900      .027    48.800    42.300   250.700
    20.550    55.800      .027    48.200    42.300   250.700
    20.600    54.100      .028    47.800    42.200   250.400
    20.650    41.600      .028    47.600    42.200   249.200
    20.700    69.500      .028    47.500    42.100   247.300
    20.750    42.000      .028    47.400    42.000   246.100
    20.800    52.900      .029    47.000    42.000   245.700
    20.850    52.000      .029    46.500    42.000   244.800
    20.900    65.200      .029    46.000    41.900   243.100
    20.950    55.400      .029    45.700    41.900   242.300
    21.000    55.100      .029    45.100    41.900   242.100
    21.050    60.300      .030    44.600    41.900   241.800
    21.100    46.900      .030    44.000    41.800   241.600
    21.150    64.600      .030    43.500    41.800   241.500
    21.200    41.100      .030    43.000    41.700   241.100
    21.250    51.300      .031    42.800    41.600   240.300
    21.300    49.000      .031    42.400    41.500   239.700
    21.350    77.000      .031    42.000    41.500   238.900
    21.400    57.900      .031    41.600    41.400   237.800
    21.450    62.600      .031    41.200    41.200   236.500
    21.500    35.700      .031    40.900    41.000   235.500
    21.550    71.800      .031    40.600    40.700   234.500
    21.600    60.000      .031    40.300    40.300   236.600
    21.650    54.000      .031    40.100    40.000   240.000
    21.700    67.400      .031    40.000    39.600   242.100
    21.750    51.100      .032    40.000    39.300   241.900
    21.800    25.800      .032    40.000    39.000   241.300
    21.850    21.300      .033    39.800    38.800   240.800
    21.900    26.400      .033    39.700    38.500   240.200
    21.950    31.400      .034    39.500    38.400   239.700
    22.000    32.200      .034    39.400    38.400   239.400
    22.050    30.200      .034    39.300    38.200   239.200
    22.100    32.300      .034    39.200    38.100   239.100
    22.150    23.200      .033    39.000    38.000   239.400
    22.200    31.300      .033    38.600    38.000   239.800
    22.250    44.100      .033    38.200    37.900   240.100
    22.300    51.000      .033    37.700    37.900   240.000
    22.350    30.800      .032    37.100    37.800   240.100
    22.400    28.900      .032    36.500    37.700   240.200
    22.450    34.700      .032    35.900    37.700   240.300
    22.500    28.600      .033    35.400    37.800   241.100
    22.550    33.900      .033    35.100    37.800   241.600
    22.600    47.600      .034    34.800    37.800   242.000
    22.650    22.600      .034    34.600    37.700   241.600
    22.700    42.300      .034    34.100    37.700   240.300
    22.750    56.700      .035    33.800    37.600   239.300
    22.800    35.300      .035    33.300    37.500   238.700
    22.850    38.400      .035    32.700    37.400   237.300
    22.900    38.800      .035    32.000    37.400   235.800
    22.950    58.400      .036    31.500    37.300   235.500
    23.000    40.600      .036    31.000    37.300   236.500
    23.050    52.300      .036    30.700    37.300   236.800
    23.100    53.500      .037    30.500    37.300   235.900
    23.150    41.600      .037    30.400    37.400   233.500
    23.200    40.100      .037    30.300    37.500   231.600
    23.250    61.900      .037    30.300    37.600   231.800
    23.300    48.900      .038    30.200    37.600   233.400
    23.350    34.200      .038    30.100    37.700   233.800
    23.400    51.000      .037    29.900    37.700   232.300
    23.450    31.700      .037    29.600    37.700   229.300
    23.500    56.600      .037    29.300    37.700   226.300
    23.550    66.800      .036    29.100    37.500   225.600
    23.600    41.600      .036    29.100    37.400   226.200
    23.650    44.300      .036    29.200    37.200   224.100
    23.700    48.100      .035    29.400    37.100   219.100
    23.750    36.400      .036    29.800    37.100   217.100
    23.800    55.600      .036    30.300    37.000   217.900
    23.850    42.600      .036    30.600    36.900   217.700
    23.900    46.600      .036    30.700    36.800   217.400
    23.950    46.500      .036    30.700    36.700   218.400
    24.000    46.200      .037    30.700    36.600   217.500
    24.050    30.600      .037    30.500    36.500   212.800
    24.100    27.800      .037    30.400    36.300   213.900
    24.150    26.800      .037    30.300    36.200   220.100
    24.200    38.100      .037    30.200    36.100   224.800
    24.250    40.500      .037    30.400    36.000   227.600
    24.300    36.500      .037    30.600    35.800   230.400
    24.350    37.400      .037    30.800    35.600   232.200
    24.400    41.700      .037    31.100    35.400   233.400
    24.450    38.200      .037    31.500    35.200   233.800
    24.500    36.600      .037    31.900    34.900   233.800
    24.550    56.100      .037    32.400    34.600   233.700
    24.600    43.700      .038    32.800    34.300   233.500
    24.650    31.200      .038    33.000    34.100   233.300
    24.700    29.400      .038    33.200    33.900   233.200
    24.750    37.100      .038    33.400    33.800   233.200
    24.800    26.000      .037    33.600    33.700   233.500
    24.850    50.700      .037    33.800    33.600   233.900
    24.900    52.200      .037    34.200    33.600   234.300
    24.950    37.000      .037    34.600    33.600   235.700
    25.000    24.600      .037    34.900    33.700   237.100
    25.050    32.700      .036    35.000    33.700   238.200
    25.100    42.300      .036    34.800    33.800   238.700
    25.150    26.800      .035    34.300    33.800   239.300
    25.200    24.100      .035    33.900    33.900   240.300
    25.250    30.200      .035    33.400    34.000   241.200
    25.300    42.900      .035    33.300    34.000   241.700
    25.350    34.700      .036    33.300    34.000   241.100
    25.400    48.700      .036    33.500    34.100   238.400
    25.450    32.400      .036    33.900    34.100   233.500
    25.500    42.200      .036    34.300    34.100   229.500
    25.550    36.300      .036    34.500    34.100   226.500
    25.600    24.000      .036    34.600    34.200   225.000
    25.650    54.400      .036    34.400    34.300   223.900
    25.700    63.600      .036    34.000    34.400   223.000
    25.750    50.000      .036    33.600    34.300   222.900
    25.800    52.600      .035    33.200    34.300   222.100
    25.850    32.900      .035    33.000    34.400   222.300
    25.900    37.100      .035    32.800    34.600   223.000
    25.950    27.900      .035    32.600    34.800   223.200
    26.000    44.200      .035    32.700    35.000   220.900
    26.050    55.000      .035    32.800    35.300   219.000
    26.100    59.300      .035    32.900    35.500   217.200
    26.150    32.100      .035    33.000    35.800   215.100
    26.200    30.600      .035    33.100    36.000   214.500
    26.250    63.200      .035    33.000    36.100   214.400
    26.300    39.900      .034    33.000    36.200   214.100
    26.350    37.200      .034    32.700    36.100   215.500
    26.400    61.300      .034    32.600    36.100   218.200
