~Version Information
 VERS.                2.0:  CWLS LOG ASCII STANDARD -VERSION 2.0
 WRAP.                 NO:  ONE LINE PER DEPTH STEP
~WELL INFORMATION BLOCK
#MNEM.UNIT       DATA		            DESCRIPTION OF MNEMONIC
#---------    -------------            ------------------------
 STRT.M      .000                        :START DEPTH
 STOP.M    99.850                        :STOP DEPTH
 STEP.M      .050                        :STEP
 NULL.    -999999.0                      :NULL VALUE
 COMP.       WML                         :COMPANY
 WELL.                          B62B0901 :WELL
 FLD .    Klimmen                        :FIELD
 CNTY.                                   :COUNTY
 STAT.                                   :STATE
 SRVC.                                   :SERVICE COMPANY
 DATE.     17-JAN-92                     :LOG DATE
 UWI .                                   :UNIQUE WELL ID
 LIC .                                   :LICENSE NUMBER
~Curve Information Block
#MNEM.UNIT      API CODE     Curve Description
#---------    -------------  ------------------------
DEPTH    .M         00 000 00 00          :  1  DEPTH
SN40     .OHM.M     00 000 00 00          :  2  SN40
SP       .V         00 000 00 00          :  3  SP
CAL      .MM        00 000 00 00          :  4  CAL
LN160    .OHM.M     00 000 00 00          :  5  LN160
GAMMA    .CPS       00 000 00 00          :  6  GAMMA
~Parameter Information Block
#MNEM.UNIT   Information     Description
#---------- ---------------  ------------------------
 FILE.                         :File Type
 FIID.                         :File Type Identifier
 VERS.                         :System Version
 SER .                         :System Serial Number
 TRUK.                         :Truck Calibration Number
 TOOL.                         :Tool Serial Number
 TIME.                         :Time    HrHrMinMin
 LAT .                         :Latitude
 LON .                         :Longitude
 LMF .            MV           :LOG Measured FROM
 DMF .                         :Driller Measured From
 PD  .                         :Permanent Data
 PDEV.                         :Elevation Permanent Data
 EKB .M                        :Elevation Kelly Bushing
 ELEV.DF                       :Elevation DF
 EGL .M                        :Elevation Ground Level
 DRDP.                         :Drillers Depth
 CASD.                         :Casing Diameter
 CASB.                         :Casing Bottom
 CASX.                         :Casing Type
 CAST.                         :Casing Thickness
 TNOC.                         :Time Circulation Stopped
 LOGU.                         :Logging Unit
 RECB.            Bergsma      :Recorded By
 OSR1.                         :Other Services
 OSR2.                         :Other Services
 OSR3.                         :Other Services
 BS  .MM                       :Bit Size
 MST .                         :Mean Surface Temperature
 TGRD.                         :Temperature Gradiant
 MAGN.                         :Magnetic Declination
 MDEN.                         :Density Matrix
 MATR.                         :Neutron Matrix
 DTMT.                         :Delta T Matrix
 DTFL.                         :Delta T Fluid
 MUDS.                         :Mud Sample Source
 MRS .                         :Mud Resistivity
 MTP .                         :Mud Temperature
 MFRS.                         :Resistivity Mud Filtrate
 MFTP.                         :Temperature Mud Filtrate
 MCRS.                         :Resistivity Mud Cake
 MCTP.                         :Temperature Mud Cake
 FTYP.                         :Fluid Type
 FD  .K/M3                     :Fluid Density
 DFV .S                        :Fluid Viscosity
 FPH .                         :Fuild PH
 ELCO.                         :Electron Cutoff
~Other Information
#MNEM.UNIT  Information      Description
#---------- ---------------  ------------------------
# --------------------------
## COMMENTS    Top_Depth   Bot_Depth  LithCode  Lat    Long   Elev_Gl
##    Type of LithCode   Lithologie - 1970
##                    .00         .30        7.00     
##                    .35        4.60       11.00     
##                   4.65       77.95         .00     
##                  78.00       88.95        7.00     
##                  89.00       99.05       10.00     
##                  99.10       99.10         .00     
##    last_layer   99.1
# --------------------------
~A DEPTH    SN40     SP       CAL      LN160    GAMMA    
# ...
    77.200    49.750      .026   238.300    56.620    18.440
    77.250    49.600      .026   238.200    56.850    18.550
    77.300    49.420      .027   238.200    56.960    18.600
    77.350    49.310      .027   238.200    57.070    18.440
    77.400    49.260      .027   238.200    57.160    18.200
    77.450    49.300      .027   238.200    57.230    18.070
    77.500    49.390      .027   238.200    57.280    18.000
    77.550    49.500      .027   238.200    57.290    17.960
    77.600    49.620      .027   238.100    57.300    17.920
    77.650    49.860      .027   238.100    57.310    17.890
    77.700    50.230      .027   238.100    57.320    17.880
    77.750    50.510      .026   238.100    57.330    17.900
    77.800    50.840      .026   238.000    57.330    18.080
    77.850    51.240      .026   237.900    57.360    18.500
    77.900    51.710      .026   237.800    57.400    18.780
    77.950    52.550      .027   237.700    57.440    19.110
    78.000    53.080      .027   237.500    57.490    19.400
    78.050    54.110      .027   237.700    57.540    19.680
    78.100    55.160      .027   238.000    57.610    19.950
    78.150    55.850      .027   238.300    57.710    20.180
    78.200    56.330      .027   238.600    57.830    20.380
    78.250    56.670      .027   238.900    57.960    20.200
    78.300    57.160      .028   239.100    58.080    20.010
    78.350    57.570      .028   239.400    58.570    19.810
    78.400    58.080      .028   239.100    58.870    19.610
    78.450    58.760      .028   238.800    59.270    19.390
    78.500    59.840      .028   238.200    59.600    19.230
    78.550    60.500      .029   237.700    59.840    18.990
    78.600    61.650      .029   237.300    60.030    18.730
    78.650    62.080      .029   236.800    60.170    18.430
    78.700    62.750      .029   236.500    60.320    18.020
    78.750    63.160      .029   236.500    60.510    17.650
    78.800    63.520      .029   236.600    60.720    17.460
    78.850    63.680      .029   236.700    61.020    17.330
    78.900    63.850      .029   236.800    61.550    17.370
    78.950    63.960      .029   236.900    62.110    17.470
    79.000    64.090      .029   237.100    62.860    17.350
    79.050    64.180      .029   237.000    63.680    17.100
    79.100    64.270      .028   236.900    65.310    16.480
    79.150    64.380      .028   236.900    66.140    16.100
    79.200    64.490      .028   236.900    66.480    15.810
    79.250    64.600      .027   236.900    66.800    15.780
    79.300    64.680      .026   236.900    66.990    15.880
    79.350    64.920      .025   236.900    67.090    16.070
    79.400    65.190      .025   236.900    67.040    16.350
    79.450    65.520      .024   237.000    66.880    16.800
    79.500    65.950      .023   237.000    66.750    17.040
    79.550    66.510      .027   237.100    66.380    17.180
    79.600    66.920      .028   237.200    65.730    17.210
    79.650    67.390      .028   237.300    65.310    17.210
    79.700    67.850      .028   237.500    64.830    17.150
    79.750    68.310      .028   237.600    64.610    17.010
    79.800    69.570      .028   237.800    64.500    16.680
    79.850    70.500      .028   237.900    64.460    16.530
    79.900    71.480      .028   238.300    64.440    16.390
    79.950    72.510      .028   238.800    64.450    16.260
    80.000    72.850      .028   239.500    64.450    16.020
    80.050    72.900      .028   240.100    64.490    16.240
    80.100    72.320      .028   240.800    64.540    16.600
    80.150    71.760      .028   241.400    64.590    17.160
    80.200    70.980      .028   242.000    64.670    17.530
    80.250    71.020      .028   241.800    64.740    17.660
    80.300    71.450      .028   240.100    64.840    17.760
    80.350    72.230      .028   238.300    64.920    17.820
    80.400    73.320      .028   238.000    65.000    17.880
    80.450    74.290      .028   238.100    65.100    17.930
    80.500    76.690      .029   238.200    65.220    18.180
    80.550    77.180      .029   238.400    65.390    18.510
    80.600    77.270      .029   238.400    65.600    18.690
    80.650    77.060      .029   238.000    65.820    18.930
    80.700    76.590      .029   237.400    66.180    19.270
    80.750    75.960      .029   237.100    66.530    20.330
    80.800    75.300      .029   236.900    66.850    20.700
    80.850    74.870      .029   236.800    67.210    20.990
    80.900    74.500      .029   236.800    67.790    21.190
    80.950    74.250      .029   236.900    68.380    21.290
    81.000    74.060      .029   237.000    69.400    21.260
    81.050    73.880      .029   237.100    70.450    21.210
    81.100    73.720      .029   237.200    71.380    21.210
    81.150    73.580      .029   237.100    72.070    21.710
    81.200    73.480      .029   237.000    72.350    21.700
    81.250    73.380      .029   237.000    72.560    21.690
    81.300    73.270      .029   236.900    72.730    21.880
    81.350    73.110      .029   236.900    72.680    22.270
    81.400    72.960      .029   236.900    72.460    22.450
    81.450    72.670      .029   236.900    72.160    22.150
    81.500    72.290      .029   237.000    71.850    21.940
    81.550    71.630      .029   237.000    71.480    21.970
    81.600    71.330      .029   237.100    71.120    22.110
    81.650    71.050      .029   236.800    70.710    22.350
    81.700    70.800      .029   236.600    70.330    22.270
    81.750    70.610      .029   236.500    69.900    21.960
    81.800    70.420      .029   236.400    69.380    21.670
    81.850    70.270      .029   236.300    68.820    21.290
    81.900    70.150      .029   236.700    68.250    21.030
    81.950    70.030      .029   237.200    67.800    20.800
    82.000    69.880      .029   237.600    67.350    20.710
    82.050    69.640      .029   237.600    67.080    20.660
    82.100    69.300      .028   237.800    66.820    20.690
    82.150    68.960      .028   238.000    66.590    20.770
    82.200    68.950      .028   238.100    66.370    21.080
    82.250    68.970      .028   238.700    66.160    21.380
    82.300    69.010      .028   239.400    65.990    21.600
    82.350    68.990      .028   240.500    65.800    21.510
    82.400    68.810      .028   241.600    65.650    21.360
    82.450    68.710      .028   243.100    65.410    21.200
    82.500    68.160      .028   244.200    65.170    21.300
    82.550    67.430      .028   246.400    64.950    22.040
    82.600    66.850      .028   246.900    64.730    22.190
    82.650    66.290      .028   244.500    64.500    22.100
    82.700    65.580      .028   241.400    64.330    21.910
    82.750    65.190      .028   239.100    64.040    21.700
    82.800    64.800      .028   237.700    63.770    21.480
    82.850    64.430      .028   237.000    63.570    20.950
    82.900    64.120      .029   237.100    63.380    20.730
    82.950    63.880      .029   237.100    63.190    20.680
    83.000    63.590      .029   237.100    63.010    20.480
    83.050    63.320      .029   237.000    62.860    20.230
    83.100    63.070      .028   237.000    62.760    20.000
    83.150    62.870      .028   236.900    62.640    19.740
    83.200    62.760      .028   236.800    62.580    19.320
    83.250    62.680      .028   236.800    62.510    18.650
    83.300    62.590      .028   236.700    62.420    18.400
    83.350    62.510      .028   236.800    62.330    18.320
    83.400    62.440      .028   236.900    62.250    18.160
    83.450    62.320      .028   237.000    62.150    17.870
    83.500    62.210      .028   237.100    62.050    17.830
    83.550    62.060      .028   237.200    61.930    17.950
    83.600    61.910      .028   237.500    61.820    18.510
    83.650    61.530      .028   237.800    61.680    18.860
    83.700    61.180      .028   238.100    61.500    19.460
    83.750    60.860      .028   238.400    61.300    19.390
